~Version
 VERS              .         2.0                           : CWLS LOG ASCII STANDARD - VERSION 2.0
 WRAP              .         NO                            : ONE LINE PER DEPTH STEP
 DLM               .         SPACE                         : DELIMITING CHARACTER(SPACE TAB OR COMMA)
~Well Information
#_______________________________________________________________________________
#
#PARAMETER_NAME    .UNIT     VALUE                         : DESCRIPTION
#_______________________________________________________________________________
STRT               .ft       7493                          : First reference value
STOP               .ft       9543.25                       : Last reference value
STEP               .ft       0.25                          : Step increment
NULL               .         -9999                         : Missing value
COMP               .         University Of Utah            : Company
WELL               .         FORGE 78B-32                  : Well name
FLD                .         None                          : Field
LOC                .                                       : Location
CNTY               .         Beaver                        : County
STAT               .         Utah                          : State
CTRY               .         USA                           : Country
SRVC               .         Schlumberger                  : Service Company
DATE               .         19-Jul-2021                   : Date
API                .         NRC 42-00090-03               : API number
APD                .ft       29.5                          : Elevation of Depth Reference (LMF) Above Permanent Datum
BHS                .         OPEN                          : Borehole Status (Open or Cased Hole)
BHT                .degF     320.87                        : Bottom Hole Temperature
BLI                .ft       -999.25                       : Bottom Log Interval
BS                 .in       8.75                          : Bit Size
CBDR               .ft       2989                          : Casing Bottom of Driller
CBLO               .ft       2988                          : Logger Casing Shoe Depth
CSIZ               .in       11.75                         : Current Casing Size
CWEI               .lbm/ft   54                            : Casing Weight
DCS                .         19-Jul-2021                   : Date Circulation Stopped
DFD                .lbm/gal  8.3                           : Drilling Fluid Density
DFT                .         WATER                         : Drilling Fluid Type
DLAB               .         19-Jul-2021                   : Date Logger At Bottom
EDF                .ft       5536                          : Elevation of Drill Floor
EGL                .ft       5536                          : Elevation of Ground Level
EKB                .ft       5565.5                        : Elevation of Kelly Bushing
EPD                .ft       5536                          : Elevation of Permanent Datum (PDAT) above Mean Sea Level
LMF                .         KB                            : Logging Measured From (Name of Logging Elevation Reference)
LUL                .         F.Morgan                      : Logging Unit Location
LUN                .         9108                          : Logging Unit Number
LATI               .         38.500171 degrees             : Latitude
LONG               .         -112.88221 degrees            : Longitude
MCST               .degF     68                            : Mudcake Sample Temperature
MFST               .degF     68                            : Mud Filtrate Sample Temperature
MRT                .degF     321.43                        : Maximum Recorded Temperature
MST                .degF     68                            : Mud Sample Temperature
ORIGINALWELLNAME   .         FORGE 78B-32                  : 
PDAT               .         GL                            : Permanent Datum
PRODUCER-CODE      .         440                           : 
PRODUCER-NAME      .         Schlumberger                  : 
RMB                .ohm.m    0.04564156                    : Resistivity of Mud at Bottom Hole Temperature
RMCS               .ohm.m    -999.25                       : Resistivity of Mud Cake Sample
RMFS               .ohm.m    0.15                          : Resistivity of Mud Filtrate Sample
RMS                .ohm.m    0.2                           : Resistivity of Mud Sample
RUN                .         1A                            : Run Number
TCS                .         03_00_00                      : Time Circulation Stopped
TDD                .ft       8540                          : Driller Total Depth
TDL                .ft       8540                          : Logger Total Depth
TLAB               .         07_53_00                      : Time Logger At Bottom
TLI                .ft       -999.25                       : Top Log Interval
~Parameter Information Block
#_______________________________________________________________________________
#
#PARAMETER_NAME    .UNIT     VALUE                         : DESCRIPTION
#_______________________________________________________________________________
SET                .         QSLT                          : 
TLFamily_AT10      .         Resistivity - Induction Array 10: 
TLFamily_AT20      .         Resistivity - Induction Array 20: 
TLFamily_AT30      .         Resistivity - Induction Array 30: 
TLFamily_AT60      .         Resistivity - Induction Array 60: 
TLFamily_AT90      .         Resistivity - Induction Array 90: 
TLFamily_BS        .         Bit Size                      : 
TLFamily_DTCO_FINAL .         Compressional Slowness        : 
TLFamily_DTSH_FINAL .         Shear Slowness                : 
TLFamily_GR_STGC   .         Gamma Ray                     : 
TLFamily_HDAR      .         Borehole Diameter             : 
TLFamily_PR        .         Poisson Ratio (Dynamic)       : 
TLFamily_SPHI      .         Total Porosity                : 
TLFamily_TDEP      .         Measured Depth                : 
TLFamily_TENS      .         Tension                       : 
TLFamily_TNPH      .         Thermal Neutron Porosity      : 
TLFamily_VPVS      .         VpVs (Compressional To Shear) Ratio: 
~Curve Information
#_______________________________________________________________________________
#
#LOGNAME           .UNIT     LOG_ID                        : DESCRIPTION
#_______________________________________________________________________________
TDEP               .ft                                     : Measured Depth 
AT10               .ohm.m                                  : Array Induction Two Foot Resistivity A10 
AT20               .ohm.m                                  : Array Induction Two Foot Resistivity A20 
AT30               .ohm.m                                  : Array Induction Two Foot Resistivity A30 
AT60               .ohm.m                                  : Array Induction Two Foot Resistivity A60 
AT90               .ohm.m                                  : Array Induction Two Foot Resistivity A90 
BS                 .in                                     : Bit Size 
DTCO_FINAL         .us/ft                                  : Compressional Slowness 
DTSH_FINAL         .us/ft                                  : Shear Slowness 
GR_STGC            .gAPI                                   : Gamma Ray 
HDAR               .in                                     : Hole Diameter from Area 
PR                 .unitless                               : Possion's Ratio 
SPHI               .ft3/ft3                                : Total porosity from Sonic 
TENS               .lbf                                    : Cable Tension 
TNPH               .ft3/ft3                                : Thermal Neutron Porosity (Ratio Method) in Selected Lithology 
VPVS               .unitless                               : VpVs Ratio 
~Ascii
# ...
7895.5     0.3057688  1950       1950       7.000545   30.47933   10.625     56.1623    95.04746   65.58403   10.625     0.231777   0.06121767 3776.333   0.0459724  1.692371  
7895.75    0.3029695  1950       1950       6.967934   37.97523   10.625     56.25455   95.13451   66.89408   10.625     0.2311778  0.06186962 3810.667   0.04745952 1.691143  
7896       0.3013532  1950       1950       6.931744   47.13728   10.625     56.24949   95.18691   68.20413   10.625     0.2317068  0.06183384 3845       0.04894664 1.692227  
7896.25    0.3008556  1950       1950       6.89383    56.54281   10.625     56.22177   95.15916   67.79592   10.625     0.2318727  0.06163796 3873.5     0.05109798 1.692568  
7896.5     0.3013381  1950       1950       6.851127   62.89161   10.625     56.20214   95.00611   67.38771   10.625     0.2308317  0.0614992  3902       0.05324932 1.690436  
7896.75    0.302576   1950       1950       6.79458    62.85854   10.625     56.18487   94.73201   66.06593   10.625     0.2286819  0.06137719 3908.667   0.05227268 1.686077  
7897       0.30427    1950       1950       6.711189   56.73021   10.625     56.16183   94.42932   64.74415   10.625     0.2263326  0.06121432 3915.333   0.05129605 1.681379  
7897.25    0.3060825  1950       1950       6.588934   47.82346   10.625     56.13388   94.23652   63.8137    10.625     0.2250189  0.06101685 3925.167   0.04810971 1.678781  
7897.5     0.3076895  1950       1950       6.422573   39.13959   10.625     56.10769   94.22672   62.88325   10.625     0.2253278  0.06083175 3935       0.04492336 1.67939   
7897.75    0.3088458  1950       1950       6.217452   32.05297   10.625     56.08596   94.34801   63.342     10.625     0.2267474  0.06067819 3922.167   0.04499929 1.682204  
7898       0.3094417  1950       1950       5.98936    26.76383   10.625     56.06927   94.4903    63.80074   10.625     0.2282669  0.06056022 3909.333   0.04507522 1.685242  
7898.25    0.3095266  1950       1950       5.760502   23.01245   10.625     56.06008   94.58878   66.08636   10.625     0.2292757  0.06049525 3917.167   0.04461192 1.687275  
7898.5     0.3092869  1950       1950       5.553791   20.48299   10.625     56.06744   94.64747   68.37199   10.625     0.2296834  0.06054728 3925       0.04414863 1.6881    
7898.75    0.3089913  1950       1950       5.388098   18.92792   10.625     56.10104   94.69082   71.75114   10.625     0.2295657  0.06078476 3942.333   0.04520342 1.687862  
7899       0.3089244  1950       1950       5.275891   18.17758   10.625     56.16756   94.7297    75.13028   10.625     0.2289192  0.06125487 3959.667   0.04625821 1.686555  
7899.25    0.3093255  1950       1950       5.223028   18.12714   10.625     56.27082   94.75723   79.09343   10.625     0.2276223  0.06198457 3958.833   0.04577532 1.68395   
7899.5     0.3103459  1950       1950       5.22958    18.73904   10.625     56.41311   94.78141   83.05659   10.625     0.2257027  0.06299017 3958       0.04529241 1.680131  
7899.75    0.3120298  1950       1950       5.290544   20.02422   10.625     56.58762   94.81179   85.37587   10.625     0.2233373  0.06422346 3958       0.04512051 1.675486  
7900       0.3143165  1950       1950       5.396087   22.02215   10.625     56.77036   94.85577   87.69516   10.625     0.220951   0.06551491 3958       0.0449486  1.670868  
7900.25    0.3170543  1950       1950       5.531875   24.76289   10.625     56.9211    94.90858   89.24633   10.625     0.2191209  0.06658024 3940.333   0.04607229 1.667371  
7900.5     0.320011   1950       1950       5.680443   28.20529   10.625     57.00043   94.95434   90.7975    10.625     0.2183204  0.06714083 3922.667   0.04719598 1.665853  
7900.75    0.322888   1950       1950       5.82402    32.20011   10.625     56.98429   94.97384   90.9603    10.625     0.2187502  0.06702679 3880.958   0.04700423 1.666667  
7901       0.3253586  1950       1950       5.948246   36.44257   10.625     56.87381   94.95239   91.12309   10.625     0.2202518  0.06624603 3839.25    0.04681249 1.669527  
7901.25    0.3271275  1950       1950       6.045206   40.56215   10.625     56.6896    94.88388   90.63401   10.625     0.222441   0.06494419 3820.458   0.04635148 1.673744  
7901.5     0.3279854  1950       1950       6.114425   44.31336   10.625     56.45913   94.7718    90.14494   10.625     0.2249224  0.06331538 3801.667   0.04589048 1.678591  
7901.75    0.3278445  1950       1950       6.16151    47.74828   10.625     56.2055    94.62659   88.55434   10.625     0.2274387  0.06152298 3785.667   0.04407464 1.683582  
7902       0.3267567  1950       1950       6.195495   51.2385    10.625     55.95278   94.45674   86.96375   10.625     0.2297083  0.05973697 3769.667   0.0422588  1.688151  
7902.25    0.3249134  1950       1950       6.226321   55.4582    10.625     55.73008   94.26307   86.23328   10.625     0.2313139  0.05816311 3764       0.042025   1.691422  
7902.5     0.3226227  1950       1950       6.263184   61.19111   10.625     55.56298   94.04433   85.50282   10.625     0.2318746  0.05698222 3758.333   0.0417912  1.692572  
7902.75    0.3202612  1950       1950       6.314001   69.24363   10.625     55.45332   93.81251   84.1942    10.625     0.2314684  0.05620723 3764.667   0.03875083 1.691738  
7903       0.3182101  1950       1950       6.385014   80.69904   10.625     55.37891   93.59616   82.88557   10.625     0.2306693  0.05568134 3771       0.03571047 1.690105  
7903.25    0.3167887  1950       1950       6.481369   97.00776   10.625     55.31825   93.42579   81.86076   10.625     0.2300668  0.05525264 3755.375   0.03593057 1.688878  
7903.5     0.3161978  1950       1950       6.607825   120.1901   10.625     55.27258   93.32038   80.83595   10.625     0.2298147  0.05492989 3739.75    0.03615066 1.688367  
7903.75    0.3164827  1950       1950       6.769061   152.1932   10.625     55.26149   93.28789   79.5405    10.625     0.2296918  0.05485155 3722.208   0.03504436 1.688117  
7904       0.3175113  1950       1950       6.968695   194.9791   10.625     55.30265   93.32729   78.24506   10.625     0.2294233  0.05514238 3704.667   0.03393807 1.687574  
7904.25    0.3189762  1950       1950       7.206896   248.8945   10.625     55.39465   93.42142   78.23965   10.625     0.228877   0.0557926  3695.5     0.0366694  1.68647   
7904.5     0.3204303  1950       1950       7.477129   302.5942   10.625     55.52184   93.53675   78.23425   10.625     0.2279888  0.05669147 3686.334   0.03940072 1.684684  
7904.75    0.3213554  1950       1950       7.762713   331.2191   10.625     55.66526   93.64123   78.36246   10.625     0.2267558  0.05770502 3690.167   0.03869794 1.68222   
7905       0.3212372  1950       1950       8.034118   315.853    10.625     55.8148    93.72237   78.49066   10.625     0.2252147  0.05876181 3694       0.03799514 1.679167  
7905.25    0.3196413  1950       1950       8.249019   267.7402   10.625     55.96972   93.78485   78.74551   10.625     0.2234137  0.0598567  3707.333   0.03921355 1.675635  
7905.5     0.3162871  1950       1950       8.359074   213.0206   10.625     56.13578   93.83666   79.00037   10.625     0.2213324  0.06103022 3720.667   0.04043196 1.671602  
7905.75    0.3111029  1950       1950       8.325916   166.3576   10.625     56.31796   93.88569   78.45705   10.625     0.2189598  0.06231773 3739.667   0.03983334 1.667065  
7906       0.3042463  1950       1950       8.140595   131.0564   10.625     56.50078   93.94231   77.91373   10.625     0.2166305  0.06360974 3758.667   0.03923471 1.662673  
7906.25    0.2960874  1950       1950       7.832072   105.1174   10.625     56.63943   94.01584   78.03145   10.625     0.2151436  0.06458964 3785.458   0.04035444 1.659901  
7906.5     0.2871503  1950       1950       7.455935   86.76791   10.625     56.66801   94.10554   78.14915   10.625     0.215545   0.06479157 3812.25    0.04147416 1.660647  
7906.75    0.2780275  1950       1950       7.07197    74.02811   10.625     56.53844   94.19749   77.9035    10.625     0.2184395  0.06387594 3830.792   0.04204342 1.666078  
