~VERSION INFORMATION
VERS.           1.2   :CWLS Log ASCII Standard - VERSION 1.2
WRAP.           NO    :One Line per depth step
PROD.  Schlumberger   :LAS Producer
PROG.  DLIS to ASCII 2.3                               :LAS Program name and version
CREA.        2021/07/30 13:36                          :LAS Creation date {YYYY/MM/DD hh:mm}
DLIS_CREA.  2021-Jul-30 07:07                          :DLIS Creation date and time {YYYY-MMM-DD hh:mm}
SOURCE.     dc707e3c-4962-4d77-8314-dc20fe7b42b8       :DLIS File Name
#--------------------------------------------------
~WELL INFORMATION
#MNEM.UNIT      DATA             DESCRIPTION
#---- ------ --------------   -----------------------------
STRT .F        8616.5000     :START DEPTH     
STOP .F        9518.5000     :STOP DEPTH     
STEP .F           0.5000       :STEP     
NULL .          -999.25      :NULL VALUE
COMP .                 COMPANY:  University Of Utah                 
WELL .                    WELL:  FORGE 78B-32                       
FLD  .                   FIELD:  None                               
LOC  .                LOCATION:  Lat: 38.500171, Long: -112.88221   
CNTY .                  COUNTY:  Beaver                             
STAT .                   STATE:  Utah                               
CTRY .                 COUNTRY:                                     
SRVC .         SERVICE COMPANY:  Schlumberger                       
LATI .DEG             LATITUDE:  38 30' 0.616" N                   
LONG .DEG            LONGITUDE:  112 52' 55.956" W                 
API  .              API NUMBER:  NRC 42-00090-03                    
DATE .                LOG DATE:  30-Jul-2021
UWI  .          UNIQUE WELL ID:                                     
#-----------------------------------------------------------------------------
~PARAMETER INFORMATION
#MNEM.UNIT    VALUE                      DESCRIPTION
#---- -----   --------------------       ------------------------
CN   .        University Of Utah         :Company Name
WN   .        FORGE 78B-32               :Well Name
FN   .        None                       :Field Name
FL   .        Lat  38.500171  Long  -112.88221 :Field Location
FL1  .                                   :Field Location, Line 1
COUN .        Beaver                     :County or Parish
STAT .        Utah                       :State or Province
NATI .                                   :Nation
DATE .        30-Jul-2021                :Tools Above Rotary Table Date
APIN .        NRC 42-00090-03            :API Well Number
SECT .                                   :Section
TOWN .                                   :Township
RANG .                                   :Range
DMF  .        KB                         :Drilling Measured From (Name of Drilling Elevation Reference)
LMF  .        KB                         :Logging Measured From (Name of Logging Elevation Reference)
PDAT .        GL                         :Permanent Datum
ENGI .        CSTILES                    :Engineer s Name
WITN .        Virgil  Welch              :Witness s Name
LATI .        38� 30' 0.616  N           :Latitude
LONG .        112� 52' 55.956  W         :Longitude
LUL  .        F.Morgan                   :Logging Unit Location
LUN  .        9108                       :Logging Unit Number
RUN  .        1B                         :Run Number
SON  .                                   :Service Order Number
BHT  .DEGF     419.00000                 :Bottom Hole Temperature
BS   .IN         5.75000                 :Bit Size
MDEN .G/C3       2.71000                 :Matrix Density for Density Porosity
DFD  .LB/G       8.30000                 :Drilling Fluid Density
DFV  .S         24.00000                 :Drilling Fluid Viscosity
DFL  .C3      -999.25000                 :Drilling Fluid Loss
RMFS .OHMM       4.42000                 :Resistivity of Mud Filtrate Sample
EKB  .F       5565.50000                 :Elevation of Kelly Bushing
EGL  .F       5536.00000                 :Elevation of Ground Level
BLI  .F       9532.00000                 :Bottom Log Interval
BSAL .PPM      700.00000                 :Borehole Salinity
FLEV .F          8.00000                 :Depth of Drilling Fluid Level to LMF (Log Measured From)
MCST .DEGF      62.00000                 :Mudcake Sample Temperature
MFST .DEGF      62.00000                 :Mud Filtrate Sample Temperature
MRT  .DEGF     419.00000                 :Maximum Recorded Temperature
MST  .DEGF      62.00000                 :Mud Sample Temperature
RMCS .OHMM       6.21000                 :Resistivity of Mud Cake Sample
RMS  .OHMM       5.20000                 :Resistivity of Mud Sample
RW   .OHMM       1.00000                 :Connate Water Resistivity
TDD  .F       9500.00000                 :Driller Total Depth
TDL  .F       9532.00000                 :Logger Total Depth
TLI  .F       8530.00000                 :Top Log Interval
HIDE .                                   :Header Identifier
MATR .        LIME                       :Rock Matrix for Neutron Porosity Corrections
FNUM .           1.00000                 :F-Numerator for Formation Factor Formula
FEXP .           2.00000                 :Exponent "m" for Formation Factor Formula
DFT  .        WATER                      :Drilling Fluid Type
DFPH .          11.00000                 :Drilling Fluid pH
MCSS .        Calculated                 :Mudcake Sample Source
MFSS .        Calculated                 :Mud Filtrate Sample Source
FD   .G/C3       1.00000                 :Fluid Density
MSS  .        Flowline                   :Mud Sample Source
OS1  .                                   :Other Services Line 1
OS2  .                                   :Other Services Line 2
OS3  .                                   :Other Services Line 3
OS4  .                                   :Other Services Line 4
OS5  .                                   :Other Services Line 5
R1   .                                   :Remarks Line 1
R2   .                                   :Remarks Line 2
R3   .                                   :Remarks Line 3
R4   .                                   :Remarks Line 4
R5   .                                   :Remarks Line 5
R6   .        Tool was run as per tool sketch :Remarks Line 6
R7   .        All logging intervals as per client request :Remarks Line 7
R8   .                                   :Remarks Line 8
TCS  .        20 00 00                   :Time Circulation Stopped
TLAB .        02 17 00                   :Time Logger At Bottom
NMT  .        NOBARITE                   :HRDD Mud Type for Nuclear Devices
EPD  .C3         5536.000000             :Elevation of Permanent Datum above Mean Sea Level
APD  .F          29.500000               :Elevation of Depth Reference (LMF) above Permanent Datum
#-----------------------------------------------------------------------------
~CURVE INFORMATION
#MNEM.UNIT   API CODE                                  DESCRIPTION
#---- -----  --------                                  -----------------------
DEPT .F                                                :DEPTH (BOREHOLE) {F12.4}
AF10 .OHMM                                             :Array Induction Four Foot Resistivity A10 {F11.4}
AF20 .OHMM                                             :Array Induction Four Foot Resistivity A20 {F11.4}
AF30 .OHMM                                             :Array Induction Four Foot Resistivity A30 {F11.4}
AF60 .OHMM                                             :Array Induction Four Foot Resistivity A60 {F11.4}
AF90 .OHMM                                             :Array Induction Four Foot Resistivity A90 {F11.4}
AO10 .OHMM                                             :Array Induction One Foot Resistivity A10 {F11.4}
AO20 .OHMM                                             :Array Induction One Foot Resistivity A20 {F11.4}
AO30 .OHMM                                             :Array Induction One Foot Resistivity A30 {F11.4}
AO60 .OHMM                                             :Array Induction One Foot Resistivity A60 {F11.4}
AO90 .OHMM                                             :Array Induction One Foot Resistivity A90 {F11.4}
AT10 .OHMM                                             :Array Induction Two Foot Resistivity A10 {F11.4}
AT20 .OHMM                                             :Array Induction Two Foot Resistivity A20 {F11.4}
AT30 .OHMM                                             :Array Induction Two Foot Resistivity A30 {F11.4}
AT60 .OHMM                                             :Array Induction Two Foot Resistivity A60 {F11.4}
AT90 .OHMM                                             :Array Induction Two Foot Resistivity A90 {F11.4}
AORT .OHMM                                             :Array Induction One Foot Rt {F11.4}
AORX .OHMM                                             :Array Induction One Foot Rxo {F11.4}
CDF  .LBF                                              :Calibrated Downhole Force {F11.4}
CFTC .HZ                                               :Corrected Far Thermal Count Rate {F11.4}
CNTC .HZ                                               :Corrected Near Thermal Count Rate {F11.4}
CTEM .DEGF                                             :Cartridge Temperature {F11.4}
DCAL .IN                                               :Differential Caliper {F11.4}
DT   .US/F                                             :Delta-T (also called Slowness or Interval Transit Time) {F11.4}
DTCO .US/F                                             :Delta-T Compressional {F11.4}
DTSM .US/F                                             :Delta-T Shear {F11.4}
ED   .F                                                :East Departure {F11.4}
GR_STGC.GAPI                                           :Gamma Ray {F11.4}
GTEM .DEGF                                             :Generalized Borehole Temperature {F11.4}
HGR_STGC.GAPI                                          :High Resolution Gamma Ray {F11.4}
HNPO .CFCF                                             :High Resolution Enhanced Thermal Neutron Porosity in Selected Lithology {F11.4}
HTNP .CFCF                                             :High Resolution Thermal Neutron Porosity (Ratio Method) in Selected Lithology {F11.4}
ITT  .S                                                :Integrated Transit Time {F11.4}
ND   .F                                                :North Departure {F11.4}
NPHI .CFCF                                             :Thermal Neutron Porosity (original Ratio Method) in Selected Lithology {F11.4}
NPOR .CFCF                                             :Enhanced Thermal Neutron Porosity in Selected Lithology {F11.4}
PR   .                                                 :Poisson s Ratio {F11.4}
SP   .MV                                               :Spontaneous Potential {F11.4}
SPAR .MV                                               :SP, Armor Return Compensated {F11.4}
SPHI .CFCF                                             :Sonic Porosity {F11.4}
STIT .F                                                :Stuck Tool Indicator, Total {F11.4}
TENS .LBF                                              :Cable Tension {F11.4}
TNPH .CFCF                                             :Thermal Neutron Porosity (Ratio Method) in Selected Lithology {F11.4}
HTNP_SAN.CFCF                                          :HiRes Thermal Neutron Porosity (matrix Sandstone) {F11.4}
#-----------------------------------------------------------------------------
# 
#      DEPT        AF10       AF20       AF30       AF60       AF90       AO10       AO20       AO30       AO60       AO90       AT10       AT20       AT30       AT60       AT90       AORT       AORX       CDF        CFTC       CNTC       CTEM       DCAL        DT        DTCO       DTSM        ED      GR_STGC      GTEM     HGR_STGC     HNPO       HTNP       ITT         ND        NPHI       NPOR        PR         SP        SPAR       SPHI       STIT       TENS       TNPH     HTNP_SAN
#
~A  
# ...
   8973.5000  1950.0000   115.4073   475.8142   386.1141   945.0936  1950.0000   135.4085   441.1371  1810.6586  1244.7999  1950.0000   189.1628   454.8848   282.3403   525.9263  1050.1208  1859.0309 -9675.9990 12623.3691 18397.4395   116.1412     0.0000   121.1328   121.1328    90.7133     0.0000   180.7656   400.4549   177.5176     0.0063     0.0131     0.0298     0.0000     0.0173     0.0068  -999.2500    40.3125    39.7438     0.3361     0.0000  3121.4998     0.0140     0.0419
   8974.0000  1950.0000   115.1303   392.3303   267.4247   689.1038  1950.0000   125.5574   239.3008  1723.2012  1411.2401  1950.0000   173.6983   341.7571   185.5807   323.1021   948.7327  1863.9479 -9676.5322 11988.7891 17440.8477   116.1412     0.0000   121.1328   121.1328    91.2824     0.0000   185.2903   400.4412   183.1091     0.0130     0.0146     0.0298     0.0000     0.0202     0.0180  -999.2500    40.6250    40.0366     0.3361     0.0000  3126.0000     0.0159     0.0437
   8974.5000  1950.0000   118.4878   314.0306   188.9307   499.3659  1950.0000   177.2006   234.7885  1950.0000  1950.0000  1880.8777   182.9107   281.0675   124.5403   258.2752   823.4374  1512.2808 -9671.5557 11510.2666 17651.8633   116.1412     0.0000   121.1328   121.1328    91.0059     0.0000   185.5678   400.4918   187.7387     0.0129     0.0175     0.0299     0.0000     0.0199     0.0179  -999.2500    40.6250    40.3207     0.3361     0.0000  3120.0000     0.0181     0.0473
   8975.0000  1950.0000   135.4699   287.9849   159.2400   378.9894  1950.0000   198.5101   128.5360  1126.8234  1049.1243  1646.1761   215.0299   225.1647   113.8203   154.5157   696.6277   812.1886 -9670.8447 11839.6738 17077.0977   116.1412     0.0000   121.1328   121.1328    91.1103     0.0000   184.3045   400.4457   183.4071     0.0217     0.0166     0.0299     0.0000     0.0225     0.0258  -999.2500    41.2500    40.7743     0.3361     0.0000  3123.0000     0.0201     0.0462
   8975.5000  1950.0000   168.3334   294.5753   147.9125   304.1523  1539.9760   251.4148   119.7112   427.1692   388.0933  1296.9979   247.9979   217.8596   112.8591   120.9560   454.3369   523.2728 -9692.0566 11032.0010 17612.5332   116.1412     0.0000   121.2891   121.2891    91.2623     0.0000   181.1134   400.4481   179.5863     0.0232     0.0239     0.0300     0.0000     0.0227     0.0213  -999.2500    41.2500    41.0262     0.3364     0.0000  3128.0000     0.0206     0.0552
   8976.0000  1950.0000   201.2065   332.0749   147.2942   274.6990  1950.0000   224.2273   221.3640   883.0861   828.1310   921.2427   310.7831   205.4830   101.0889   105.1425   633.0787   314.2296 -9691.9971 11609.6152 17881.0762   116.1412     0.0000   121.6016   121.6016    90.7645     0.0000   177.7120   400.5563   180.3467     0.0223     0.0225     0.0301     0.0000     0.0244     0.0180  -999.2500    41.2500    41.2574     0.3372     0.0000  3134.0000     0.0206     0.0534
   8976.5000  1950.0000   252.4039   403.4842   158.2573   257.3167   480.1030   339.2060   384.6101   726.6051   686.0159   646.0946   417.6610   272.3320   114.1515   105.7651   651.7399   213.4155 -9646.4932 11823.5176 18111.5254   116.1412     0.0000   121.7578   121.7578    90.7645     0.0000   173.2777   400.5240   174.4274     0.0166     0.0183     0.0301     0.0000     0.0254     0.0134  -999.2500    41.2500    41.4543     0.3375     0.0000  3134.0000     0.0207     0.0482
   8977.0000  1950.0000   400.7145   523.2811   184.7831   257.8282   139.6403   414.4579   703.0975   850.4601   822.5596   659.0776   971.1166   485.1815   141.7552   125.6750   713.9960   158.1288 -9622.7930 10669.6318 17622.6191   116.1412     0.0000   121.7578   121.7578    89.9203     0.0000   168.3203   400.5240   168.4476     0.0257     0.0265     0.0302     0.0000     0.0225     0.0207  -999.2500    41.2500    41.6422     0.3375     0.0000  3130.0000     0.0209     0.0584
   8977.5000  1950.0000   817.0037   838.5207   211.3591   269.6022    85.0540   535.4698   839.6465   790.3665   802.5603   408.3029  1787.7593   974.5293   177.9226   125.1283   725.7523   135.1000 -9673.2744 11732.8350 16254.4229   116.1412     0.0000    87.5911    87.5911    87.8235     0.0000   165.3534   400.5516   166.0137     0.0282     0.0160     0.0302     0.0000     0.0203     0.0362  -999.2500    41.5625    41.8093     0.2254     0.0000  3127.0000     0.0184     0.0454
   8978.0000  1950.0000  1041.0764  1826.4847   376.8687   308.8334    75.7729   515.8379   987.7231  1252.7236  1284.3785   428.4814   890.5453  1332.5752   196.6140   150.4176   865.0812   115.0404 -9698.3955 12796.0820 18110.7988   116.1412     0.0000    70.5078    70.5078    84.7963     0.0000   162.9110   400.5838   164.6932     0.0042     0.0138     0.0303     0.0000     0.0132     0.0130  -999.2500    41.8750    42.0712     0.1286     0.0000  3125.0000     0.0125     0.0428
   8978.5000  1950.0000  1343.0869  1950.0000   508.5302   391.8099    82.0911   239.4843   433.6114   503.1013   562.3358   354.4594   684.8182  1030.6917   230.4671   155.8726   471.7383   110.5028 -9668.7109 14223.3555 18052.8477   116.1412     0.0000    70.7715    70.7715    82.0329     0.0000   158.4435   400.5793   160.7381     0.0127     0.0073     0.0303     0.0000     0.0143     0.0227  -999.2500    41.8750    42.2014     0.1305     0.0000  3127.0000     0.0113     0.0349
   8979.0000  1950.0000  1616.4863  1950.0000   761.5089   555.8386   112.5034    99.5246   182.6100   168.4169   190.6390   348.7119   568.5775  1508.9634   414.2259   232.2300   168.2150   117.4173 -9643.2939 14280.1641 20648.1875   116.1412     0.0000    69.6777    69.6777    80.9406     0.0000   152.3111   400.6023   152.0720     0.0018     0.0124     0.0303     0.0000     0.0130     0.0036     0.0037    42.1875    42.3154     0.1227     0.0000  3137.5000     0.0092     0.0411
   8979.5000  1950.0000  1807.5790  1950.0000  1112.1654   776.7718    98.2768   127.9585   379.3902   140.9690   150.2781   390.8670   484.8384  1819.7001   623.4103   363.8033   140.9690   121.1703 -9660.5352 16325.4443 21900.8047   116.1412     0.0000    57.9883    57.9883    82.1412     0.0000   147.4182   400.6483   145.9054    -0.0020     0.0054     0.0304     0.0000     0.0134    -0.0074     0.0032    42.5000    42.5668     0.0214     0.0000  3137.0000     0.0064     0.0326
   8980.0000  1950.0000  1918.4268  1950.0000  1491.0342  1093.8955   212.8777   247.9471   783.7881    98.2869   103.7734   482.4051   422.9494  1950.0000  1950.0000  1671.4037    98.2869   172.9640 -9673.9844 16803.6055 21710.1074   116.1412     0.0000   105.3418   105.3418    82.1412     0.0000   142.3259   400.6530   144.8189     0.0027     0.0052     0.0304     0.0000     0.0086    -0.0049  -999.2500    42.5000    42.6525     0.2927     0.0000  3132.0000     0.0036     0.0324
   8980.5000  1950.0000  1950.0000  1950.0000  1780.7426  1455.2394   394.9604   333.0721  1950.0000    97.0371   101.8658   643.0856   349.4109  1950.0000  1950.0000  1950.0000    97.0371   229.3737 -9651.2334 17018.6406 20101.8633   116.1412     0.0000   103.9844   103.9844    83.8686     0.0000   138.0179   400.6851   140.7001     0.0014     0.0016     0.0305     0.0000     0.0076     0.0065  -999.2500    42.5000    42.7189     0.2884     0.0000  3146.0000     0.0033     0.0282
   8981.0000  1950.0000  1950.0000  1950.0000  1950.0000  1724.5924  1429.5364   242.2009   560.8607    84.1068    87.3125   898.5058   288.1423  1950.0000  1639.1366  1395.5763    84.1057   349.8409 -9612.0098 15440.7109 19815.4629   116.1412     0.0000   104.9219   104.9219    86.2312     0.0000   132.2095   400.6576   134.2526    -0.0003     0.0032     0.0305     0.0000     0.0095     0.0039  -999.2500    42.8125    42.7795     0.2914     0.0000  3151.5000     0.0058     0.0300
   8981.5000  1950.0000  1812.6040  1950.0000  1950.0000  1844.9746  1950.0000   118.0019   113.5932    78.4656    80.3791  1281.6399   248.8563  1858.9773  1485.6583  1569.1735    78.2084   554.8168 -9644.5371 13176.1240 18405.3398   116.1412     0.0000   105.3906   105.3906    88.9532     0.0000   127.6377   400.6851   128.8953     0.0145     0.0103     0.0306     0.0000     0.0135     0.0136  -999.2500    43.1250    42.8288     0.2929     0.0000  3167.0002     0.0096     0.0385
