~VERSION INFORMATION
VERS.           1.2   :CWLS Log ASCII Standard - VERSION 1.2
WRAP.           NO    :One Line per depth step
PROD.  Schlumberger   :LAS Producer
PROG.  DLIS to ASCII 2.3                               :LAS Program name and version
CREA.        2021/07/30 13:36                          :LAS Creation date {YYYY/MM/DD hh:mm}
DLIS_CREA.  2021-Jul-30 07:08                          :DLIS Creation date and time {YYYY-MMM-DD hh:mm}
SOURCE.     6d1d3df9-7549-4232-acfc-119b5b71a716       :DLIS File Name
#--------------------------------------------------
~WELL INFORMATION
#MNEM.UNIT      DATA             DESCRIPTION
#---- ------ --------------   -----------------------------
STRT .F      7447.0000       :START DEPTH     
STOP .F      9553.0000       :STOP DEPTH     
STEP .F       0.5000         :STEP       
NULL .          -999.25      :NULL VALUE
COMP .                 COMPANY:  University Of Utah                 
WELL .                    WELL:  FORGE 78B-32                       
FLD  .                   FIELD:  None                               
LOC  .                LOCATION:  Lat: 38.500171, Long: -112.88221   
CNTY .                  COUNTY:  Beaver                             
STAT .                   STATE:  Utah                               
CTRY .                 COUNTRY:                                     
SRVC .         SERVICE COMPANY:  Schlumberger                       
LATI .DEG             LATITUDE:  38 30' 0.616" N                   
LONG .DEG            LONGITUDE:  112 52' 55.956" W                 
API  .              API NUMBER:  NRC 42-00090-03                    
DATE .                LOG DATE:  30-Jul-2021
UWI  .          UNIQUE WELL ID:                                     
#-----------------------------------------------------------------------------
~PARAMETER INFORMATION
#MNEM.UNIT    VALUE                      DESCRIPTION
#---- -----   --------------------       ------------------------
CN   .        University Of Utah         :Company Name
WN   .        FORGE 78B-32               :Well Name
FN   .        None                       :Field Name
FL   .        Lat  38.500171  Long  -112.88221 :Field Location
FL1  .                                   :Field Location, Line 1
COUN .        Beaver                     :County or Parish
STAT .        Utah                       :State or Province
NATI .                                   :Nation
DATE .        30-Jul-2021                :Tools Above Rotary Table Date
APIN .        NRC 42-00090-03            :API Well Number
SECT .                                   :Section
TOWN .                                   :Township
RANG .                                   :Range
DMF  .        KB                         :Drilling Measured From (Name of Drilling Elevation Reference)
LMF  .        KB                         :Logging Measured From (Name of Logging Elevation Reference)
PDAT .        GL                         :Permanent Datum
ENGI .        CSTILES                    :Engineer s Name
WITN .        Virgil  Welch              :Witness s Name
LATI .        38� 30' 0.616  N           :Latitude
LONG .        112� 52' 55.956  W         :Longitude
LUL  .        F.Morgan                   :Logging Unit Location
LUN  .        9108                       :Logging Unit Number
RUN  .        1B                         :Run Number
SON  .                                   :Service Order Number
BHT  .DEGF     419.00000                 :Bottom Hole Temperature
BS   .IN         5.75000                 :Bit Size
MDEN .G/C3       2.71000                 :Matrix Density for Density Porosity
DFD  .LB/G       8.30000                 :Drilling Fluid Density
DFV  .S         24.00000                 :Drilling Fluid Viscosity
DFL  .C3      -999.25000                 :Drilling Fluid Loss
RMFS .OHMM       4.42000                 :Resistivity of Mud Filtrate Sample
EKB  .F       5565.50000                 :Elevation of Kelly Bushing
EGL  .F       5536.00000                 :Elevation of Ground Level
BLI  .F       9532.00000                 :Bottom Log Interval
BSAL .PPM      700.00000                 :Borehole Salinity
FLEV .F          8.00000                 :Depth of Drilling Fluid Level to LMF (Log Measured From)
MCST .DEGF      62.00000                 :Mudcake Sample Temperature
MFST .DEGF      62.00000                 :Mud Filtrate Sample Temperature
MRT  .DEGF     419.00000                 :Maximum Recorded Temperature
MST  .DEGF      62.00000                 :Mud Sample Temperature
RMCS .OHMM       6.21000                 :Resistivity of Mud Cake Sample
RMS  .OHMM       5.20000                 :Resistivity of Mud Sample
RW   .OHMM       1.00000                 :Connate Water Resistivity
TDD  .F       9500.00000                 :Driller Total Depth
TDL  .F       9532.00000                 :Logger Total Depth
TLI  .F       8530.00000                 :Top Log Interval
HIDE .                                   :Header Identifier
MATR .        LIME                       :Rock Matrix for Neutron Porosity Corrections
FNUM .           1.00000                 :F-Numerator for Formation Factor Formula
FEXP .           2.00000                 :Exponent "m" for Formation Factor Formula
DFT  .        WATER                      :Drilling Fluid Type
DFPH .          11.00000                 :Drilling Fluid pH
MCSS .        Calculated                 :Mudcake Sample Source
MFSS .        Calculated                 :Mud Filtrate Sample Source
FD   .G/C3       1.00000                 :Fluid Density
MSS  .        Flowline                   :Mud Sample Source
OS1  .                                   :Other Services Line 1
OS2  .                                   :Other Services Line 2
OS3  .                                   :Other Services Line 3
OS4  .                                   :Other Services Line 4
OS5  .                                   :Other Services Line 5
R1   .                                   :Remarks Line 1
R2   .                                   :Remarks Line 2
R3   .                                   :Remarks Line 3
R4   .                                   :Remarks Line 4
R5   .                                   :Remarks Line 5
R6   .        Tool was run as per tool sketch :Remarks Line 6
R7   .        All logging intervals as per client request :Remarks Line 7
R8   .                                   :Remarks Line 8
TCS  .        20 00 00                   :Time Circulation Stopped
TLAB .        02 17 00                   :Time Logger At Bottom
NMT  .        NOBARITE                   :HRDD Mud Type for Nuclear Devices
EPD  .C3         5536.000000             :Elevation of Permanent Datum above Mean Sea Level
APD  .F          29.500000               :Elevation of Depth Reference (LMF) above Permanent Datum
#-----------------------------------------------------------------------------
~CURVE INFORMATION
#MNEM.UNIT   API CODE                                  DESCRIPTION
#---- -----  --------                                  -----------------------
DEPT .F                                                :DEPTH (BOREHOLE) {F12.4}
AF10 .OHMM                                             :Array Induction Four Foot Resistivity A10 {F11.4}
AF20 .OHMM                                             :Array Induction Four Foot Resistivity A20 {F11.4}
AF30 .OHMM                                             :Array Induction Four Foot Resistivity A30 {F11.4}
AF60 .OHMM                                             :Array Induction Four Foot Resistivity A60 {F11.4}
AF90 .OHMM                                             :Array Induction Four Foot Resistivity A90 {F11.4}
AO10 .OHMM                                             :Array Induction One Foot Resistivity A10 {F11.4}
AO20 .OHMM                                             :Array Induction One Foot Resistivity A20 {F11.4}
AO30 .OHMM                                             :Array Induction One Foot Resistivity A30 {F11.4}
AO60 .OHMM                                             :Array Induction One Foot Resistivity A60 {F11.4}
AO90 .OHMM                                             :Array Induction One Foot Resistivity A90 {F11.4}
AT10 .OHMM                                             :Array Induction Two Foot Resistivity A10 {F11.4}
AT20 .OHMM                                             :Array Induction Two Foot Resistivity A20 {F11.4}
AT30 .OHMM                                             :Array Induction Two Foot Resistivity A30 {F11.4}
AT60 .OHMM                                             :Array Induction Two Foot Resistivity A60 {F11.4}
AT90 .OHMM                                             :Array Induction Two Foot Resistivity A90 {F11.4}
AORT .OHMM                                             :Array Induction One Foot Rt {F11.4}
AORX .OHMM                                             :Array Induction One Foot Rxo {F11.4}
CDF  .LBF                                              :Calibrated Downhole Force {F11.4}
CFTC .HZ                                               :Corrected Far Thermal Count Rate {F11.4}
CNTC .HZ                                               :Corrected Near Thermal Count Rate {F11.4}
CTEM .DEGF                                             :Cartridge Temperature {F11.4}
DCAL .IN                                               :Differential Caliper {F11.4}
DT   .US/F                                             :Delta-T (also called Slowness or Interval Transit Time) {F11.4}
DTCO .US/F                                             :Delta-T Compressional {F11.4}
DTSM .US/F                                             :Delta-T Shear {F11.4}
ED   .F                                                :East Departure {F11.4}
GR_STGC.GAPI                                           :Gamma Ray {F11.4}
GTEM .DEGF                                             :Generalized Borehole Temperature {F11.4}
HGR_STGC.GAPI                                          :High Resolution Gamma Ray {F11.4}
HNPO .CFCF                                             :High Resolution Enhanced Thermal Neutron Porosity in Selected Lithology {F11.4}
HTNP .CFCF                                             :High Resolution Thermal Neutron Porosity (Ratio Method) in Selected Lithology {F11.4}
ITT  .S                                                :Integrated Transit Time {F11.4}
ND   .F                                                :North Departure {F11.4}
NPHI .CFCF                                             :Thermal Neutron Porosity (original Ratio Method) in Selected Lithology {F11.4}
NPOR .CFCF                                             :Enhanced Thermal Neutron Porosity in Selected Lithology {F11.4}
PR   .                                                 :Poisson s Ratio {F11.4}
SP   .MV                                               :Spontaneous Potential {F11.4}
SPAR .MV                                               :SP, Armor Return Compensated {F11.4}
SPHI .CFCF                                             :Sonic Porosity {F11.4}
STIT .F                                                :Stuck Tool Indicator, Total {F11.4}
TENS .LBF                                              :Cable Tension {F11.4}
TNPH .CFCF                                             :Thermal Neutron Porosity (Ratio Method) in Selected Lithology {F11.4}
HTNP_SAN.CFCF                                          :HiRes Thermal Neutron Porosity (matrix Sandstone) {F11.4}
#-----------------------------------------------------------------------------
# 
#      DEPT        AF10       AF20       AF30       AF60       AF90       AO10       AO20       AO30       AO60       AO90       AT10       AT20       AT30       AT60       AT90       AORT       AORX       CDF        CFTC       CNTC       CTEM       DCAL        DT        DTCO       DTSM        ED      GR_STGC      GTEM     HGR_STGC     HNPO       HTNP       ITT         ND        NPHI       NPOR        PR         SP        SPAR       SPHI       STIT       TENS       TNPH     HTNP_SAN
#
~A  
# ...
   9130.0000  1950.0000   115.7698   874.5126  1499.9701  1789.3888   688.0690   329.8416   268.8352   260.5861   245.2700  1950.0000   199.9513  1250.4292  1482.9172   695.6088   134.5221  1155.4556 -6927.4102 14946.8906 19452.2617   124.0471     0.0000    53.1836    53.1836  -999.2500     0.0000   188.6172   411.5324   187.0938     0.0106     0.0067     0.0212     0.0000     0.0102     0.0096  -999.2500     3.5417     3.1794    -0.0331     0.0000  4440.3330     0.0070     0.0342
   9130.5000  1950.0000    82.6128   711.4693  1239.9169  1609.5643  1660.2871   161.2143   330.5728   795.4099   541.6264  1950.0000    88.2571   543.5667   513.1901   764.4171   176.1214  1340.2845 -6834.6597 15027.7949 19426.0117   124.0471     0.0000    53.0566    53.0566  -999.2500     0.0000   196.7592   411.5358   207.6547     0.0063     0.0064     0.0211     0.0000     0.0103     0.0091  -999.2500     3.1250     3.2571    -0.0347     0.0000  4433.5000     0.0070     0.0338
   9131.0000  1950.0000    61.3399   571.3143  1027.9028  1406.8778  1950.0000    57.6584   196.0132   329.6498   310.4666  1950.0000    49.2491   323.2654   377.1943   449.1736   142.8754  1418.9504 -6918.7656 14970.6406 19688.0625   124.0471     0.0000    52.8711    52.8711  -999.2500     0.0000   199.7224   411.5543   195.7297     0.0070     0.0068     0.0211     0.0000     0.0102     0.0064  -999.2500     3.1250     3.3290    -0.0370     0.0000  4393.5000     0.0069     0.0344
   9131.5000  1950.0000    49.6445   460.6312   870.4366  1241.2905  1806.8577    26.1328    84.8338   121.3395   119.6290  1950.0000    33.7845   182.5464   187.0284   353.7738    73.6830  1391.6688 -6895.2529 15122.3408 19620.2852   124.0471     0.0000    52.5586    52.5586  -999.2500     0.0000   193.5034   411.5782   195.9648     0.0064     0.0067     0.0211     0.0000     0.0107     0.0087  -999.2500     3.2500     3.4367    -0.0409     0.0000  4506.5000     0.0070     0.0342
   9132.0000  1950.0000    45.6557   429.4785   799.2322  1091.7424  1950.0000    15.0638    38.8712    39.0383    38.5501  1950.0000    30.6713   193.5864   218.0679   391.3006    39.1147  1363.2698 -6851.0674 15240.2637 20045.3848   124.0471     0.0000    53.4375    53.4375  -999.2500     0.0000   183.3268   411.6043   189.1508     0.0055     0.0070     0.0210     0.0000     0.0100     0.0060  -999.2500     3.4375     3.5352    -0.0300     0.0000  4476.0000     0.0066     0.0345
   9132.5000  1950.0000    47.1095   463.4998   864.0504  1030.2864  1950.0000    26.7802    97.5658    93.8589    92.3426  1950.0000    32.1490   265.7314   298.0075   389.2830    66.2383  1295.7756 -6870.4614 15716.0928 20092.8574   124.0471     0.0000    53.3789    53.3789  -999.2500     0.0000   178.5308   411.6249   165.0206     0.0108     0.0058     0.0210     0.0000     0.0100     0.0070  -999.2500     3.4167     3.6447    -0.0307     0.0000  4455.5000     0.0063     0.0332
   9133.0000  1950.0000    54.1666   558.1431  1011.7900  1014.3532  1950.0000    35.0428   162.5512    99.7932    98.5982  1950.0000    41.6025   327.4475   390.1513   386.6898    75.4789  1126.9514 -6879.2563 15758.5449 20484.5039   124.0471     0.0000    52.3535    52.3535  -999.2500     0.0000   163.6390   411.6483   180.9860     0.0106     0.0068     0.0210     0.0000     0.0097     0.0044  -999.2500     3.5833     3.7700    -0.0435     0.0000  4438.5000     0.0059     0.0343
   9133.5000  1950.0000    70.0367   701.7994  1215.2631   970.6241  1950.0000    60.8006   227.8581    91.6324    90.8130  1950.0000    54.3805   420.2756   561.4700   276.4614    71.4282   967.1276 -6839.8203 15872.5332 20570.6699   124.0471     0.0000    52.4316    52.4316  -999.2500     0.0000   153.8162   411.6795   144.2457     0.0057     0.0061     0.0210     0.0000     0.0095     0.0041  -999.2500     3.8393     3.9477    -0.0425     0.0000  4404.5000     0.0055     0.0334
   9134.0000  1950.0000    91.5159   886.4844  1487.2101   930.2549  1179.1215   108.8594   197.0486    73.8061    73.1359  1950.0000    77.3970   856.0770   844.2491   241.7557    67.7527   828.0504 -6854.5166 16178.9570 20490.6309   124.0471     0.0000    53.5742    53.5742  -999.2500     0.0000   141.7436   411.6928   134.9336     0.0073     0.0047     0.0209     0.0000     0.0092     0.0062  -999.2500     4.3750     4.1350    -0.0283     0.0000  4411.6670     0.0056     0.0318
   9134.5000  1950.0000   116.7285  1422.6719  1877.8201   812.9035   462.9821   214.9676   232.7110    76.6707    75.7987  1950.0000   112.5203  1705.1569  1950.0000   563.4434    70.2563   718.6811 -6889.2285 15996.4189 20502.1992   124.0471     0.0000    53.8574    53.8574  -999.2500     0.0000   145.5932   411.7239   145.3370     0.0067     0.0060     0.0209     0.0000     0.0097     0.0053  -999.2500     4.4196     4.3237    -0.0249     0.0000  4468.0000     0.0057     0.0334
   9135.0000  1950.0000   123.2383  1279.2998  1950.0000   595.9049   160.4833   215.2424   144.7272    83.3528    82.0779  1950.0000   125.9291  1008.2797  1165.8505   436.9652    76.7824   577.6859 -6850.1606 15578.5723 20676.0410   124.0471     0.0000    53.3984    53.3984  -999.2500     0.0000   146.3063   411.7462   156.0423     0.0045     0.0079     0.0209     0.0000     0.0125    -0.0005  -999.2500     4.3750     4.5131    -0.0304     0.0000  4481.3330     0.0070     0.0356
   9135.5000  1950.0000   104.2186   847.1578  1950.0000   725.0319   423.9029   133.7814   200.7383   118.3295   116.0064  1950.0000    87.8543   578.8161  1291.9187   299.2498    82.3875   848.2949 -6786.3306 14111.6758 20045.7383   124.0471     0.0000    52.2363    52.2363  -999.2500     0.0000   133.8044   411.7782   138.7548     0.0090     0.0129     0.0209     0.0000     0.0153     0.0017  -999.2500     4.9107     4.6537    -0.0450     0.0000  4462.0000     0.0103     0.0417
   9136.0000  1950.0000    84.1584   709.2659  1950.0000   936.8207   435.3586    49.7918   113.6917    76.4469    74.1385  1950.0000    59.3245   287.8158   251.3508   204.0041    71.8898   859.9676 -6835.8843 12522.4219 17955.8457   124.0471     0.0000    52.4512    52.4512  -999.2500     0.0000   111.4906   411.7931   107.9285     0.0150     0.0151     0.0208     0.0000     0.0164     0.0243  -999.2500     4.4643     4.8269    -0.0423     0.0000  4454.0000     0.0152     0.0443
   9136.5000  1950.0000    65.2106   651.7248  1950.0000  1100.1184   540.5021    28.3818    90.1040   120.9468   116.4690  1950.0000    43.8491   208.9273   289.3927   386.3614    85.5329  1037.2722 -6840.7661 12176.3857 16907.5840   124.0471     0.0000    52.9980    52.9980  -999.2500     0.0000    89.7393   411.8126    88.8482     0.0182     0.0122     0.0208     0.0000     0.0172     0.0359  -999.2500     5.0000     5.0228    -0.0354     0.0000  4371.0000     0.0178     0.0409
   9137.0000  1950.0000    58.5215   735.9913  1950.0000  1323.1724   712.5359    28.1555   141.6664   188.8105   180.5540  1950.0000    42.8459   292.1688   434.8221   467.8537   109.5901  1295.4281 -6758.7280 12283.7344 17974.9863   124.0471     0.0000    53.3887    53.3887  -999.2500     0.0000    81.0121   411.8421    72.5843     0.0172     0.0160     0.0208     0.0000     0.0179     0.0216  -999.2500     4.9107     5.2110    -0.0306     0.0000  4456.0005     0.0170     0.0455
   9137.5000  1950.0000    56.4592   855.9276  1865.0367  1519.7632  1130.2802    31.3773   232.5346   215.4517   203.2744  1950.0000    44.9697   379.7245   535.6632   580.7269   101.6222  1537.2820 -6783.2324 12838.7910 18889.1152   124.0471     0.0000    53.9941    53.9941  -999.2500     0.0000    88.4754   411.8492    81.7341     0.0173     0.0178     0.0208     0.0000     0.0177     0.0139  -999.2500     5.5357     5.3952    -0.0232     0.0000  4430.0000     0.0139     0.0476
   9138.0000  1950.0000    58.2121   954.6860  1654.0386  1548.2163  1950.0000    42.8351   414.3201   183.2798   171.7647  1950.0000    53.7752   485.4236   676.1172   643.0239   120.3483  1684.1545 -6781.4165 14546.4414 20040.2012   124.0471     0.0000    52.7734    52.7734  -999.2500     0.0000   107.5878   411.8825   111.4405     0.0108     0.0109     0.0207     0.0000     0.0145     0.0055  -999.2500     5.6250     5.5725    -0.0382     0.0000  4483.5000     0.0099     0.0392
