~VERSION INFORMATION
VERS.           1.2   :CWLS Log ASCII Standard - VERSION 1.2
WRAP.           NO    :One Line per depth step
PROD.  Schlumberger   :LAS Producer
PROG.  DLIS to ASCII 2.3                               :LAS Program name and version
CREA.        2021/07/30 13:36                          :LAS Creation date {YYYY/MM/DD hh:mm}
DLIS_CREA.  2021-Jul-30 07:07                          :DLIS Creation date and time {YYYY-MMM-DD hh:mm}
SOURCE.     dc707e3c-4962-4d77-8314-dc20fe7b42b8       :DLIS File Name
#--------------------------------------------------
~WELL INFORMATION
#MNEM.UNIT      DATA             DESCRIPTION
#---- ------ --------------   -----------------------------
STRT .F        8616.5000     :START DEPTH     
STOP .F        9518.5000     :STOP DEPTH     
STEP .F           0.5000       :STEP     
NULL .          -999.25      :NULL VALUE
COMP .                 COMPANY:  University Of Utah                 
WELL .                    WELL:  FORGE 78B-32                       
FLD  .                   FIELD:  None                               
LOC  .                LOCATION:  Lat: 38.500171, Long: -112.88221   
CNTY .                  COUNTY:  Beaver                             
STAT .                   STATE:  Utah                               
CTRY .                 COUNTRY:                                     
SRVC .         SERVICE COMPANY:  Schlumberger                       
LATI .DEG             LATITUDE:  38 30' 0.616" N                   
LONG .DEG            LONGITUDE:  112 52' 55.956" W                 
API  .              API NUMBER:  NRC 42-00090-03                    
DATE .                LOG DATE:  30-Jul-2021
UWI  .          UNIQUE WELL ID:                                     
#-----------------------------------------------------------------------------
~PARAMETER INFORMATION
#MNEM.UNIT    VALUE                      DESCRIPTION
#---- -----   --------------------       ------------------------
CN   .        University Of Utah         :Company Name
WN   .        FORGE 78B-32               :Well Name
FN   .        None                       :Field Name
FL   .        Lat  38.500171  Long  -112.88221 :Field Location
FL1  .                                   :Field Location, Line 1
COUN .        Beaver                     :County or Parish
STAT .        Utah                       :State or Province
NATI .                                   :Nation
DATE .        30-Jul-2021                :Tools Above Rotary Table Date
APIN .        NRC 42-00090-03            :API Well Number
SECT .                                   :Section
TOWN .                                   :Township
RANG .                                   :Range
DMF  .        KB                         :Drilling Measured From (Name of Drilling Elevation Reference)
LMF  .        KB                         :Logging Measured From (Name of Logging Elevation Reference)
PDAT .        GL                         :Permanent Datum
ENGI .        CSTILES                    :Engineer s Name
WITN .        Virgil  Welch              :Witness s Name
LATI .        38� 30' 0.616  N           :Latitude
LONG .        112� 52' 55.956  W         :Longitude
LUL  .        F.Morgan                   :Logging Unit Location
LUN  .        9108                       :Logging Unit Number
RUN  .        1B                         :Run Number
SON  .                                   :Service Order Number
BHT  .DEGF     419.00000                 :Bottom Hole Temperature
BS   .IN         5.75000                 :Bit Size
MDEN .G/C3       2.71000                 :Matrix Density for Density Porosity
DFD  .LB/G       8.30000                 :Drilling Fluid Density
DFV  .S         24.00000                 :Drilling Fluid Viscosity
DFL  .C3      -999.25000                 :Drilling Fluid Loss
RMFS .OHMM       4.42000                 :Resistivity of Mud Filtrate Sample
EKB  .F       5565.50000                 :Elevation of Kelly Bushing
EGL  .F       5536.00000                 :Elevation of Ground Level
BLI  .F       9532.00000                 :Bottom Log Interval
BSAL .PPM      700.00000                 :Borehole Salinity
FLEV .F          8.00000                 :Depth of Drilling Fluid Level to LMF (Log Measured From)
MCST .DEGF      62.00000                 :Mudcake Sample Temperature
MFST .DEGF      62.00000                 :Mud Filtrate Sample Temperature
MRT  .DEGF     419.00000                 :Maximum Recorded Temperature
MST  .DEGF      62.00000                 :Mud Sample Temperature
RMCS .OHMM       6.21000                 :Resistivity of Mud Cake Sample
RMS  .OHMM       5.20000                 :Resistivity of Mud Sample
RW   .OHMM       1.00000                 :Connate Water Resistivity
TDD  .F       9500.00000                 :Driller Total Depth
TDL  .F       9532.00000                 :Logger Total Depth
TLI  .F       8530.00000                 :Top Log Interval
HIDE .                                   :Header Identifier
MATR .        LIME                       :Rock Matrix for Neutron Porosity Corrections
FNUM .           1.00000                 :F-Numerator for Formation Factor Formula
FEXP .           2.00000                 :Exponent "m" for Formation Factor Formula
DFT  .        WATER                      :Drilling Fluid Type
DFPH .          11.00000                 :Drilling Fluid pH
MCSS .        Calculated                 :Mudcake Sample Source
MFSS .        Calculated                 :Mud Filtrate Sample Source
FD   .G/C3       1.00000                 :Fluid Density
MSS  .        Flowline                   :Mud Sample Source
OS1  .                                   :Other Services Line 1
OS2  .                                   :Other Services Line 2
OS3  .                                   :Other Services Line 3
OS4  .                                   :Other Services Line 4
OS5  .                                   :Other Services Line 5
R1   .                                   :Remarks Line 1
R2   .                                   :Remarks Line 2
R3   .                                   :Remarks Line 3
R4   .                                   :Remarks Line 4
R5   .                                   :Remarks Line 5
R6   .        Tool was run as per tool sketch :Remarks Line 6
R7   .        All logging intervals as per client request :Remarks Line 7
R8   .                                   :Remarks Line 8
TCS  .        20 00 00                   :Time Circulation Stopped
TLAB .        02 17 00                   :Time Logger At Bottom
NMT  .        NOBARITE                   :HRDD Mud Type for Nuclear Devices
EPD  .C3         5536.000000             :Elevation of Permanent Datum above Mean Sea Level
APD  .F          29.500000               :Elevation of Depth Reference (LMF) above Permanent Datum
#-----------------------------------------------------------------------------
~CURVE INFORMATION
#MNEM.UNIT   API CODE                                  DESCRIPTION
#---- -----  --------                                  -----------------------
DEPT .F                                                :DEPTH (BOREHOLE) {F12.4}
AF10 .OHMM                                             :Array Induction Four Foot Resistivity A10 {F11.4}
AF20 .OHMM                                             :Array Induction Four Foot Resistivity A20 {F11.4}
AF30 .OHMM                                             :Array Induction Four Foot Resistivity A30 {F11.4}
AF60 .OHMM                                             :Array Induction Four Foot Resistivity A60 {F11.4}
AF90 .OHMM                                             :Array Induction Four Foot Resistivity A90 {F11.4}
AO10 .OHMM                                             :Array Induction One Foot Resistivity A10 {F11.4}
AO20 .OHMM                                             :Array Induction One Foot Resistivity A20 {F11.4}
AO30 .OHMM                                             :Array Induction One Foot Resistivity A30 {F11.4}
AO60 .OHMM                                             :Array Induction One Foot Resistivity A60 {F11.4}
AO90 .OHMM                                             :Array Induction One Foot Resistivity A90 {F11.4}
AT10 .OHMM                                             :Array Induction Two Foot Resistivity A10 {F11.4}
AT20 .OHMM                                             :Array Induction Two Foot Resistivity A20 {F11.4}
AT30 .OHMM                                             :Array Induction Two Foot Resistivity A30 {F11.4}
AT60 .OHMM                                             :Array Induction Two Foot Resistivity A60 {F11.4}
AT90 .OHMM                                             :Array Induction Two Foot Resistivity A90 {F11.4}
AORT .OHMM                                             :Array Induction One Foot Rt {F11.4}
AORX .OHMM                                             :Array Induction One Foot Rxo {F11.4}
CDF  .LBF                                              :Calibrated Downhole Force {F11.4}
CFTC .HZ                                               :Corrected Far Thermal Count Rate {F11.4}
CNTC .HZ                                               :Corrected Near Thermal Count Rate {F11.4}
CTEM .DEGF                                             :Cartridge Temperature {F11.4}
DCAL .IN                                               :Differential Caliper {F11.4}
DT   .US/F                                             :Delta-T (also called Slowness or Interval Transit Time) {F11.4}
DTCO .US/F                                             :Delta-T Compressional {F11.4}
DTSM .US/F                                             :Delta-T Shear {F11.4}
ED   .F                                                :East Departure {F11.4}
GR_STGC.GAPI                                           :Gamma Ray {F11.4}
GTEM .DEGF                                             :Generalized Borehole Temperature {F11.4}
HGR_STGC.GAPI                                          :High Resolution Gamma Ray {F11.4}
HNPO .CFCF                                             :High Resolution Enhanced Thermal Neutron Porosity in Selected Lithology {F11.4}
HTNP .CFCF                                             :High Resolution Thermal Neutron Porosity (Ratio Method) in Selected Lithology {F11.4}
ITT  .S                                                :Integrated Transit Time {F11.4}
ND   .F                                                :North Departure {F11.4}
NPHI .CFCF                                             :Thermal Neutron Porosity (original Ratio Method) in Selected Lithology {F11.4}
NPOR .CFCF                                             :Enhanced Thermal Neutron Porosity in Selected Lithology {F11.4}
PR   .                                                 :Poisson s Ratio {F11.4}
SP   .MV                                               :Spontaneous Potential {F11.4}
SPAR .MV                                               :SP, Armor Return Compensated {F11.4}
SPHI .CFCF                                             :Sonic Porosity {F11.4}
STIT .F                                                :Stuck Tool Indicator, Total {F11.4}
TENS .LBF                                              :Cable Tension {F11.4}
TNPH .CFCF                                             :Thermal Neutron Porosity (Ratio Method) in Selected Lithology {F11.4}
HTNP_SAN.CFCF                                          :HiRes Thermal Neutron Porosity (matrix Sandstone) {F11.4}
#-----------------------------------------------------------------------------
# 
#      DEPT        AF10       AF20       AF30       AF60       AF90       AO10       AO20       AO30       AO60       AO90       AT10       AT20       AT30       AT60       AT90       AORT       AORX       CDF        CFTC       CNTC       CTEM       DCAL        DT        DTCO       DTSM        ED      GR_STGC      GTEM     HGR_STGC     HNPO       HTNP       ITT         ND        NPHI       NPOR        PR         SP        SPAR       SPHI       STIT       TENS       TNPH     HTNP_SAN
#
~A  
# ...
   9390.0000  1950.0000   309.0923  1950.0000  1950.0000  1950.0000    80.4571   499.0169    97.0774    59.0738    57.8657   943.7715   247.2937  1950.0000  1950.0000  1950.0000    49.7880    29.2105 -9373.2910 17858.8555 23385.1406   118.1176     0.0000   133.3984   133.3984   176.0612     0.0000    47.6849   416.9970    47.0733    -0.0043     0.0054     0.0715     0.0000     0.0110    -0.0097  -999.2500    47.5000    47.0618     0.3626     0.0000  3137.0000     0.0047     0.0326
   9390.5000  1950.0000   304.7416  1950.0000  1950.0000  1950.0000   136.2559   849.4093   110.4969    52.9426    51.9409  1567.2421   294.4221  1950.0000  1950.0000  1950.0000    46.6451    43.0055 -9334.0088 14297.0869 20618.6094   118.1176     0.0000   128.8184   128.8184   167.3499     0.0000    45.0348   417.0370    44.0155     0.0244     0.0137     0.0716     0.0000     0.0190     0.0105     0.1966    47.5000    47.1376     0.3533     0.0000  3129.4998     0.0129     0.0426
   9391.0000  1950.0000   216.1824  1950.0000  1950.0000  1950.0000   142.7124   254.0970   114.7760    55.5876    54.5219  1950.0000   246.2442  1950.0000  1950.0000  1950.0000    47.3034    71.5712 -9367.4961 11065.1377 18062.9434   118.1176     0.0000   103.9941   103.9941   171.9883     0.0000    44.3561   417.0139    44.0156     0.0442     0.0319     0.0717     0.0000     0.0269     0.0402     0.2118    47.5000    47.2095     0.2884     0.0000  3141.0000     0.0278     0.0652
   9391.5000  1950.0000   137.3731  1059.6637   870.4761  1537.0519   583.0023   154.6822   129.0288    65.9815    64.6201  1950.0000   159.9657  1149.6354  1302.6322  1476.0148    51.7880   133.5702 -9502.0889  9432.4883 16285.9121   118.1176     0.0000    94.6094    94.6094   176.6267     0.0000    46.9828   417.0586    45.0371     0.0422     0.0309     0.0717     0.0000     0.0291     0.0526     0.2988    47.5000    47.3179     0.2551     0.0000  3144.0000     0.0322     0.0641
   9392.0000  1950.0000    91.9221   744.4972   481.1336  1093.5583   219.6536    61.7615   106.2065    64.9579    63.5988  1923.5105   104.3199   381.1949   263.8264   405.9837    53.6568   245.6379 -9504.3809 10740.7930 16694.1934   118.1176     0.0000    94.6094    94.6094   181.2650     0.0000    52.1003   417.0632    51.8955     0.0182     0.0203     0.0718     0.0000     0.0254     0.0360     0.3128    47.5000    47.3894     0.2551     0.0000  3147.0000     0.0263     0.0508
   9392.5000  1950.0000    63.0882   583.5617   303.6889   761.1502   162.7376    29.5670    50.6553    47.5173    46.7892  1941.2017    61.2068   244.0948   165.4033   266.6497    45.9570   420.3803 -9482.9629 11980.1875 17281.4297   118.1176     0.0000    94.6094    94.6094   185.9034     0.0000    61.4509   417.0632    59.3683     0.0167     0.0152     0.0718     0.0000     0.0194     0.0278     0.3252    47.5000    47.4648     0.2551     0.0000  3145.0000     0.0183     0.0444
   9393.0000  1950.0000    46.7650   484.6975   220.5430   541.1532   169.0035    53.4757   142.5162    70.7994    69.1288  1950.0000    49.8057   238.2411   113.9919   190.8001    60.9583   598.4672 -9450.9678 13373.6904 18838.3047   118.1176     0.0000    72.3047    72.3047   183.3975     0.0000    69.6258   417.1140    73.0889     0.0125     0.0126     0.0718     0.0000     0.0169     0.0124     0.4080    47.5000    47.5463     0.1409     0.0000  3140.0000     0.0126     0.0413
   9393.5000  1950.0000    39.8854   498.8197   160.1097   406.9135   292.0713    45.1067   230.4192    69.5150    68.5581  1950.0000    38.4650   247.6098    89.3189   152.0272    64.9448   739.4324 -9449.6885 14806.8535 21020.8809   118.1176     0.0000    81.8750    81.8750   183.3975     0.0000    76.6109   417.1201    76.6737     0.0028     0.0121     0.0719     0.0000     0.0142    -0.0065     0.3755    46.8750    47.5717     0.1975     0.0000  3137.0000     0.0087     0.0407
   9394.0000  1950.0000    36.3427   539.2759   139.3052   325.9664  1253.1335    33.9756   335.6503    77.6140    75.9687  1950.0000    34.4420   284.7133    86.2070   141.6960    68.3296   837.5134 -9465.8984 15588.7148 20151.8633   118.1176     0.0000    88.7500    88.7500   177.7028     0.0000    81.2076   417.1232    80.3236     0.0064     0.0072     0.0719     0.0000     0.0150     0.0116     0.3338    46.8750    47.6681     0.2306     0.0000  3139.0000     0.0106     0.0348
   9394.5000  1950.0000    34.3400   579.7861   134.6704   294.0163  1950.0000    27.0437   327.1309    96.2481    93.7343  1950.0000    31.5083   310.7950    69.0156   146.7923    72.5962   955.6567 -9466.6094 13934.3564 20299.5469   118.1176     0.0000   104.7461   104.7461   169.3101     0.0000    85.3497   417.1617    86.8791     0.0104     0.0125     0.0720     0.0000     0.0162     0.0162     0.1900    46.8750    47.7708     0.2909     0.0000  3124.0000     0.0134     0.0411
   9395.0000  1950.0000    34.5625   598.0128   171.8793   311.9302  1326.7345    21.7318   238.8219   136.1421   131.9263  1950.0000    29.9077   327.3957   108.7765   152.6763    80.1410   900.3613 -9443.7871 14088.3857 20858.1484   118.1176     0.0000   116.1523   116.1523   160.9174     0.0000    87.2927   417.1648    88.8464     0.0215     0.0169     0.0720     0.0000     0.0180     0.0078  -999.2500    47.5000    48.0550     0.3237     0.0000  3139.0000     0.0139     0.0466
   9395.5000  1950.0000    37.0515   584.7156   236.9777   356.8860  1403.0309    20.5335   164.8440   162.1739   155.4697  1950.0000    30.2165   312.4003   144.3537   156.8775    69.8774  1174.4863 -9347.2324 14725.8086 20472.2402   118.1176     0.0000   117.1875   117.1875   152.5247     0.0000    86.1432   417.1971    86.1527     0.0155     0.0142     0.0721     0.0000     0.0177     0.0054  -999.2500    47.8125    48.1627     0.3263     0.0000  3158.0000     0.0125     0.0433
   9396.0000  1950.0000    42.3784   544.6932   335.8449   432.7915  1950.0000    32.3699   143.5430   152.7377   148.1453  1950.0000    33.2504   269.5910   217.1190   157.0181    84.1229  1150.9551 -9345.0996 13582.3994 19575.3613   118.1176     0.0000   117.1875   117.1875   144.1320     0.0000    85.6857   417.2002    83.4304     0.0071     0.0143     0.0722     0.0000     0.0156     0.0090  -999.2500    48.7500    48.2675     0.3263     0.0000  3160.0002     0.0124     0.0433
   9396.5000  1950.0000    54.0494   537.3492   521.7459   555.5975   583.3588    37.3762   124.4605   121.4265   118.4422  1950.0000    43.2515   290.5043   360.9774   216.0630    82.7092   954.2444 -9437.9561 12950.5264 17753.3438   118.1176     0.0000   117.1875   117.1875   154.7808     0.0000    84.0473   417.2140    87.4740     0.0089     0.0118     0.0722     0.0000     0.0164     0.0232  -999.2500    48.7500    48.3656     0.3263     0.0000  3164.0002     0.0141     0.0403
   9397.0000  1950.0000    69.8831   525.4522   844.8401   755.9496   271.5657    67.2178    74.5738    65.5530    63.8053  1950.0000    60.2615   251.0502   670.8350   254.2176    59.4941   841.2259 -9464.4766 12301.7637 17587.7617   118.1176     0.0000   117.0313   117.0313   165.4295     0.0000    83.8835   417.2310    81.2374     0.0130     0.0135     0.0723     0.0000     0.0192     0.0199     0.1253    49.3750    48.5994     0.3259     0.0000  3165.0002     0.0172     0.0424
   9397.5000  1950.0000    94.6550   603.3959  1255.3867  1081.7866   434.7749   143.3175   125.5886   107.0408   104.1471  1950.0000    92.8549   490.5719  1950.0000   733.4741    81.8247   714.0796 -9467.2500 10751.7998 17115.2813   118.1176     0.0000   110.6836   110.6836   167.4961     0.0000    82.6382   417.2556    82.9389     0.0207     0.0242     0.0723     0.0000     0.0226     0.0203     0.1124    49.3750    48.6748     0.3088     0.0000  3170.4998     0.0193     0.0557
   9398.0000  1950.0000   120.9491   772.6899  1465.1213  1466.7322   431.2670   227.5870   168.1047    99.0345    96.1134  1950.0000   157.3676   931.5037  1950.0000  1779.0076    80.2485   538.1907 -9323.5566 10932.9873 16987.8730   118.1176     0.0000   115.0977   115.0977   167.4961     0.0000    82.9567   417.2817    83.7383     0.0135     0.0209     0.0724     0.0000     0.0245     0.0246     0.0527    49.3750    48.7361     0.3209     0.0000  3157.0000     0.0231     0.0515
