~VERSION INFORMATION
VERS.           1.2   :CWLS Log ASCII Standard - VERSION 1.2
WRAP.           NO    :One Line per depth step
PROD.  Schlumberger   :LAS Producer
PROG.  DLIS to ASCII 2.3                               :LAS Program name and version
CREA.        2021/07/30 13:36                          :LAS Creation date {YYYY/MM/DD hh:mm}
DLIS_CREA.  2021-Jul-30 07:08                          :DLIS Creation date and time {YYYY-MMM-DD hh:mm}
SOURCE.     6d1d3df9-7549-4232-acfc-119b5b71a716       :DLIS File Name
#--------------------------------------------------
~WELL INFORMATION
#MNEM.UNIT      DATA             DESCRIPTION
#---- ------ --------------   -----------------------------
STRT .F      7447.0000       :START DEPTH     
STOP .F      9553.0000       :STOP DEPTH     
STEP .F       0.5000         :STEP       
NULL .          -999.25      :NULL VALUE
COMP .                 COMPANY:  University Of Utah                 
WELL .                    WELL:  FORGE 78B-32                       
FLD  .                   FIELD:  None                               
LOC  .                LOCATION:  Lat: 38.500171, Long: -112.88221   
CNTY .                  COUNTY:  Beaver                             
STAT .                   STATE:  Utah                               
CTRY .                 COUNTRY:                                     
SRVC .         SERVICE COMPANY:  Schlumberger                       
LATI .DEG             LATITUDE:  38 30' 0.616" N                   
LONG .DEG            LONGITUDE:  112 52' 55.956" W                 
API  .              API NUMBER:  NRC 42-00090-03                    
DATE .                LOG DATE:  30-Jul-2021
UWI  .          UNIQUE WELL ID:                                     
#-----------------------------------------------------------------------------
~PARAMETER INFORMATION
#MNEM.UNIT    VALUE                      DESCRIPTION
#---- -----   --------------------       ------------------------
CN   .        University Of Utah         :Company Name
WN   .        FORGE 78B-32               :Well Name
FN   .        None                       :Field Name
FL   .        Lat  38.500171  Long  -112.88221 :Field Location
FL1  .                                   :Field Location, Line 1
COUN .        Beaver                     :County or Parish
STAT .        Utah                       :State or Province
NATI .                                   :Nation
DATE .        30-Jul-2021                :Tools Above Rotary Table Date
APIN .        NRC 42-00090-03            :API Well Number
SECT .                                   :Section
TOWN .                                   :Township
RANG .                                   :Range
DMF  .        KB                         :Drilling Measured From (Name of Drilling Elevation Reference)
LMF  .        KB                         :Logging Measured From (Name of Logging Elevation Reference)
PDAT .        GL                         :Permanent Datum
ENGI .        CSTILES                    :Engineer s Name
WITN .        Virgil  Welch              :Witness s Name
LATI .        38� 30' 0.616  N           :Latitude
LONG .        112� 52' 55.956  W         :Longitude
LUL  .        F.Morgan                   :Logging Unit Location
LUN  .        9108                       :Logging Unit Number
RUN  .        1B                         :Run Number
SON  .                                   :Service Order Number
BHT  .DEGF     419.00000                 :Bottom Hole Temperature
BS   .IN         5.75000                 :Bit Size
MDEN .G/C3       2.71000                 :Matrix Density for Density Porosity
DFD  .LB/G       8.30000                 :Drilling Fluid Density
DFV  .S         24.00000                 :Drilling Fluid Viscosity
DFL  .C3      -999.25000                 :Drilling Fluid Loss
RMFS .OHMM       4.42000                 :Resistivity of Mud Filtrate Sample
EKB  .F       5565.50000                 :Elevation of Kelly Bushing
EGL  .F       5536.00000                 :Elevation of Ground Level
BLI  .F       9532.00000                 :Bottom Log Interval
BSAL .PPM      700.00000                 :Borehole Salinity
FLEV .F          8.00000                 :Depth of Drilling Fluid Level to LMF (Log Measured From)
MCST .DEGF      62.00000                 :Mudcake Sample Temperature
MFST .DEGF      62.00000                 :Mud Filtrate Sample Temperature
MRT  .DEGF     419.00000                 :Maximum Recorded Temperature
MST  .DEGF      62.00000                 :Mud Sample Temperature
RMCS .OHMM       6.21000                 :Resistivity of Mud Cake Sample
RMS  .OHMM       5.20000                 :Resistivity of Mud Sample
RW   .OHMM       1.00000                 :Connate Water Resistivity
TDD  .F       9500.00000                 :Driller Total Depth
TDL  .F       9532.00000                 :Logger Total Depth
TLI  .F       8530.00000                 :Top Log Interval
HIDE .                                   :Header Identifier
MATR .        LIME                       :Rock Matrix for Neutron Porosity Corrections
FNUM .           1.00000                 :F-Numerator for Formation Factor Formula
FEXP .           2.00000                 :Exponent "m" for Formation Factor Formula
DFT  .        WATER                      :Drilling Fluid Type
DFPH .          11.00000                 :Drilling Fluid pH
MCSS .        Calculated                 :Mudcake Sample Source
MFSS .        Calculated                 :Mud Filtrate Sample Source
FD   .G/C3       1.00000                 :Fluid Density
MSS  .        Flowline                   :Mud Sample Source
OS1  .                                   :Other Services Line 1
OS2  .                                   :Other Services Line 2
OS3  .                                   :Other Services Line 3
OS4  .                                   :Other Services Line 4
OS5  .                                   :Other Services Line 5
R1   .                                   :Remarks Line 1
R2   .                                   :Remarks Line 2
R3   .                                   :Remarks Line 3
R4   .                                   :Remarks Line 4
R5   .                                   :Remarks Line 5
R6   .        Tool was run as per tool sketch :Remarks Line 6
R7   .        All logging intervals as per client request :Remarks Line 7
R8   .                                   :Remarks Line 8
TCS  .        20 00 00                   :Time Circulation Stopped
TLAB .        02 17 00                   :Time Logger At Bottom
NMT  .        NOBARITE                   :HRDD Mud Type for Nuclear Devices
EPD  .C3         5536.000000             :Elevation of Permanent Datum above Mean Sea Level
APD  .F          29.500000               :Elevation of Depth Reference (LMF) above Permanent Datum
#-----------------------------------------------------------------------------
~CURVE INFORMATION
#MNEM.UNIT   API CODE                                  DESCRIPTION
#---- -----  --------                                  -----------------------
DEPT .F                                                :DEPTH (BOREHOLE) {F12.4}
AF10 .OHMM                                             :Array Induction Four Foot Resistivity A10 {F11.4}
AF20 .OHMM                                             :Array Induction Four Foot Resistivity A20 {F11.4}
AF30 .OHMM                                             :Array Induction Four Foot Resistivity A30 {F11.4}
AF60 .OHMM                                             :Array Induction Four Foot Resistivity A60 {F11.4}
AF90 .OHMM                                             :Array Induction Four Foot Resistivity A90 {F11.4}
AO10 .OHMM                                             :Array Induction One Foot Resistivity A10 {F11.4}
AO20 .OHMM                                             :Array Induction One Foot Resistivity A20 {F11.4}
AO30 .OHMM                                             :Array Induction One Foot Resistivity A30 {F11.4}
AO60 .OHMM                                             :Array Induction One Foot Resistivity A60 {F11.4}
AO90 .OHMM                                             :Array Induction One Foot Resistivity A90 {F11.4}
AT10 .OHMM                                             :Array Induction Two Foot Resistivity A10 {F11.4}
AT20 .OHMM                                             :Array Induction Two Foot Resistivity A20 {F11.4}
AT30 .OHMM                                             :Array Induction Two Foot Resistivity A30 {F11.4}
AT60 .OHMM                                             :Array Induction Two Foot Resistivity A60 {F11.4}
AT90 .OHMM                                             :Array Induction Two Foot Resistivity A90 {F11.4}
AORT .OHMM                                             :Array Induction One Foot Rt {F11.4}
AORX .OHMM                                             :Array Induction One Foot Rxo {F11.4}
CDF  .LBF                                              :Calibrated Downhole Force {F11.4}
CFTC .HZ                                               :Corrected Far Thermal Count Rate {F11.4}
CNTC .HZ                                               :Corrected Near Thermal Count Rate {F11.4}
CTEM .DEGF                                             :Cartridge Temperature {F11.4}
DCAL .IN                                               :Differential Caliper {F11.4}
DT   .US/F                                             :Delta-T (also called Slowness or Interval Transit Time) {F11.4}
DTCO .US/F                                             :Delta-T Compressional {F11.4}
DTSM .US/F                                             :Delta-T Shear {F11.4}
ED   .F                                                :East Departure {F11.4}
GR_STGC.GAPI                                           :Gamma Ray {F11.4}
GTEM .DEGF                                             :Generalized Borehole Temperature {F11.4}
HGR_STGC.GAPI                                          :High Resolution Gamma Ray {F11.4}
HNPO .CFCF                                             :High Resolution Enhanced Thermal Neutron Porosity in Selected Lithology {F11.4}
HTNP .CFCF                                             :High Resolution Thermal Neutron Porosity (Ratio Method) in Selected Lithology {F11.4}
ITT  .S                                                :Integrated Transit Time {F11.4}
ND   .F                                                :North Departure {F11.4}
NPHI .CFCF                                             :Thermal Neutron Porosity (original Ratio Method) in Selected Lithology {F11.4}
NPOR .CFCF                                             :Enhanced Thermal Neutron Porosity in Selected Lithology {F11.4}
PR   .                                                 :Poisson s Ratio {F11.4}
SP   .MV                                               :Spontaneous Potential {F11.4}
SPAR .MV                                               :SP, Armor Return Compensated {F11.4}
SPHI .CFCF                                             :Sonic Porosity {F11.4}
STIT .F                                                :Stuck Tool Indicator, Total {F11.4}
TENS .LBF                                              :Cable Tension {F11.4}
TNPH .CFCF                                             :Thermal Neutron Porosity (Ratio Method) in Selected Lithology {F11.4}
HTNP_SAN.CFCF                                          :HiRes Thermal Neutron Porosity (matrix Sandstone) {F11.4}
#-----------------------------------------------------------------------------
# 
#      DEPT        AF10       AF20       AF30       AF60       AF90       AO10       AO20       AO30       AO60       AO90       AT10       AT20       AT30       AT60       AT90       AORT       AORX       CDF        CFTC       CNTC       CTEM       DCAL        DT        DTCO       DTSM        ED      GR_STGC      GTEM     HGR_STGC     HNPO       HTNP       ITT         ND        NPHI       NPOR        PR         SP        SPAR       SPHI       STIT       TENS       TNPH     HTNP_SAN
#
~A  
# ...
   8144.0000     0.6426     1.0825  1950.0000    28.8744   111.9439     0.5917     0.7813   384.6089     3.1016     4.9941     0.6057     0.9467  1950.0000    14.6132  1827.2531     3.0226     0.5560 -9999.9999  2197.7493  5290.2529   139.8588     0.0000    59.2188    59.2188    91.4883     0.0000    69.9393   368.1058    72.1544     0.0374     0.0539     0.0779     0.0000     0.0311     0.0562     0.1395   -33.7500   -32.0504     0.0340     0.0000  3882.0000     0.0557     0.0933
   8144.5000     0.5900     1.1945  1950.0000    24.1827    93.6078     0.4920     0.7697   117.3497     2.7221     4.6536     0.5083     0.9885  1950.0000    11.9431  1810.9689     3.0397     0.4813 -9999.9999  2226.1304  5591.2583   139.2941     0.0000    58.8086    58.8086    92.5741     0.0000    68.5021   368.1256    69.3682     0.0465     0.0566     0.0779     0.0000     0.0273     0.0437     0.1617   -33.1250   -32.3246     0.0298     0.0000  3910.0000     0.0541     0.0967
   8145.0000     0.5451     1.4412  1950.0000    17.6441    77.3268     0.4158     0.9028    43.1862     3.7083     7.0540     0.4363     1.1437  1950.0000    19.7484  1500.7238     3.0084     0.4231 -9999.9999  2187.6921  5162.5322   139.8588     0.0000    58.8281    58.8281    92.6221     0.0000    63.5604   368.1356    63.8010     0.0605     0.0546     0.0779     0.0000     0.0294     0.0681     0.1619   -33.1250   -32.4889     0.0300     0.0000  3964.0000     0.0592     0.0941
   8145.5000     0.5101     1.9296  1950.0000    12.9271    68.7738     0.3493     1.3216    35.1999     4.1195     8.0022     0.3872     1.4875  1950.0000     6.9227  1060.8490     2.9123     0.3815  1470.7794  2057.1357  5175.3921   139.5547     0.0000    59.2090    59.2090    93.2841     0.0000    56.8667   368.1333    57.3291     0.0723     0.0613     0.0778     0.0000     0.0352     0.0757     0.1627   -32.5000   -32.4645     0.0339     0.0000  3990.0000     0.0655     0.1027
   8146.0000     0.4848     2.9015  1950.0000    10.7345    64.9070     0.3118     2.4531    15.7141     2.1044     3.6224     0.3564     2.1995  1950.0000     7.9238   681.8893     2.7599     0.3543 -9999.9999  2022.7963  5676.2983   139.4353     0.0000    57.9785    57.9785    92.2215     0.0000    51.7377   368.1516    50.3023     0.0672     0.0756     0.0778     0.0000     0.0460     0.0653     0.1732   -32.1875   -32.3871     0.0213     0.0000  4041.0000     0.0744     0.1208
   8146.5000     0.4682     4.9496  1950.0000     9.6953    67.6806     0.3079     6.9951    36.7188     3.0516     6.7932     0.3396     3.7327  1950.0000    16.5718  1657.1700     2.5846     0.3390 -7118.9697  1896.7473  5494.4795   139.8588     0.0000    53.8379    53.8379    95.8286     0.0000    47.9122   368.1332    48.4140     0.0837     0.0935     0.0778     0.0000     0.0466     0.0741     0.2694   -31.8750   -32.1427    -0.0251     0.0000  4078.0000     0.0720     0.1431
   8147.0000     0.4583     9.6708  1950.0000     8.8142    67.9398     0.3205    34.4323    61.0148     2.5196     4.1643     0.3331     7.3282  1950.0000     9.7765   468.6733     2.4204     0.3327 -7343.2085  2253.6057  5730.0703   139.2941     0.0000    52.9883    52.9883    93.8920     0.0000    46.6835   368.1538    45.8523     0.0590     0.0603     0.0777     0.0000     0.0449     0.0707     0.2663   -31.2500   -32.1064    -0.0355     0.0000  4059.0000     0.0737     0.1014
   8147.5000     0.4528    21.8916  1950.0000     8.5673    67.2619     0.3261   126.5713    46.6862     2.0023     2.9887     0.3337    16.7947  1950.0000     9.5941   238.7621     2.2900     0.3328 -7346.2300  2077.7524  5660.2603   139.8588     0.0000    50.1563    50.1563    94.3970     0.0000    46.5132   368.1897    45.7841     0.0700     0.0704     0.0777     0.0000     0.0486     0.0737     0.3033   -31.2500   -32.0124    -0.0728     0.0000  4066.0000     0.0745     0.1142
   8148.0000     0.4493    58.4835  1950.0000     8.4760    74.1195     0.3252   808.6182    40.9127     1.9405     2.8690     0.3383    45.8604  1950.0000     9.3667   179.5868     2.2044     0.3365 -2373.6189  1852.3912  5695.4517   139.8588     0.0000    52.1289    52.1289    95.6407     0.0000    49.7383   368.1592    47.9668     0.1078     0.0970     0.0777     0.0000     0.0482     0.0791     0.2887   -31.2500   -31.9083    -0.0464     0.0000  4049.9998     0.0781     0.1474
   8148.5000     0.4452   190.5191  1950.0000     8.3168    85.2915     0.3431  1950.0000    62.7657     2.1380     3.2675     0.3435   160.7277  1950.0000     8.4016   157.7023     2.1642     0.3407 -2932.3928  2220.6260  5609.3340   139.0986     0.0000    54.1406    54.1406    97.4298     0.0000    53.2247   368.1779    55.5277     0.0729     0.0640     0.0777     0.0000     0.0551     0.0812     0.2766   -31.2500   -31.8622    -0.0215     0.0000  4036.0002     0.0798     0.1062
   8149.0000     0.4387   761.4420  1950.0000     8.4328    86.5807     0.3795  1950.0000   141.4485     2.2287     3.5078     0.3456   821.0252  1950.0000     8.3932    85.3178     2.1627     0.3420 -9545.8867  1933.8845  5909.1328   139.2941     0.0000    53.7500    53.7500   101.7045     0.0000    58.5393   368.1821    56.2432     0.0747     0.0936     0.0776     0.0000     0.0458     0.0609     0.3062   -31.2500   -31.7709    -0.0262     0.0000  4060.0000     0.0730     0.1432
   8149.5000     0.4287  1950.0000  1950.0000     8.5970    78.2175     0.3867  1950.0000   429.1138     2.0778     3.3052     0.3414  1950.0000  1950.0000     8.5719    61.9017     2.1934     0.3386 -7904.9526  2033.7794  5337.5635   139.8588     0.0000    55.4297    55.4297   102.7936     0.0000    61.3632   368.1867    63.8471     0.0665     0.0671     0.0776     0.0000     0.0510     0.0838     0.2950   -31.2500   -31.7376    -0.0064     0.0000  4037.0000     0.0775     0.1100
   8150.0000     0.4155  1950.0000  1950.0000     8.6653    71.1213     0.3409  1950.0000  1207.2577     2.0442     3.4002     0.3312  1950.0000  1950.0000     8.6079    49.7227     2.2480     0.3302 -9999.9999  1945.8301  5405.1157   138.7294     0.0000    56.0840    56.0840   103.4108     0.0000    63.6261   368.1806    64.9456     0.0610     0.0739     0.0776     0.0000     0.0527     0.0828     0.2916   -31.2500   -31.7331     0.0009     0.0000  3992.0000     0.0832     0.1187
   8150.5000     0.3998  1950.0000  1950.0000     8.4719    61.5700     0.2982  1950.0000  1950.0000     2.2968     4.3313     0.3179  1950.0000  1950.0000     8.4953    40.8580     2.3092     0.3186 -9999.9999  1648.9850  5173.7720   139.8588     0.0000    57.8320    57.8320   101.6156     0.0000    61.5439   368.1927    63.0318     0.1018     0.0990     0.0775     0.0000     0.0572     0.0798     0.2605   -31.2500   -31.6768     0.0198     0.0000  3912.0000     0.0814     0.1499
   8151.0000     0.3821  1950.0000  1950.0000     7.9813    51.7112     0.2922  1950.0000   905.2065     2.6846     6.1680     0.3034  1950.0000  1950.0000     8.1878    32.3566     2.3518     0.3050  2376.4629  1813.9110  5143.3862   138.7946     0.0000    56.0059    56.0059   101.4400     0.0000    59.2948   368.2035    57.6006     0.0933     0.0776     0.0775     0.0000     0.0545     0.0847     0.2808   -31.2500   -31.5842     0.0001     0.0000  3859.9998     0.0868     0.1234
   8151.5000     0.3632  1950.0000  1950.0000     7.2585    42.9312     0.3170  1950.0000   151.5384     2.8226     7.1881     0.2875  1950.0000  1950.0000     7.5155    23.6631     2.3475     0.2900 -9999.9999  1744.1849  4626.5713   139.5765     0.0000    55.1074    55.1074   100.8717     0.0000    59.2517   368.2019    57.3574     0.1096     0.0867     0.0775     0.0000     0.0451     0.1045     0.2873   -31.2500   -31.3982    -0.0101     0.0000  3846.0002     0.0798     0.1347
   8152.0000     0.3446  1950.0000  1950.0000     6.4461    35.8566     0.3218  1950.0000    39.6683     2.6407     6.0696     0.2699  1950.0000  1950.0000     6.5145    16.6461     2.2896     0.2744 -3952.1211  1907.3198  5122.2461   139.8588     0.0000    56.2305    56.2305   100.4055     0.0000    63.3460   368.1928    62.9027     0.0749     0.0706     0.0775     0.0000     0.0400     0.0783     0.2715   -31.2500   -31.1184     0.0026     0.0000  3816.0000     0.0721     0.1145
