~Version
 VERS              .         2.0                           : CWLS LOG ASCII STANDARD - VERSION 2.0
 WRAP              .         NO                            : ONE LINE PER DEPTH STEP
 DLM               .         SPACE                         : DELIMITING CHARACTER(SPACE TAB OR COMMA)
~Well Information
#_______________________________________________________________________________
#
#PARAMETER_NAME    .UNIT     VALUE                         : DESCRIPTION
#_______________________________________________________________________________
STRT               .ft       7493                          : First reference value
STOP               .ft       9543.25                       : Last reference value
STEP               .ft       0.25                          : Step increment
NULL               .         -9999                         : Missing value
COMP               .         University Of Utah            : Company
WELL               .         FORGE 78B-32                  : Well name
FLD                .         None                          : Field
LOC                .                                       : Location
CNTY               .         Beaver                        : County
STAT               .         Utah                          : State
CTRY               .         USA                           : Country
SRVC               .         Schlumberger                  : Service Company
DATE               .         19-Jul-2021                   : Date
API                .         NRC 42-00090-03               : API number
APD                .ft       29.5                          : Elevation of Depth Reference (LMF) Above Permanent Datum
BHS                .         OPEN                          : Borehole Status (Open or Cased Hole)
BHT                .degF     320.87                        : Bottom Hole Temperature
BLI                .ft       -999.25                       : Bottom Log Interval
BS                 .in       8.75                          : Bit Size
CBDR               .ft       2989                          : Casing Bottom of Driller
CBLO               .ft       2988                          : Logger Casing Shoe Depth
CSIZ               .in       11.75                         : Current Casing Size
CWEI               .lbm/ft   54                            : Casing Weight
DCS                .         19-Jul-2021                   : Date Circulation Stopped
DFD                .lbm/gal  8.3                           : Drilling Fluid Density
DFT                .         WATER                         : Drilling Fluid Type
DLAB               .         19-Jul-2021                   : Date Logger At Bottom
EDF                .ft       5536                          : Elevation of Drill Floor
EGL                .ft       5536                          : Elevation of Ground Level
EKB                .ft       5565.5                        : Elevation of Kelly Bushing
EPD                .ft       5536                          : Elevation of Permanent Datum (PDAT) above Mean Sea Level
LMF                .         KB                            : Logging Measured From (Name of Logging Elevation Reference)
LUL                .         F.Morgan                      : Logging Unit Location
LUN                .         9108                          : Logging Unit Number
LATI               .         38.500171 degrees             : Latitude
LONG               .         -112.88221 degrees            : Longitude
MCST               .degF     68                            : Mudcake Sample Temperature
MFST               .degF     68                            : Mud Filtrate Sample Temperature
MRT                .degF     321.43                        : Maximum Recorded Temperature
MST                .degF     68                            : Mud Sample Temperature
ORIGINALWELLNAME   .         FORGE 78B-32                  : 
PDAT               .         GL                            : Permanent Datum
PRODUCER-CODE      .         440                           : 
PRODUCER-NAME      .         Schlumberger                  : 
RMB                .ohm.m    0.04564156                    : Resistivity of Mud at Bottom Hole Temperature
RMCS               .ohm.m    -999.25                       : Resistivity of Mud Cake Sample
RMFS               .ohm.m    0.15                          : Resistivity of Mud Filtrate Sample
RMS                .ohm.m    0.2                           : Resistivity of Mud Sample
RUN                .         1A                            : Run Number
TCS                .         03_00_00                      : Time Circulation Stopped
TDD                .ft       8540                          : Driller Total Depth
TDL                .ft       8540                          : Logger Total Depth
TLAB               .         07_53_00                      : Time Logger At Bottom
TLI                .ft       -999.25                       : Top Log Interval
~Parameter Information Block
#_______________________________________________________________________________
#
#PARAMETER_NAME    .UNIT     VALUE                         : DESCRIPTION
#_______________________________________________________________________________
SET                .         QSLT                          : 
TLFamily_AT10      .         Resistivity - Induction Array 10: 
TLFamily_AT20      .         Resistivity - Induction Array 20: 
TLFamily_AT30      .         Resistivity - Induction Array 30: 
TLFamily_AT60      .         Resistivity - Induction Array 60: 
TLFamily_AT90      .         Resistivity - Induction Array 90: 
TLFamily_BS        .         Bit Size                      : 
TLFamily_DTCO_FINAL .         Compressional Slowness        : 
TLFamily_DTSH_FINAL .         Shear Slowness                : 
TLFamily_GR_STGC   .         Gamma Ray                     : 
TLFamily_HDAR      .         Borehole Diameter             : 
TLFamily_PR        .         Poisson Ratio (Dynamic)       : 
TLFamily_SPHI      .         Total Porosity                : 
TLFamily_TDEP      .         Measured Depth                : 
TLFamily_TENS      .         Tension                       : 
TLFamily_TNPH      .         Thermal Neutron Porosity      : 
TLFamily_VPVS      .         VpVs (Compressional To Shear) Ratio: 
~Curve Information
#_______________________________________________________________________________
#
#LOGNAME           .UNIT     LOG_ID                        : DESCRIPTION
#_______________________________________________________________________________
TDEP               .ft                                     : Measured Depth 
AT10               .ohm.m                                  : Array Induction Two Foot Resistivity A10 
AT20               .ohm.m                                  : Array Induction Two Foot Resistivity A20 
AT30               .ohm.m                                  : Array Induction Two Foot Resistivity A30 
AT60               .ohm.m                                  : Array Induction Two Foot Resistivity A60 
AT90               .ohm.m                                  : Array Induction Two Foot Resistivity A90 
BS                 .in                                     : Bit Size 
DTCO_FINAL         .us/ft                                  : Compressional Slowness 
DTSH_FINAL         .us/ft                                  : Shear Slowness 
GR_STGC            .gAPI                                   : Gamma Ray 
HDAR               .in                                     : Hole Diameter from Area 
PR                 .unitless                               : Possion's Ratio 
SPHI               .ft3/ft3                                : Total porosity from Sonic 
TENS               .lbf                                    : Cable Tension 
TNPH               .ft3/ft3                                : Thermal Neutron Porosity (Ratio Method) in Selected Lithology 
VPVS               .unitless                               : VpVs Ratio 
~Ascii
# ...
9252.5     214.954    54.44273   522.2842   90.50383   41.58498   5.75       58.17519   93.09377   192.7682   5.75       0.1796394  0.07544301 4565.571   0.01737554 1.600232  
9252.75    249.638    57.04271   640.21     116.2372   47.55135   5.75       58.38254   93.3326    193.576    5.75       0.1785902  0.07690842 4563.055   0.018925   1.598639  
9253       269.112    63.44596   760.1184   379.2636   60.0397    5.75       58.44559   93.41832   194.3837   5.75       0.1784196  0.07735403 4560.538   0.02047445 1.598381  
9253.25    263.4745   68.36291   879.1756   535.5587   96.93518   5.75       58.36974   93.42921   182.395    5.75       0.1799106  0.07681792 4538.27    0.02318421 1.600645  
9253.5     233.8113   73.21226   1420.784   204.3252   67.01187   5.75       58.15656   93.41151   170.4063   5.75       0.1835248  0.07531137 4516       0.02589398 1.606208  
9253.75    192.4536   77.69728   1484.648   347.3567   85.75608   5.75       57.81226   93.3808    152.472    5.75       0.1892494  0.07287816 4492.071   0.02628071 1.615242  
9254       151.8399   81.60117   682.5489   275.3339   85.20901   5.75       57.36367   93.33374   134.5377   5.75       0.1964734  0.06970792 4468.143   0.02666745 1.627053  
9254.25    118.2028   83.07717   479.1371   258.9635   93.90035   5.75       56.85809   93.231     123.931    5.75       0.2039075  0.06613491 4466.071   0.02622061 1.639714  
9254.5     92.36953   86.5746    350.8448   265.0227   89.28647   5.75       56.33199   93.00666   113.3244   5.75       0.2103046  0.06241686 4464       0.02577378 1.651045  
9254.75    73.17536   87.87135   272.1945   263.7128   100.5401   5.75       55.79837   92.58562   105.8365   5.75       0.2148137  0.05864573 4485.385   0.02487087 1.659289  
9255       59.96776   86.13292   212.9781   247.0634   119.3928   5.75       55.24975   91.91656   98.34857   5.75       0.2171546  0.05476854 4506.77    0.02396796 1.663656  
9255.25    42.75647   74.17187   171.4746   221.8712   108.4778   5.75       54.68634   91.00678   96.29826   5.75       0.2174225  0.05078686 4527.349   0.02380285 1.664159  
9255.5     36.22248   79.82768   185.0189   230.2684   112.3378   5.75       54.13568   89.94176   94.24795   5.75       0.2159567  0.0468953  4547.929   0.02363775 1.661413  
9255.75    34.48441   66.70224   180.1175   253.8662   200.2647   5.75       53.64196   88.87823   95.16988   5.75       0.2135078  0.04340605 4552.714   0.02206022 1.656879  
9256       29.1493    61.89843   121.2293   140.6555   440.2336   5.75       53.24951   87.98581   96.0918    5.75       0.2110157  0.04063256 4557.5     0.02048269 1.652331  
9256.25    26.47721   56.72492   89.96259   145.8407   312.3342   5.75       52.98261   87.36642   101.767    5.75       0.2091472  0.03874638 4541.327   0.02043214 1.648964  
9256.5     24.12286   47.08573   87.37033   128.0952   363.0539   5.75       52.83294   87.02185   107.4423   5.75       0.2081115  0.03768864 4525.154   0.0203816  1.647113  
9256.75    23.12991   44.87254   56.0868    95.9733    439.8864   5.75       52.74792   86.89094   114.4882   5.75       0.2082086  0.03708778 4483.434   0.02375185 1.647287  
9257       25.06638   44.11273   59.83206   83.26267   544.2601   5.75       52.65279   86.90443   121.5342   5.75       0.2100126  0.03641551 4441.714   0.0271221  1.650519  
9257.25    26.04257   41.57846   64.51807   81.76521   676.9644   5.75       52.4859    87.00214   118.3624   5.75       0.2139152  0.03523602 4448.143   0.03484074 1.657629  
9257.5     26.24051   40.70209   63.856     101.8493   834.5776   5.75       52.23974   87.11487   115.1906   5.75       0.2192402  0.03349641 4454.572   0.04255938 1.667598  
9257.75    26.89922   41.20634   69.31537   116.5993   1019.079   5.75       51.94802   87.14036   103.6673   5.75       0.224343   0.03143475 4483.055   0.04674238 1.677453  
9258       27.40959   35.70436   78.31919   140.2474   1161.585   5.75       51.63171   86.96388   92.144     5.75       0.2278031  0.02919936 4511.538   0.05092539 1.684312  
9258.25    28.13754   33.57312   78.61871   145.0495   1238.276   5.75       51.26736   86.51583   79.27776   5.75       0.2294077  0.02662448 4531.808   0.04935582 1.687542  
9258.5     29.05297   33.17973   76.43673   153.7003   1217.474   5.75       50.82837   85.83131   66.41152   5.75       0.2299542  0.02352202 4552.077   0.04778626 1.68865   
9258.75    28.30145   32.45675   77.37112   188.0218   1111.609   5.75       50.35269   85.05811   65.44649   5.75       0.230248   0.02016034 4578.646   0.04368233 1.689247  
9259       32.68326   31.11964   87.67319   236.5229   961.8161   5.75       49.93373   84.38294   64.48145   5.75       0.2305682  0.01719954 4605.214   0.03957841 1.689898  
9259.25    35.84293   28.44411   103.8556   275.5221   793.494    5.75       49.63443   83.93948   84.29211   5.75       0.2311832  0.01508428 4585.761   0.03583443 1.691154  
9259.5     43.16029   27.94193   123.6188   342.9324   659.7183   5.75       49.44904   83.78184   104.1028   5.75       0.2327168  0.01377413 4566.308   0.03209046 1.694307  
9259.75    43.01141   26.69808   151.1594   435.1902   551.288    5.75       49.35686   83.93375   129.4986   5.75       0.2357107  0.01312269 4535.975   0.02897025 1.700549  
9260       51.91113   28.02151   184.3313   553.7679   469.3564   5.75       49.44764   84.44904   154.8944   5.75       0.239141   0.01376421 4505.643   0.02585003 1.707848  
9260.25    61.23582   29.0744    231.3541   697.1603   410.2237   5.75       49.88453   85.38405   164.9694   5.75       0.240891   0.01685182 4496.179   0.02457564 1.711634  
9260.5     65.16459   30.00866   296.1682   848.3118   374.8333   5.75       50.73578   86.71367   175.0444   5.75       0.2397324  0.02286772 4486.714   0.02330124 1.709123  
9260.75    88.80875   31.38172   381.7863   959.058    296.8214   5.75       51.8274    88.26519   163.1772   5.75       0.2368996  0.03058231 4504.857   0.02275206 1.703061  
9261       108.7034   33.48138   483.7761   964.502    268.3051   5.75       52.81998   89.75852   151.31     5.75       0.23513    0.03759706 4523       0.02220288 1.699329  
9261.25    137.7038   35.79318   582.6705   861.6177   236.7964   5.75       53.45631   90.93967   131.5525   5.75       0.2360181  0.04209404 4539.464   0.02230518 1.701196  
9261.5     183.1947   40.69885   648.0741   733.266    251.817    5.75       53.72956   91.70002   111.795    5.75       0.2386045  0.04402519 4555.929   0.02240747 1.706696  
9261.75    262.8378   46.42777   624.9104   587.4459   310.568    5.75       53.81695   92.09691   106.2259   5.75       0.2407372  0.04464277 4561.195   0.02182074 1.711299  
9262       434.2421   54.16852   539.3446   460.3942   268.3573   5.75       53.90087   92.26997   100.6568   5.75       0.2409885  0.04523581 4566.461   0.02123399 1.711846  
9262.25    1096.741   64.67336   430.4098   358.6565   247.9026   5.75       54.06712   92.34511   103.981    5.75       0.2391986  0.04641071 4558.48    0.02022193 1.707972  
9262.5     1950       78.89594   327.7849   280.3655   221.8837   5.75       54.26228   92.38759   107.3052   5.75       0.2366878  0.04778994 4550.5     0.01920987 1.702612  
9262.75    1950       97.01897   244.6743   225.7532   189.9325   5.75       54.34599   92.41595   111.2617   5.75       0.2356927  0.04838155 4523.25    0.01830919 1.700511  
9263       1950       102.3364   187.1032   169.4116   178.7601   5.75       54.20125   92.43315   115.2181   5.75       0.2379846  0.04735867 4496       0.01740851 1.705369  
9263.25    1466.365   103.2223   149.3873   129.6439   155.5599   5.75       53.85664   92.43792   118.6319   5.75       0.243053   0.04492322 4497.893   0.01627825 1.71637   
9263.5     601.0368   97.1303    126.2346   130.8586   145.9576   5.75       53.51932   92.42304   122.0456   5.75       0.2477573  0.04253935 4499.786   0.01514798 1.72691   
9263.75    440        101.44     165.2023   112.566    190.4161   5.75       53.41747   92.35664   126.3139   5.75       0.2486553  0.04181959 4505.816   0.01457119 1.728959  
