~VERSION INFORMATION
VERS.           1.2   :CWLS Log ASCII Standard - VERSION 1.2
WRAP.           NO    :One Line per depth step
PROD.  Schlumberger   :LAS Producer
PROG.  DLIS to ASCII 2.3                               :LAS Program name and version
CREA.        2021/07/30 13:36                          :LAS Creation date {YYYY/MM/DD hh:mm}
DLIS_CREA.  2021-Jul-30 07:08                          :DLIS Creation date and time {YYYY-MMM-DD hh:mm}
SOURCE.     6d1d3df9-7549-4232-acfc-119b5b71a716       :DLIS File Name
#--------------------------------------------------
~WELL INFORMATION
#MNEM.UNIT      DATA             DESCRIPTION
#---- ------ --------------   -----------------------------
STRT .F      7447.0000       :START DEPTH     
STOP .F      9553.0000       :STOP DEPTH     
STEP .F       0.5000         :STEP       
NULL .          -999.25      :NULL VALUE
COMP .                 COMPANY:  University Of Utah                 
WELL .                    WELL:  FORGE 78B-32                       
FLD  .                   FIELD:  None                               
LOC  .                LOCATION:  Lat: 38.500171, Long: -112.88221   
CNTY .                  COUNTY:  Beaver                             
STAT .                   STATE:  Utah                               
CTRY .                 COUNTRY:                                     
SRVC .         SERVICE COMPANY:  Schlumberger                       
LATI .DEG             LATITUDE:  38 30' 0.616" N                   
LONG .DEG            LONGITUDE:  112 52' 55.956" W                 
API  .              API NUMBER:  NRC 42-00090-03                    
DATE .                LOG DATE:  30-Jul-2021
UWI  .          UNIQUE WELL ID:                                     
#-----------------------------------------------------------------------------
~PARAMETER INFORMATION
#MNEM.UNIT    VALUE                      DESCRIPTION
#---- -----   --------------------       ------------------------
CN   .        University Of Utah         :Company Name
WN   .        FORGE 78B-32               :Well Name
FN   .        None                       :Field Name
FL   .        Lat  38.500171  Long  -112.88221 :Field Location
FL1  .                                   :Field Location, Line 1
COUN .        Beaver                     :County or Parish
STAT .        Utah                       :State or Province
NATI .                                   :Nation
DATE .        30-Jul-2021                :Tools Above Rotary Table Date
APIN .        NRC 42-00090-03            :API Well Number
SECT .                                   :Section
TOWN .                                   :Township
RANG .                                   :Range
DMF  .        KB                         :Drilling Measured From (Name of Drilling Elevation Reference)
LMF  .        KB                         :Logging Measured From (Name of Logging Elevation Reference)
PDAT .        GL                         :Permanent Datum
ENGI .        CSTILES                    :Engineer s Name
WITN .        Virgil  Welch              :Witness s Name
LATI .        38� 30' 0.616  N           :Latitude
LONG .        112� 52' 55.956  W         :Longitude
LUL  .        F.Morgan                   :Logging Unit Location
LUN  .        9108                       :Logging Unit Number
RUN  .        1B                         :Run Number
SON  .                                   :Service Order Number
BHT  .DEGF     419.00000                 :Bottom Hole Temperature
BS   .IN         5.75000                 :Bit Size
MDEN .G/C3       2.71000                 :Matrix Density for Density Porosity
DFD  .LB/G       8.30000                 :Drilling Fluid Density
DFV  .S         24.00000                 :Drilling Fluid Viscosity
DFL  .C3      -999.25000                 :Drilling Fluid Loss
RMFS .OHMM       4.42000                 :Resistivity of Mud Filtrate Sample
EKB  .F       5565.50000                 :Elevation of Kelly Bushing
EGL  .F       5536.00000                 :Elevation of Ground Level
BLI  .F       9532.00000                 :Bottom Log Interval
BSAL .PPM      700.00000                 :Borehole Salinity
FLEV .F          8.00000                 :Depth of Drilling Fluid Level to LMF (Log Measured From)
MCST .DEGF      62.00000                 :Mudcake Sample Temperature
MFST .DEGF      62.00000                 :Mud Filtrate Sample Temperature
MRT  .DEGF     419.00000                 :Maximum Recorded Temperature
MST  .DEGF      62.00000                 :Mud Sample Temperature
RMCS .OHMM       6.21000                 :Resistivity of Mud Cake Sample
RMS  .OHMM       5.20000                 :Resistivity of Mud Sample
RW   .OHMM       1.00000                 :Connate Water Resistivity
TDD  .F       9500.00000                 :Driller Total Depth
TDL  .F       9532.00000                 :Logger Total Depth
TLI  .F       8530.00000                 :Top Log Interval
HIDE .                                   :Header Identifier
MATR .        LIME                       :Rock Matrix for Neutron Porosity Corrections
FNUM .           1.00000                 :F-Numerator for Formation Factor Formula
FEXP .           2.00000                 :Exponent "m" for Formation Factor Formula
DFT  .        WATER                      :Drilling Fluid Type
DFPH .          11.00000                 :Drilling Fluid pH
MCSS .        Calculated                 :Mudcake Sample Source
MFSS .        Calculated                 :Mud Filtrate Sample Source
FD   .G/C3       1.00000                 :Fluid Density
MSS  .        Flowline                   :Mud Sample Source
OS1  .                                   :Other Services Line 1
OS2  .                                   :Other Services Line 2
OS3  .                                   :Other Services Line 3
OS4  .                                   :Other Services Line 4
OS5  .                                   :Other Services Line 5
R1   .                                   :Remarks Line 1
R2   .                                   :Remarks Line 2
R3   .                                   :Remarks Line 3
R4   .                                   :Remarks Line 4
R5   .                                   :Remarks Line 5
R6   .        Tool was run as per tool sketch :Remarks Line 6
R7   .        All logging intervals as per client request :Remarks Line 7
R8   .                                   :Remarks Line 8
TCS  .        20 00 00                   :Time Circulation Stopped
TLAB .        02 17 00                   :Time Logger At Bottom
NMT  .        NOBARITE                   :HRDD Mud Type for Nuclear Devices
EPD  .C3         5536.000000             :Elevation of Permanent Datum above Mean Sea Level
APD  .F          29.500000               :Elevation of Depth Reference (LMF) above Permanent Datum
#-----------------------------------------------------------------------------
~CURVE INFORMATION
#MNEM.UNIT   API CODE                                  DESCRIPTION
#---- -----  --------                                  -----------------------
DEPT .F                                                :DEPTH (BOREHOLE) {F12.4}
AF10 .OHMM                                             :Array Induction Four Foot Resistivity A10 {F11.4}
AF20 .OHMM                                             :Array Induction Four Foot Resistivity A20 {F11.4}
AF30 .OHMM                                             :Array Induction Four Foot Resistivity A30 {F11.4}
AF60 .OHMM                                             :Array Induction Four Foot Resistivity A60 {F11.4}
AF90 .OHMM                                             :Array Induction Four Foot Resistivity A90 {F11.4}
AO10 .OHMM                                             :Array Induction One Foot Resistivity A10 {F11.4}
AO20 .OHMM                                             :Array Induction One Foot Resistivity A20 {F11.4}
AO30 .OHMM                                             :Array Induction One Foot Resistivity A30 {F11.4}
AO60 .OHMM                                             :Array Induction One Foot Resistivity A60 {F11.4}
AO90 .OHMM                                             :Array Induction One Foot Resistivity A90 {F11.4}
AT10 .OHMM                                             :Array Induction Two Foot Resistivity A10 {F11.4}
AT20 .OHMM                                             :Array Induction Two Foot Resistivity A20 {F11.4}
AT30 .OHMM                                             :Array Induction Two Foot Resistivity A30 {F11.4}
AT60 .OHMM                                             :Array Induction Two Foot Resistivity A60 {F11.4}
AT90 .OHMM                                             :Array Induction Two Foot Resistivity A90 {F11.4}
AORT .OHMM                                             :Array Induction One Foot Rt {F11.4}
AORX .OHMM                                             :Array Induction One Foot Rxo {F11.4}
CDF  .LBF                                              :Calibrated Downhole Force {F11.4}
CFTC .HZ                                               :Corrected Far Thermal Count Rate {F11.4}
CNTC .HZ                                               :Corrected Near Thermal Count Rate {F11.4}
CTEM .DEGF                                             :Cartridge Temperature {F11.4}
DCAL .IN                                               :Differential Caliper {F11.4}
DT   .US/F                                             :Delta-T (also called Slowness or Interval Transit Time) {F11.4}
DTCO .US/F                                             :Delta-T Compressional {F11.4}
DTSM .US/F                                             :Delta-T Shear {F11.4}
ED   .F                                                :East Departure {F11.4}
GR_STGC.GAPI                                           :Gamma Ray {F11.4}
GTEM .DEGF                                             :Generalized Borehole Temperature {F11.4}
HGR_STGC.GAPI                                          :High Resolution Gamma Ray {F11.4}
HNPO .CFCF                                             :High Resolution Enhanced Thermal Neutron Porosity in Selected Lithology {F11.4}
HTNP .CFCF                                             :High Resolution Thermal Neutron Porosity (Ratio Method) in Selected Lithology {F11.4}
ITT  .S                                                :Integrated Transit Time {F11.4}
ND   .F                                                :North Departure {F11.4}
NPHI .CFCF                                             :Thermal Neutron Porosity (original Ratio Method) in Selected Lithology {F11.4}
NPOR .CFCF                                             :Enhanced Thermal Neutron Porosity in Selected Lithology {F11.4}
PR   .                                                 :Poisson s Ratio {F11.4}
SP   .MV                                               :Spontaneous Potential {F11.4}
SPAR .MV                                               :SP, Armor Return Compensated {F11.4}
SPHI .CFCF                                             :Sonic Porosity {F11.4}
STIT .F                                                :Stuck Tool Indicator, Total {F11.4}
TENS .LBF                                              :Cable Tension {F11.4}
TNPH .CFCF                                             :Thermal Neutron Porosity (Ratio Method) in Selected Lithology {F11.4}
HTNP_SAN.CFCF                                          :HiRes Thermal Neutron Porosity (matrix Sandstone) {F11.4}
#-----------------------------------------------------------------------------
# 
#      DEPT        AF10       AF20       AF30       AF60       AF90       AO10       AO20       AO30       AO60       AO90       AT10       AT20       AT30       AT60       AT90       AORT       AORX       CDF        CFTC       CNTC       CTEM       DCAL        DT        DTCO       DTSM        ED      GR_STGC      GTEM     HGR_STGC     HNPO       HTNP       ITT         ND        NPHI       NPOR        PR         SP        SPAR       SPHI       STIT       TENS       TNPH     HTNP_SAN
#
~A  
# ...
   8985.5000  1950.0000    34.8447   969.4811   399.3344   204.8050    48.1694    15.9223    23.6855    14.6819    14.5099  1950.0000    25.5878   201.2737    95.1267    71.0841    12.1255   131.5534 -8754.8770  9946.7197 16350.2285   126.0235     0.0000    56.0547    56.0547    95.5596     0.0000   274.0195   406.7019   289.0780     0.0246     0.0256     0.0290     0.0000     0.0270     0.0196     0.2377    13.1641    13.2396     0.0006     0.0000  4327.0000     0.0244     0.0574
   8986.0000  1950.0000    43.7655   851.8596   355.6258   148.8026    39.5025    32.4436    30.6958    16.6100    16.2971  1950.0000    32.4239   206.7406    90.7395    61.3572    12.7127    73.8745 -8793.1563  9885.3125 15608.8340   126.0235     0.0000    56.2500    56.2500    94.6067     0.0000   241.3092   406.7232   232.0373     0.0248     0.0235     0.0290     0.0000     0.0274     0.0245     0.2266    13.7132    13.4249     0.0028     0.0000  4387.0000     0.0239     0.0547
   8986.5000  1950.0000    60.3402   733.4802   293.7001   123.6425    39.0795    40.3442    35.4978    16.0078    15.6520  1950.0000    49.0713   183.3843    69.3622    44.9415    11.6657    79.1778 -8753.5781  9560.6377 15351.0654   126.0235     0.0000    54.8438    54.8438    93.4291     0.0000   200.1798   406.7412   203.0650     0.0223     0.0244     0.0290     0.0000     0.0293     0.0302     0.2371    13.7500    13.5777    -0.0132     0.0000  4435.5000     0.0279     0.0559
   8987.0000  1950.0000    79.9173   896.5694   271.0431   116.4698    49.7655    76.4863    39.5049    16.7714    16.3730  1950.0000    61.0990   175.9340   130.2277    46.9489    12.0844    71.0100 -8744.9990  8608.3076 14983.7090   126.0235     0.0000    55.3320    55.3320    93.4266     0.0000   174.2337   406.7765   165.6896     0.0381     0.0343     0.0289     0.0000     0.0339     0.0352     0.2299    13.7500    13.7220    -0.0075     0.0000  4358.6670     0.0317     0.0683
   8987.5000  1950.0000    91.5729   374.2062   396.8251   140.2083    48.3565   141.4827    48.1055    20.5205    20.0514  1950.0000    61.5567   285.8932   212.2444    51.6627    12.5589    75.3631 -8782.8701  8426.4902 15270.9023   126.0235     0.0000    54.9219    54.9219    93.8851     0.0000   144.1941   406.8009   153.5518     0.0334     0.0372     0.0289     0.0000     0.0361     0.0325     0.2399    13.7109    13.8820    -0.0123     0.0000  4274.0000     0.0347     0.0720
   8988.0000  1950.0000    78.7226   323.3848   581.9436   255.4549    26.1310    43.1269    24.8051    19.9703    19.5309  1950.0000    64.9551    69.4257    85.9751    35.6556    14.3537    80.4386 -8774.6699  8690.7510 14918.3691   126.0235     0.0000    53.7305    53.7305    93.7977     0.0000   121.1743   406.8221   112.9464     0.0315     0.0320     0.0289     0.0000     0.0366     0.0391     0.2558    13.7891    14.1444    -0.0264     0.0000  4332.6670     0.0355     0.0655
   8988.5000  1950.0000    55.6993   493.8107   568.4567   273.6459    41.3551    25.5715    20.8033    19.5960    18.4791  1950.0000    40.6628    69.7067   162.9916    27.5847    16.4928    88.2686 -8811.1514  8522.7734 15050.5615   126.0235     0.0000    54.6094    54.6094    94.5113     0.0000   104.7916   406.8341    96.7048     0.0364     0.0353     0.0289     0.0000     0.0357     0.0372     0.2494    14.3750    14.4081    -0.0159     0.0000  4362.0000     0.0344     0.0695
   8989.0000  1950.0000    37.3137   460.6132   530.0543   407.3479    75.1756    14.6697    23.0619    23.5833    22.8658  1950.0000    38.3315    98.3130   148.3853    55.8082    18.1897    94.7471 -8770.4238  8795.8760 15576.0371   126.0235     0.0000    54.0430    54.0430    95.4728     0.0000   109.0100   406.8638   104.7983     0.0329     0.0343     0.0288     0.0000     0.0334     0.0279     0.2643    14.9609    14.6860    -0.0226     0.0000  4440.5000     0.0311     0.0682
   8989.5000  1950.0000    26.2132   357.9792   397.6443   565.6848   152.2958    24.1252    14.0695    16.8546    16.3264  1950.0000    39.9145    98.9094   128.6334    69.9487    14.6129    97.5507 -8817.4834  9616.2969 15384.5938   126.0235     0.0000    54.1797    54.1797    95.7596     0.0000   116.7464   406.8764   125.6013     0.0247     0.0248     0.0288     0.0000     0.0296     0.0304     0.2646    15.0000    14.9144    -0.0210     0.0000  4350.6670     0.0271     0.0563
   8990.0000  1950.0000    18.0292   239.2275   276.3559   613.5783   147.4171    21.6874    35.9162    24.7546    23.8253  1950.0000    26.6289    87.2299    92.6726    79.8836    19.0691    87.5541 -8775.7676 10057.9932 15774.6191   126.0235     0.0000    54.1602    54.1602    94.7038     0.0000   117.9742   406.8998   119.4729     0.0259     0.0223     0.0288     0.0000     0.0243     0.0249     0.2570    14.5313    15.1404    -0.0212     0.0000  4297.5000     0.0221     0.0532
   8990.5000  1950.0000    12.9392   157.7554   205.8488   513.9661   167.1654    30.1173    43.6637    20.2276    19.3239  1950.0000    16.0158    68.0458    68.4935    73.0662    16.4521    65.5110 -8780.7119 10906.8096 16318.3174   126.0235     0.0000    56.3281    56.3281    94.4001     0.0000   110.6184   406.9210   108.4816     0.0184     0.0180     0.0287     0.0000     0.0221     0.0185     0.2235    15.4412    15.5005     0.0036     0.0000  4342.0000     0.0188     0.0479
   8991.0000  1950.0000     9.6767   113.5842   153.3017   397.4476    34.9158    14.8230    50.0824    22.7158    21.7579  1676.7970     9.2309    48.9980    87.6262    53.0973    16.6053    42.4068 -8782.5781 11344.7764 16837.2949   126.0235     0.0000    55.0781    55.0781    93.6239     0.0000   107.1222   406.9302   103.4290     0.0169     0.0170     0.0287     0.0000     0.0199     0.0149     0.2354    16.0547    15.9119    -0.0105     0.0000  4383.3335     0.0164     0.0466
   8991.5000  1950.0000     7.8009    83.7488   141.1097   311.5658    13.7513     5.6147    15.0417    14.8782    14.4888  1380.1833     6.1377    27.1312    20.8938    36.1661    12.3167    25.0865 -8751.0049 11805.3936 17154.3223   126.0235     0.0000    54.4922    54.4922   138.2941     0.0000   116.0200   406.9493   109.3509     0.0159     0.0154     0.0287     0.0000     0.0176     0.0155     0.4081    16.4844    16.2573    -0.0173     0.0000  4475.0005     0.0144     0.0447
   8992.0000  1950.0000     7.1536    74.9152   164.3480   272.4441    18.2168     2.6173     5.8336    12.4748    12.6969  1132.3785     3.9200    14.5946    21.7530    21.0923     9.7367    20.8378 -8749.2217 12776.8623 17511.7695   126.0235     0.0000    53.1348    53.1348   135.8340     0.0000   139.1906   406.9784   135.1750     0.0117     0.0105     0.0287     0.0000     0.0151     0.0142     0.4097    16.8750    16.5898    -0.0337     0.0000  4437.3335     0.0117     0.0387
   8992.5000  1950.0000     7.4664    83.3750   213.4590   262.0825    12.1511     2.3205     8.0214    11.1002    10.9669   959.7461     4.4410    27.6264    56.6181    47.8342     8.5416    15.3791 -8720.6826 13588.5732 18360.8633   126.0235     0.0000    53.7109    53.7109   133.0766     0.0000   164.1779   406.9803   171.9468     0.0033     0.0085     0.0286     0.0000     0.0120     0.0085     0.4027    16.8750    16.8746    -0.0266     0.0000  4353.0000     0.0087     0.0364
   8993.0000  1950.0000     8.7981   104.1828   302.0475   258.7253    10.3027     3.4005     6.3951    10.7153    10.5280  1950.0000     5.1099    42.0424    54.7869    54.9386     7.3004    13.8388 -8746.9082 14644.8564 18724.2246   126.0235     0.0000    65.0000    65.0000   133.1885     0.0000   175.8697   407.0168   184.3129     0.0040     0.0057     0.0286     0.0000     0.0110     0.0103     0.3437    17.0703    17.2463     0.0865     0.0000  4372.0000     0.0073     0.0330
   8993.5000  1950.0000    11.7421   128.2743   477.2120   261.3658     9.3224     3.9694    18.5426    11.0017    10.8232  1950.0000     6.3346    53.1653    83.9451    73.1146     6.8172    12.4244 -8744.7813 15118.1855 19893.0996   126.0235     0.0000    63.7891    63.7891   132.2321     0.0000   175.7130   407.0276   170.1237     0.0032     0.0071     0.0286     0.0000     0.0102     0.0034     0.3484    17.5000    17.6406     0.0763     0.0000  4318.5000     0.0063     0.0346
