~Version
 VERS              .         2.0                           : CWLS LOG ASCII STANDARD - VERSION 2.0
 WRAP              .         NO                            : ONE LINE PER DEPTH STEP
 DLM               .         SPACE                         : DELIMITING CHARACTER(SPACE TAB OR COMMA)
~Well Information
#_______________________________________________________________________________
#
#PARAMETER_NAME    .UNIT     VALUE                         : DESCRIPTION
#_______________________________________________________________________________
STRT               .ft       7493                          : First reference value
STOP               .ft       9543.25                       : Last reference value
STEP               .ft       0.25                          : Step increment
NULL               .         -9999                         : Missing value
COMP               .         University Of Utah            : Company
WELL               .         FORGE 78B-32                  : Well name
FLD                .         None                          : Field
LOC                .                                       : Location
CNTY               .         Beaver                        : County
STAT               .         Utah                          : State
CTRY               .         USA                           : Country
SRVC               .         Schlumberger                  : Service Company
DATE               .         19-Jul-2021                   : Date
API                .         NRC 42-00090-03               : API number
APD                .ft       29.5                          : Elevation of Depth Reference (LMF) Above Permanent Datum
BHS                .         OPEN                          : Borehole Status (Open or Cased Hole)
BHT                .degF     320.87                        : Bottom Hole Temperature
BLI                .ft       -999.25                       : Bottom Log Interval
BS                 .in       8.75                          : Bit Size
CBDR               .ft       2989                          : Casing Bottom of Driller
CBLO               .ft       2988                          : Logger Casing Shoe Depth
CSIZ               .in       11.75                         : Current Casing Size
CWEI               .lbm/ft   54                            : Casing Weight
DCS                .         19-Jul-2021                   : Date Circulation Stopped
DFD                .lbm/gal  8.3                           : Drilling Fluid Density
DFT                .         WATER                         : Drilling Fluid Type
DLAB               .         19-Jul-2021                   : Date Logger At Bottom
EDF                .ft       5536                          : Elevation of Drill Floor
EGL                .ft       5536                          : Elevation of Ground Level
EKB                .ft       5565.5                        : Elevation of Kelly Bushing
EPD                .ft       5536                          : Elevation of Permanent Datum (PDAT) above Mean Sea Level
LMF                .         KB                            : Logging Measured From (Name of Logging Elevation Reference)
LUL                .         F.Morgan                      : Logging Unit Location
LUN                .         9108                          : Logging Unit Number
LATI               .         38.500171 degrees             : Latitude
LONG               .         -112.88221 degrees            : Longitude
MCST               .degF     68                            : Mudcake Sample Temperature
MFST               .degF     68                            : Mud Filtrate Sample Temperature
MRT                .degF     321.43                        : Maximum Recorded Temperature
MST                .degF     68                            : Mud Sample Temperature
ORIGINALWELLNAME   .         FORGE 78B-32                  : 
PDAT               .         GL                            : Permanent Datum
PRODUCER-CODE      .         440                           : 
PRODUCER-NAME      .         Schlumberger                  : 
RMB                .ohm.m    0.04564156                    : Resistivity of Mud at Bottom Hole Temperature
RMCS               .ohm.m    -999.25                       : Resistivity of Mud Cake Sample
RMFS               .ohm.m    0.15                          : Resistivity of Mud Filtrate Sample
RMS                .ohm.m    0.2                           : Resistivity of Mud Sample
RUN                .         1A                            : Run Number
TCS                .         03_00_00                      : Time Circulation Stopped
TDD                .ft       8540                          : Driller Total Depth
TDL                .ft       8540                          : Logger Total Depth
TLAB               .         07_53_00                      : Time Logger At Bottom
TLI                .ft       -999.25                       : Top Log Interval
~Parameter Information Block
#_______________________________________________________________________________
#
#PARAMETER_NAME    .UNIT     VALUE                         : DESCRIPTION
#_______________________________________________________________________________
SET                .         QSLT                          : 
TLFamily_AT10      .         Resistivity - Induction Array 10: 
TLFamily_AT20      .         Resistivity - Induction Array 20: 
TLFamily_AT30      .         Resistivity - Induction Array 30: 
TLFamily_AT60      .         Resistivity - Induction Array 60: 
TLFamily_AT90      .         Resistivity - Induction Array 90: 
TLFamily_BS        .         Bit Size                      : 
TLFamily_DTCO_FINAL .         Compressional Slowness        : 
TLFamily_DTSH_FINAL .         Shear Slowness                : 
TLFamily_GR_STGC   .         Gamma Ray                     : 
TLFamily_HDAR      .         Borehole Diameter             : 
TLFamily_PR        .         Poisson Ratio (Dynamic)       : 
TLFamily_SPHI      .         Total Porosity                : 
TLFamily_TDEP      .         Measured Depth                : 
TLFamily_TENS      .         Tension                       : 
TLFamily_TNPH      .         Thermal Neutron Porosity      : 
TLFamily_VPVS      .         VpVs (Compressional To Shear) Ratio: 
~Curve Information
#_______________________________________________________________________________
#
#LOGNAME           .UNIT     LOG_ID                        : DESCRIPTION
#_______________________________________________________________________________
TDEP               .ft                                     : Measured Depth 
AT10               .ohm.m                                  : Array Induction Two Foot Resistivity A10 
AT20               .ohm.m                                  : Array Induction Two Foot Resistivity A20 
AT30               .ohm.m                                  : Array Induction Two Foot Resistivity A30 
AT60               .ohm.m                                  : Array Induction Two Foot Resistivity A60 
AT90               .ohm.m                                  : Array Induction Two Foot Resistivity A90 
BS                 .in                                     : Bit Size 
DTCO_FINAL         .us/ft                                  : Compressional Slowness 
DTSH_FINAL         .us/ft                                  : Shear Slowness 
GR_STGC            .gAPI                                   : Gamma Ray 
HDAR               .in                                     : Hole Diameter from Area 
PR                 .unitless                               : Possion's Ratio 
SPHI               .ft3/ft3                                : Total porosity from Sonic 
TENS               .lbf                                    : Cable Tension 
TNPH               .ft3/ft3                                : Thermal Neutron Porosity (Ratio Method) in Selected Lithology 
VPVS               .unitless                               : VpVs Ratio 
~Ascii
# ...
8171.5     0.2739951  1950       1950       4.730752   19.04103   10.625     53.90192   96.3603    70.6059    10.625     0.2722988  0.04524325 4049       0.04049964 1.787697  
8171.75    0.2817659  1950       1950       4.66383    16.28001   10.625     53.72701   96.52244   68.38614   10.625     0.2755369  0.0440071  4041.167   0.04278803 1.796535  
8172       0.2907629  1950       1950       4.635794   14.29157   10.625     53.53085   96.45691   66.16637   10.625     0.2774634  0.04262087 4033.333   0.04507642 1.801894  
8172.25    0.3008735  1950       1950       4.647865   12.86766   10.625     53.39771   96.16283   63.05916   10.625     0.2771007  0.04167995 4014.542   0.04710791 1.800879  
8172.5     0.312007   1950       1950       4.701607   11.87259   10.625     53.43385   95.68407   59.95194   10.625     0.2734083  0.04193533 3995.75    0.0491394  1.790702  
8172.75    0.3240661  1950       1950       4.798678   11.21979   10.625     53.6836    95.09942   57.93908   10.625     0.266152   0.04370034 3975.542   0.0546091  1.77148   
8173       0.3368968  1950       1950       4.940876   10.85791   10.625     54.07791   94.5052    55.92622   10.625     0.2565746  0.04648701 3955.333   0.0600788  1.747575  
8173.25    0.3502319  1950       1950       5.130413   10.76263   10.625     54.48474   94.00146   54.70872   10.625     0.2470394  0.04936213 3937       0.06505519 1.72528   
8173.5     0.3636317  1950       1950       5.369781   10.93051   10.625     54.80319   93.66228   53.49122   10.625     0.2397063  0.05161266 3918.667   0.07003158 1.709066  
8173.75    0.3764536  1950       1950       5.660712   11.38361   10.625     54.99915   93.52127   54.5155    10.625     0.2356461  0.05299755 3889.333   0.07248653 1.700413  
8174       0.3878773  1950       1950       6.002081   12.16887   10.625     55.04783   93.56359   55.53976   10.625     0.2352964  0.05334157 3860       0.07494149 1.699678  
8174.25    0.3970113  1950       1950       6.387102   13.36253   10.625     54.90814   93.73959   57.1417    10.625     0.238843   0.05235436 3846.167   0.07619713 1.707207  
8174.5     0.4030675  1950       1950       6.800183   15.07998   10.625     54.55546   93.98999   58.74363   10.625     0.2459552  0.04986189 3832.333   0.07745279 1.722834  
8174.75    0.4055672  1950       1950       7.21431    17.48909   10.625     54.02718   94.27281   60.31343   10.625     0.2554685  0.0461285  3832.833   0.07844608 1.744914  
8175       0.4044781  1950       1950       7.590651   20.82368   10.625     53.42617   94.57982   61.88323   10.625     0.2656902  0.04188106 3833.333   0.07943938 1.77029   
8175.25    0.4001846  1950       1950       7.883265   25.38869   10.625     52.87481   94.91415   62.04227   10.625     0.2750065  0.03798455 3830.667   0.07976534 1.795073  
8175.5     0.3933181  1950       1950       8.050653   31.52624   10.625     52.47659   95.26356   62.20131   10.625     0.2821833  0.03517027 3828       0.08009131 1.815353  
8175.75    0.3845695  1950       1950       8.070738   39.5069    10.625     52.28269   95.56753   61.7205    10.625     0.286436   0.03379992 3828.25    0.07789285 1.8279    
8176       0.3745682  1950       1950       7.950712   49.29618   10.625     52.27986   95.7319    61.2397    10.625     0.287513   0.03377991 3828.5     0.0756944  1.831143  
8176.25    0.3638538  1950       1950       7.724446   60.27155   10.625     52.40291   95.68168   59.515     10.625     0.2857623  0.03464953 3836.583   0.07431473 1.825885  
8176.5     0.3529087  1950       1950       7.439309   71.2278    10.625     52.57505   95.41734   57.79029   10.625     0.2820196  0.03586608 3844.667   0.07293507 1.814879  
8176.75    0.3422122  1950       1950       7.141315   80.94814   10.625     52.74659   95.02923   56.03725   10.625     0.277365   0.0370784  3834.833   0.07244618 1.801618  
8177       0.3322727  1950       1950       6.866      88.9428    10.625     52.9001    94.65696   54.28421   10.625     0.2729115  0.03816326 3825       0.07195729 1.789353  
8177.25    0.3236207  1950       1950       6.636178   95.68782   10.625     53.03236   94.42166   51.86197   10.625     0.2695869  0.03909792 3841.833   0.07454249 1.780454  
8177.5     0.3167693  1950       1950       6.463722   102.3586   10.625     53.12548   94.37679   49.43972   10.625     0.2680794  0.03975605 3858.667   0.07712769 1.776488  
8177.75    0.3121632  1950       1950       6.352372   110.4395   10.625     53.14492   94.50382   48.1457    10.625     0.2687431  0.0398934  3866.708   0.07785702 1.778229  
8178       0.3101286  1950       1950       6.300215   121.4594   10.625     53.06382   94.71829   46.85168   10.625     0.2712909  0.03932026 3874.75    0.07858635 1.784988  
8178.25    0.3108249  1950       1950       6.301652   136.9633   10.625     52.8806    94.90368   45.3979    10.625     0.2748631  0.03802544 3901.708   0.07934724 1.794679  
8178.5     0.3142003  1950       1950       6.34884    158.7278   10.625     52.61829   94.96227   43.94411   10.625     0.2784751  0.03617163 3928.667   0.08010813 1.804739  
8178.75    0.3199525  1950       1950       6.432483   189.3464   10.625     52.31572   94.86063   42.68676   10.625     0.281451   0.03403338 3965.333   0.08119541 1.813234  
8179       0.3274964  1950       1950       6.542023   233.245    10.625     52.02843   94.64983   41.42941   10.625     0.2834999  0.03200307 4002       0.08228271 1.819194  
8179.25    0.3359492  1950       1950       6.665951   295.619    10.625     51.81433   94.42843   40.33151   10.625     0.2846017  0.03049    4005       0.08435281 1.822438  
8179.5     0.3441845  1950       1950       6.79298    383.3725   10.625     51.69773   94.25615   39.2336    10.625     0.2848647  0.02966592 4008       0.08642292 1.823217  
8179.75    0.3510003  1950       1950       6.913839   499.1952   10.625     51.64804   94.09757   39.79048   10.625     0.2844196  0.02931478 4033.125   0.08819632 1.8219    
8180       0.3554052  1950       1950       7.022572   637.5638   10.625     51.61443   93.82983   40.34735   10.625     0.2830574  0.02907727 4058.25    0.08996972 1.817899  
8180.25    0.3569125  1950       1950       7.11652    787.0471   10.625     51.59416   93.33224   41.59626   10.625     0.2799653  0.02893401 4062.292   0.08763643 1.808969  
8180.5     0.3556893  1950       1950       7.195313   899.7528   10.625     51.64398   92.5853    42.84516   10.625     0.2741635  0.02928609 4066.333   0.08530314 1.792761  
8180.75    0.3524666  1950       1950       7.259724   936.101    10.625     51.82852   91.68954   45.23629   10.625     0.2652246  0.03059023 4069.167   0.08462723 1.769094  
8181       0.3482779  1950       1950       7.310815   869.7764   10.625     52.16652   90.80882   47.62742   10.625     0.2537197  0.03297893 4072       0.08395131 1.740749  
8181.25    0.3441665  1950       1950       7.349281   738.906    10.625     52.62514   90.10047   49.55537   10.625     0.2411137  0.03622005 4079.333   0.08471322 1.712119  
8181.5     0.3409833  1950       1950       7.375059   600.5958   10.625     53.14858   89.67334   51.48331   10.625     0.2292483  0.03991931 4086.667   0.08547513 1.68722   
8181.75    0.3393008  1950       1950       7.387506   483.1892   10.625     53.67316   89.55949   52.89748   10.625     0.2197709  0.04362655 4095.833   0.08331105 1.668609  
8182       0.3394023  1950       1950       7.386686   392.3482   10.625     54.12938   89.72907   54.31166   10.625     0.2139417  0.04685076 4105       0.08114696 1.657678  
8182.25    0.3413097  1950       1950       7.375192   326.0043   10.625     54.44277   90.12978   55.01001   10.625     0.2127536  0.04906553 4109.333   0.07884859 1.655496  
8182.5     0.3448297  1950       1950       7.359145   276.4406   10.625     54.55895   90.72118   55.70837   10.625     0.2167039  0.04988659 4113.667   0.07655021 1.66281   
8182.75    0.349603   1950       1950       7.347198   239.6015   10.625     54.47562   91.45968   57.67523   10.625     0.2250844  0.04929764 4100.667   0.07318182 1.67891   
