~VERSION INFORMATION
VERS.           1.2   :CWLS Log ASCII Standard - VERSION 1.2
WRAP.           NO    :One Line per depth step
PROD.  Schlumberger   :LAS Producer
PROG.  DLIS to ASCII 2.3                               :LAS Program name and version
CREA.        2021/07/30 13:36                          :LAS Creation date {YYYY/MM/DD hh:mm}
DLIS_CREA.  2021-Jul-30 07:07                          :DLIS Creation date and time {YYYY-MMM-DD hh:mm}
SOURCE.     dc707e3c-4962-4d77-8314-dc20fe7b42b8       :DLIS File Name
#--------------------------------------------------
~WELL INFORMATION
#MNEM.UNIT      DATA             DESCRIPTION
#---- ------ --------------   -----------------------------
STRT .F        8616.5000     :START DEPTH     
STOP .F        9518.5000     :STOP DEPTH     
STEP .F           0.5000       :STEP     
NULL .          -999.25      :NULL VALUE
COMP .                 COMPANY:  University Of Utah                 
WELL .                    WELL:  FORGE 78B-32                       
FLD  .                   FIELD:  None                               
LOC  .                LOCATION:  Lat: 38.500171, Long: -112.88221   
CNTY .                  COUNTY:  Beaver                             
STAT .                   STATE:  Utah                               
CTRY .                 COUNTRY:                                     
SRVC .         SERVICE COMPANY:  Schlumberger                       
LATI .DEG             LATITUDE:  38 30' 0.616" N                   
LONG .DEG            LONGITUDE:  112 52' 55.956" W                 
API  .              API NUMBER:  NRC 42-00090-03                    
DATE .                LOG DATE:  30-Jul-2021
UWI  .          UNIQUE WELL ID:                                     
#-----------------------------------------------------------------------------
~PARAMETER INFORMATION
#MNEM.UNIT    VALUE                      DESCRIPTION
#---- -----   --------------------       ------------------------
CN   .        University Of Utah         :Company Name
WN   .        FORGE 78B-32               :Well Name
FN   .        None                       :Field Name
FL   .        Lat  38.500171  Long  -112.88221 :Field Location
FL1  .                                   :Field Location, Line 1
COUN .        Beaver                     :County or Parish
STAT .        Utah                       :State or Province
NATI .                                   :Nation
DATE .        30-Jul-2021                :Tools Above Rotary Table Date
APIN .        NRC 42-00090-03            :API Well Number
SECT .                                   :Section
TOWN .                                   :Township
RANG .                                   :Range
DMF  .        KB                         :Drilling Measured From (Name of Drilling Elevation Reference)
LMF  .        KB                         :Logging Measured From (Name of Logging Elevation Reference)
PDAT .        GL                         :Permanent Datum
ENGI .        CSTILES                    :Engineer s Name
WITN .        Virgil  Welch              :Witness s Name
LATI .        38� 30' 0.616  N           :Latitude
LONG .        112� 52' 55.956  W         :Longitude
LUL  .        F.Morgan                   :Logging Unit Location
LUN  .        9108                       :Logging Unit Number
RUN  .        1B                         :Run Number
SON  .                                   :Service Order Number
BHT  .DEGF     419.00000                 :Bottom Hole Temperature
BS   .IN         5.75000                 :Bit Size
MDEN .G/C3       2.71000                 :Matrix Density for Density Porosity
DFD  .LB/G       8.30000                 :Drilling Fluid Density
DFV  .S         24.00000                 :Drilling Fluid Viscosity
DFL  .C3      -999.25000                 :Drilling Fluid Loss
RMFS .OHMM       4.42000                 :Resistivity of Mud Filtrate Sample
EKB  .F       5565.50000                 :Elevation of Kelly Bushing
EGL  .F       5536.00000                 :Elevation of Ground Level
BLI  .F       9532.00000                 :Bottom Log Interval
BSAL .PPM      700.00000                 :Borehole Salinity
FLEV .F          8.00000                 :Depth of Drilling Fluid Level to LMF (Log Measured From)
MCST .DEGF      62.00000                 :Mudcake Sample Temperature
MFST .DEGF      62.00000                 :Mud Filtrate Sample Temperature
MRT  .DEGF     419.00000                 :Maximum Recorded Temperature
MST  .DEGF      62.00000                 :Mud Sample Temperature
RMCS .OHMM       6.21000                 :Resistivity of Mud Cake Sample
RMS  .OHMM       5.20000                 :Resistivity of Mud Sample
RW   .OHMM       1.00000                 :Connate Water Resistivity
TDD  .F       9500.00000                 :Driller Total Depth
TDL  .F       9532.00000                 :Logger Total Depth
TLI  .F       8530.00000                 :Top Log Interval
HIDE .                                   :Header Identifier
MATR .        LIME                       :Rock Matrix for Neutron Porosity Corrections
FNUM .           1.00000                 :F-Numerator for Formation Factor Formula
FEXP .           2.00000                 :Exponent "m" for Formation Factor Formula
DFT  .        WATER                      :Drilling Fluid Type
DFPH .          11.00000                 :Drilling Fluid pH
MCSS .        Calculated                 :Mudcake Sample Source
MFSS .        Calculated                 :Mud Filtrate Sample Source
FD   .G/C3       1.00000                 :Fluid Density
MSS  .        Flowline                   :Mud Sample Source
OS1  .                                   :Other Services Line 1
OS2  .                                   :Other Services Line 2
OS3  .                                   :Other Services Line 3
OS4  .                                   :Other Services Line 4
OS5  .                                   :Other Services Line 5
R1   .                                   :Remarks Line 1
R2   .                                   :Remarks Line 2
R3   .                                   :Remarks Line 3
R4   .                                   :Remarks Line 4
R5   .                                   :Remarks Line 5
R6   .        Tool was run as per tool sketch :Remarks Line 6
R7   .        All logging intervals as per client request :Remarks Line 7
R8   .                                   :Remarks Line 8
TCS  .        20 00 00                   :Time Circulation Stopped
TLAB .        02 17 00                   :Time Logger At Bottom
NMT  .        NOBARITE                   :HRDD Mud Type for Nuclear Devices
EPD  .C3         5536.000000             :Elevation of Permanent Datum above Mean Sea Level
APD  .F          29.500000               :Elevation of Depth Reference (LMF) above Permanent Datum
#-----------------------------------------------------------------------------
~CURVE INFORMATION
#MNEM.UNIT   API CODE                                  DESCRIPTION
#---- -----  --------                                  -----------------------
DEPT .F                                                :DEPTH (BOREHOLE) {F12.4}
AF10 .OHMM                                             :Array Induction Four Foot Resistivity A10 {F11.4}
AF20 .OHMM                                             :Array Induction Four Foot Resistivity A20 {F11.4}
AF30 .OHMM                                             :Array Induction Four Foot Resistivity A30 {F11.4}
AF60 .OHMM                                             :Array Induction Four Foot Resistivity A60 {F11.4}
AF90 .OHMM                                             :Array Induction Four Foot Resistivity A90 {F11.4}
AO10 .OHMM                                             :Array Induction One Foot Resistivity A10 {F11.4}
AO20 .OHMM                                             :Array Induction One Foot Resistivity A20 {F11.4}
AO30 .OHMM                                             :Array Induction One Foot Resistivity A30 {F11.4}
AO60 .OHMM                                             :Array Induction One Foot Resistivity A60 {F11.4}
AO90 .OHMM                                             :Array Induction One Foot Resistivity A90 {F11.4}
AT10 .OHMM                                             :Array Induction Two Foot Resistivity A10 {F11.4}
AT20 .OHMM                                             :Array Induction Two Foot Resistivity A20 {F11.4}
AT30 .OHMM                                             :Array Induction Two Foot Resistivity A30 {F11.4}
AT60 .OHMM                                             :Array Induction Two Foot Resistivity A60 {F11.4}
AT90 .OHMM                                             :Array Induction Two Foot Resistivity A90 {F11.4}
AORT .OHMM                                             :Array Induction One Foot Rt {F11.4}
AORX .OHMM                                             :Array Induction One Foot Rxo {F11.4}
CDF  .LBF                                              :Calibrated Downhole Force {F11.4}
CFTC .HZ                                               :Corrected Far Thermal Count Rate {F11.4}
CNTC .HZ                                               :Corrected Near Thermal Count Rate {F11.4}
CTEM .DEGF                                             :Cartridge Temperature {F11.4}
DCAL .IN                                               :Differential Caliper {F11.4}
DT   .US/F                                             :Delta-T (also called Slowness or Interval Transit Time) {F11.4}
DTCO .US/F                                             :Delta-T Compressional {F11.4}
DTSM .US/F                                             :Delta-T Shear {F11.4}
ED   .F                                                :East Departure {F11.4}
GR_STGC.GAPI                                           :Gamma Ray {F11.4}
GTEM .DEGF                                             :Generalized Borehole Temperature {F11.4}
HGR_STGC.GAPI                                          :High Resolution Gamma Ray {F11.4}
HNPO .CFCF                                             :High Resolution Enhanced Thermal Neutron Porosity in Selected Lithology {F11.4}
HTNP .CFCF                                             :High Resolution Thermal Neutron Porosity (Ratio Method) in Selected Lithology {F11.4}
ITT  .S                                                :Integrated Transit Time {F11.4}
ND   .F                                                :North Departure {F11.4}
NPHI .CFCF                                             :Thermal Neutron Porosity (original Ratio Method) in Selected Lithology {F11.4}
NPOR .CFCF                                             :Enhanced Thermal Neutron Porosity in Selected Lithology {F11.4}
PR   .                                                 :Poisson s Ratio {F11.4}
SP   .MV                                               :Spontaneous Potential {F11.4}
SPAR .MV                                               :SP, Armor Return Compensated {F11.4}
SPHI .CFCF                                             :Sonic Porosity {F11.4}
STIT .F                                                :Stuck Tool Indicator, Total {F11.4}
TENS .LBF                                              :Cable Tension {F11.4}
TNPH .CFCF                                             :Thermal Neutron Porosity (Ratio Method) in Selected Lithology {F11.4}
HTNP_SAN.CFCF                                          :HiRes Thermal Neutron Porosity (matrix Sandstone) {F11.4}
#-----------------------------------------------------------------------------
# 
#      DEPT        AF10       AF20       AF30       AF60       AF90       AO10       AO20       AO30       AO60       AO90       AT10       AT20       AT30       AT60       AT90       AORT       AORX       CDF        CFTC       CNTC       CTEM       DCAL        DT        DTCO       DTSM        ED      GR_STGC      GTEM     HGR_STGC     HNPO       HTNP       ITT         ND        NPHI       NPOR        PR         SP        SPAR       SPHI       STIT       TENS       TNPH     HTNP_SAN
#
~A  
# ...
   8676.0000  1950.0000    86.0655   666.0963   672.2481  1950.0000  1950.0000    79.6390  1448.5134  1937.9873  1903.2783  1950.0000    93.9327   663.2203   506.2101   585.8204  1163.1975  1950.0000 -9687.9346  8228.8936 15421.0742   116.1412     0.0000    58.0469    58.0469    92.0247     0.0000    86.5224   388.6736    83.6854     0.0395     0.0397     0.0009     0.0000     0.0376     0.0345     0.1696    23.7500  -999.2500     0.0220     0.0000  3187.0000     0.0357     0.0751
   8676.5000  1950.0000    86.0655   666.0963   672.2481  1950.0000  1950.0000    79.6390  1448.5134  1937.9873  1903.2783  1950.0000    93.9327   663.2203   506.2101   585.8204  1163.1975  1950.0000 -9687.9346  9044.9658 15191.7051   116.1412     0.0000    42.1094    42.1094    92.2619     0.0000    85.4786   388.7471    88.0355     0.0290     0.0299     0.0009     0.0000     0.0363     0.0396     0.3684    23.7500  -999.2500    -0.2062     0.0000  3187.0000     0.0355     0.0627
   8677.0000  1950.0000    86.0655   666.0963   672.2481  1950.0000  1950.0000    79.6390  1448.5134  1937.9873  1903.2783  1950.0000    93.9327   663.2203   506.2101   585.8204  1163.1975  1950.0000 -9687.9346  8921.2490 15440.2129   116.1412     0.0000    47.5000    47.5000    92.6109     0.0000    84.1628   388.8252    83.8063     0.0349     0.0341     0.0010     0.0000     0.0331     0.0317     0.3215    23.7500  -999.2500    -0.1118     0.0000  3187.0000     0.0310     0.0680
   8677.5000  1950.0000    86.0655   666.0963   672.2481  1950.0000  1950.0000    79.6390  1448.5134  1937.9873  1903.2783  1950.0000    93.9327   663.2203   506.2101   585.8204  1163.1975  1950.0000 -9687.9346  9271.1953 15842.1680   116.1412     0.0000    47.5000    47.5000    92.1828     0.0000    81.7170   388.8550    79.4218     0.0271     0.0305     0.0010     0.0000     0.0336     0.0245     0.3193    23.7500  -999.2500    -0.1118     0.0000  3187.0000     0.0302     0.0635
   8678.0000  1950.0000    86.0655   666.0963   672.2481  1950.0000  1950.0000    79.6390  1448.5134  1937.9873  1903.2783  1950.0000    93.9327   663.2203   506.2101   585.8204  1163.1975  1950.0000 -9687.9346  9127.3652 15551.8594   116.1412     0.0000    47.5000    47.5000    92.2546     0.0000    81.3353   388.8367    81.2414     0.0370     0.0314     0.0010     0.0000     0.0308     0.0300     0.3196    23.7500  -999.2500    -0.1118     0.0000  3187.0000     0.0292     0.0646
   8678.5000  1950.0000    86.0655   666.0963   672.2481  1950.0000  1950.0000    79.6390  1448.5134  1937.9873  1903.2783  1950.0000    93.9327   663.2203   506.2101   585.8204  1163.1975  1950.0000 -9687.9346  9490.2012 15095.5176   116.1412     0.0000    61.0156    61.0156    93.1524     0.0000    81.4708   388.9470    83.8092     0.0330     0.0235     0.0010     0.0000     0.0328     0.0398     0.1243    23.7500  -999.2500     0.0514     0.0000  3187.0000     0.0314     0.0547
   8679.0000  1950.0000    86.0655   666.0963   672.2481  1950.0000  1950.0000    79.6390  1448.5134  1937.9873  1903.2783  1950.0000    93.9327   663.2203   506.2101   585.8204  1163.1975  1950.0000 -9687.9346  8893.8691 16081.5605   116.1412     0.0000    63.2031    63.2031    93.2411     0.0000    84.1875   389.0136    79.9646     0.0300     0.0355     0.0011     0.0000     0.0337     0.0245     0.0750    23.7500  -999.2500     0.0712     0.0000  3187.0000     0.0311     0.0698
   8679.5000  1950.0000    86.0655   666.0963   672.2481  1950.0000  1950.0000    79.6390  1448.5134  1937.9873  1903.2783  1950.0000    93.9327   663.2203   506.2101   585.8204  1163.1975  1950.0000 -9687.9346  9044.9258 15845.5820   116.1412     0.0000    67.5781    67.5781    92.5825     0.0000    85.8452   389.0204    89.1196     0.0438     0.0366     0.0011     0.0000     0.0365     0.0307  -999.2500    23.7500  -999.2500     0.1071     0.0000  3187.0000     0.0338     0.0713
   8680.0000  1950.0000    86.0655   666.0963   672.2481  1950.0000  1950.0000    79.6390  1448.5134  1937.9873  1903.2783  1950.0000    93.9327   663.2203   506.2101   585.8204  1163.1975  1950.0000 -9687.9346  8904.7939 15420.9961   116.1412     0.0000    72.5781    72.5781    91.0649     0.0000    89.9558   389.0665    88.2725     0.0406     0.0341     0.0011     0.0000     0.0371     0.0410  -999.2500    23.7500  -999.2500     0.1428     0.0000  3187.0000     0.0364     0.0680
   8680.5000  1950.0000    86.0655   666.0963   672.2481  1950.0000  1950.0000    79.6390  1448.5134  1937.9873  1903.2783  1950.0000    93.9327   663.2203   506.2101   585.8204  1163.1975  1950.0000 -9687.9346  8525.4893 15660.3721   116.1412     0.0000    76.9531    76.9531    90.6037     0.0000    92.4029   389.1055    90.8707     0.0383     0.0417     0.0012     0.0000     0.0392     0.0370  -999.2500    23.7500  -999.2500     0.1702     0.0000  3187.0000     0.0380     0.0777
   8681.0000  1950.0000    86.0655   666.0963   672.2481  1950.0000  1950.0000    79.6390  1448.5134  1937.9873  1903.2783  1950.0000    93.9327   663.2203   506.2101   585.8204  1163.1975  1950.0000 -9687.9346  8451.3105 15698.5938   116.1412     0.0000    78.5156    78.5156    89.8196     0.0000    95.2032   389.1560    95.6438     0.0412     0.0406     0.0012     0.0000     0.0401     0.0356  -999.2500    23.7500  -999.2500     0.1792     0.0000  3187.0000     0.0385     0.0763
   8681.5000  1950.0000    86.0655   666.0963   672.2481  1950.0000  1950.0000    79.6390  1448.5134  1937.9873  1903.2783  1950.0000    93.9327   663.2203   506.2101   585.8204  1163.1975  1950.0000 -9687.9346  8632.6611 15325.3369   116.1412     0.0000    77.8906    77.8906    89.5631     0.0000    97.0259   389.1974    96.2415     0.0363     0.0374     0.0013     0.0000     0.0384     0.0446  -999.2500    23.7500  -999.2500     0.1757     0.0000  3187.0000     0.0392     0.0722
   8682.0000  1950.0000    86.0655   666.0963   672.2481  1950.0000  1950.0000    79.6390  1448.5134  1937.9873  1903.2783  1950.0000    93.9327   663.2203   506.2101   585.8204  1163.1975  1950.0000 -9687.9346  8756.3887 15353.9883   116.1412     0.0000    76.6406    76.6406    89.5367     0.0000    98.7913   389.2134    97.8276     0.0369     0.0359     0.0013     0.0000     0.0381     0.0418  -999.2500    23.7500  -999.2500     0.1683     0.0000  3187.0000     0.0368     0.0703
   8682.5000  1950.0000    86.0655   666.0963   672.2481  1950.0000  1950.0000    79.6390  1448.5134  1937.9873  1903.2783  1950.0000    93.9327   663.2203   506.2101   585.8204  1163.1975  1950.0000 -9687.9346  8929.7959 16464.4453   116.1412     0.0000    76.6406    76.6406    89.3174     0.0000    99.4268   389.2870    99.7150     0.0303     0.0381     0.0013     0.0000     0.0374     0.0221  -999.2500    23.7500  -999.2500     0.1683     0.0000  3187.0000     0.0342     0.0732
   8683.0000  1950.0000    86.0655   666.0963   672.2481  1950.0000  1950.0000    79.6390  1448.5134  1937.9873  1903.2783  1950.0000    93.9327   663.2203   506.2101   585.8204  1163.1975  1950.0000 -9687.9346  8987.2090 15651.2656   116.1412     0.0000    77.2656    77.2656    89.5722     0.0000    99.1556   389.2916    99.9568     0.0383     0.0332     0.0014     0.0000     0.0358     0.0311  -999.2500    23.7500  -999.2500     0.1720     0.0000  3187.0000     0.0327     0.0669
   8683.5000  1950.0000    86.0655   666.0963   672.2481  1950.0000  1950.0000    79.6390  1448.5134  1937.9873  1903.2783  1950.0000    93.9327   663.2203   506.2101   585.8204  1163.1975  1950.0000 -9687.9346  9009.1328 15066.8184   116.1412     0.0000    78.2031    78.2031    89.6115     0.0000    97.4236   389.3582    96.5196     0.0292     0.0290     0.0014     0.0000     0.0327     0.0390  -999.2500    23.7500  -999.2500     0.1774     0.0000  3187.0000     0.0324     0.0617
   8684.0000  1950.0000    86.0655   666.0963   672.2481  1950.0000  1950.0000    79.6390  1448.5134  1937.9873  1903.2783  1950.0000    93.9327   663.2203   506.2101   585.8204  1163.1975  1950.0000 -9687.9346  8974.5771 15117.7666   116.1412     0.0000    78.7500    78.7500    89.6360     0.0000    96.6343   389.3881    96.7944     0.0335     0.0301     0.0015     0.0000     0.0342     0.0377  -999.2500    23.7500  -999.2500     0.1806     0.0000  3187.0000     0.0339     0.0629
