~VERSION INFORMATION
VERS.           1.2   :CWLS Log ASCII Standard - VERSION 1.2
WRAP.           NO    :One Line per depth step
PROD.  Schlumberger   :LAS Producer
PROG.  DLIS to ASCII 2.3                               :LAS Program name and version
CREA.        2021/07/30 13:36                          :LAS Creation date {YYYY/MM/DD hh:mm}
DLIS_CREA.  2021-Jul-30 07:07                          :DLIS Creation date and time {YYYY-MMM-DD hh:mm}
SOURCE.     dc707e3c-4962-4d77-8314-dc20fe7b42b8       :DLIS File Name
#--------------------------------------------------
~WELL INFORMATION
#MNEM.UNIT      DATA             DESCRIPTION
#---- ------ --------------   -----------------------------
STRT .F        8616.5000     :START DEPTH     
STOP .F        9518.5000     :STOP DEPTH     
STEP .F           0.5000       :STEP     
NULL .          -999.25      :NULL VALUE
COMP .                 COMPANY:  University Of Utah                 
WELL .                    WELL:  FORGE 78B-32                       
FLD  .                   FIELD:  None                               
LOC  .                LOCATION:  Lat: 38.500171, Long: -112.88221   
CNTY .                  COUNTY:  Beaver                             
STAT .                   STATE:  Utah                               
CTRY .                 COUNTRY:                                     
SRVC .         SERVICE COMPANY:  Schlumberger                       
LATI .DEG             LATITUDE:  38 30' 0.616" N                   
LONG .DEG            LONGITUDE:  112 52' 55.956" W                 
API  .              API NUMBER:  NRC 42-00090-03                    
DATE .                LOG DATE:  30-Jul-2021
UWI  .          UNIQUE WELL ID:                                     
#-----------------------------------------------------------------------------
~PARAMETER INFORMATION
#MNEM.UNIT    VALUE                      DESCRIPTION
#---- -----   --------------------       ------------------------
CN   .        University Of Utah         :Company Name
WN   .        FORGE 78B-32               :Well Name
FN   .        None                       :Field Name
FL   .        Lat  38.500171  Long  -112.88221 :Field Location
FL1  .                                   :Field Location, Line 1
COUN .        Beaver                     :County or Parish
STAT .        Utah                       :State or Province
NATI .                                   :Nation
DATE .        30-Jul-2021                :Tools Above Rotary Table Date
APIN .        NRC 42-00090-03            :API Well Number
SECT .                                   :Section
TOWN .                                   :Township
RANG .                                   :Range
DMF  .        KB                         :Drilling Measured From (Name of Drilling Elevation Reference)
LMF  .        KB                         :Logging Measured From (Name of Logging Elevation Reference)
PDAT .        GL                         :Permanent Datum
ENGI .        CSTILES                    :Engineer s Name
WITN .        Virgil  Welch              :Witness s Name
LATI .        38� 30' 0.616  N           :Latitude
LONG .        112� 52' 55.956  W         :Longitude
LUL  .        F.Morgan                   :Logging Unit Location
LUN  .        9108                       :Logging Unit Number
RUN  .        1B                         :Run Number
SON  .                                   :Service Order Number
BHT  .DEGF     419.00000                 :Bottom Hole Temperature
BS   .IN         5.75000                 :Bit Size
MDEN .G/C3       2.71000                 :Matrix Density for Density Porosity
DFD  .LB/G       8.30000                 :Drilling Fluid Density
DFV  .S         24.00000                 :Drilling Fluid Viscosity
DFL  .C3      -999.25000                 :Drilling Fluid Loss
RMFS .OHMM       4.42000                 :Resistivity of Mud Filtrate Sample
EKB  .F       5565.50000                 :Elevation of Kelly Bushing
EGL  .F       5536.00000                 :Elevation of Ground Level
BLI  .F       9532.00000                 :Bottom Log Interval
BSAL .PPM      700.00000                 :Borehole Salinity
FLEV .F          8.00000                 :Depth of Drilling Fluid Level to LMF (Log Measured From)
MCST .DEGF      62.00000                 :Mudcake Sample Temperature
MFST .DEGF      62.00000                 :Mud Filtrate Sample Temperature
MRT  .DEGF     419.00000                 :Maximum Recorded Temperature
MST  .DEGF      62.00000                 :Mud Sample Temperature
RMCS .OHMM       6.21000                 :Resistivity of Mud Cake Sample
RMS  .OHMM       5.20000                 :Resistivity of Mud Sample
RW   .OHMM       1.00000                 :Connate Water Resistivity
TDD  .F       9500.00000                 :Driller Total Depth
TDL  .F       9532.00000                 :Logger Total Depth
TLI  .F       8530.00000                 :Top Log Interval
HIDE .                                   :Header Identifier
MATR .        LIME                       :Rock Matrix for Neutron Porosity Corrections
FNUM .           1.00000                 :F-Numerator for Formation Factor Formula
FEXP .           2.00000                 :Exponent "m" for Formation Factor Formula
DFT  .        WATER                      :Drilling Fluid Type
DFPH .          11.00000                 :Drilling Fluid pH
MCSS .        Calculated                 :Mudcake Sample Source
MFSS .        Calculated                 :Mud Filtrate Sample Source
FD   .G/C3       1.00000                 :Fluid Density
MSS  .        Flowline                   :Mud Sample Source
OS1  .                                   :Other Services Line 1
OS2  .                                   :Other Services Line 2
OS3  .                                   :Other Services Line 3
OS4  .                                   :Other Services Line 4
OS5  .                                   :Other Services Line 5
R1   .                                   :Remarks Line 1
R2   .                                   :Remarks Line 2
R3   .                                   :Remarks Line 3
R4   .                                   :Remarks Line 4
R5   .                                   :Remarks Line 5
R6   .        Tool was run as per tool sketch :Remarks Line 6
R7   .        All logging intervals as per client request :Remarks Line 7
R8   .                                   :Remarks Line 8
TCS  .        20 00 00                   :Time Circulation Stopped
TLAB .        02 17 00                   :Time Logger At Bottom
NMT  .        NOBARITE                   :HRDD Mud Type for Nuclear Devices
EPD  .C3         5536.000000             :Elevation of Permanent Datum above Mean Sea Level
APD  .F          29.500000               :Elevation of Depth Reference (LMF) above Permanent Datum
#-----------------------------------------------------------------------------
~CURVE INFORMATION
#MNEM.UNIT   API CODE                                  DESCRIPTION
#---- -----  --------                                  -----------------------
DEPT .F                                                :DEPTH (BOREHOLE) {F12.4}
AF10 .OHMM                                             :Array Induction Four Foot Resistivity A10 {F11.4}
AF20 .OHMM                                             :Array Induction Four Foot Resistivity A20 {F11.4}
AF30 .OHMM                                             :Array Induction Four Foot Resistivity A30 {F11.4}
AF60 .OHMM                                             :Array Induction Four Foot Resistivity A60 {F11.4}
AF90 .OHMM                                             :Array Induction Four Foot Resistivity A90 {F11.4}
AO10 .OHMM                                             :Array Induction One Foot Resistivity A10 {F11.4}
AO20 .OHMM                                             :Array Induction One Foot Resistivity A20 {F11.4}
AO30 .OHMM                                             :Array Induction One Foot Resistivity A30 {F11.4}
AO60 .OHMM                                             :Array Induction One Foot Resistivity A60 {F11.4}
AO90 .OHMM                                             :Array Induction One Foot Resistivity A90 {F11.4}
AT10 .OHMM                                             :Array Induction Two Foot Resistivity A10 {F11.4}
AT20 .OHMM                                             :Array Induction Two Foot Resistivity A20 {F11.4}
AT30 .OHMM                                             :Array Induction Two Foot Resistivity A30 {F11.4}
AT60 .OHMM                                             :Array Induction Two Foot Resistivity A60 {F11.4}
AT90 .OHMM                                             :Array Induction Two Foot Resistivity A90 {F11.4}
AORT .OHMM                                             :Array Induction One Foot Rt {F11.4}
AORX .OHMM                                             :Array Induction One Foot Rxo {F11.4}
CDF  .LBF                                              :Calibrated Downhole Force {F11.4}
CFTC .HZ                                               :Corrected Far Thermal Count Rate {F11.4}
CNTC .HZ                                               :Corrected Near Thermal Count Rate {F11.4}
CTEM .DEGF                                             :Cartridge Temperature {F11.4}
DCAL .IN                                               :Differential Caliper {F11.4}
DT   .US/F                                             :Delta-T (also called Slowness or Interval Transit Time) {F11.4}
DTCO .US/F                                             :Delta-T Compressional {F11.4}
DTSM .US/F                                             :Delta-T Shear {F11.4}
ED   .F                                                :East Departure {F11.4}
GR_STGC.GAPI                                           :Gamma Ray {F11.4}
GTEM .DEGF                                             :Generalized Borehole Temperature {F11.4}
HGR_STGC.GAPI                                          :High Resolution Gamma Ray {F11.4}
HNPO .CFCF                                             :High Resolution Enhanced Thermal Neutron Porosity in Selected Lithology {F11.4}
HTNP .CFCF                                             :High Resolution Thermal Neutron Porosity (Ratio Method) in Selected Lithology {F11.4}
ITT  .S                                                :Integrated Transit Time {F11.4}
ND   .F                                                :North Departure {F11.4}
NPHI .CFCF                                             :Thermal Neutron Porosity (original Ratio Method) in Selected Lithology {F11.4}
NPOR .CFCF                                             :Enhanced Thermal Neutron Porosity in Selected Lithology {F11.4}
PR   .                                                 :Poisson s Ratio {F11.4}
SP   .MV                                               :Spontaneous Potential {F11.4}
SPAR .MV                                               :SP, Armor Return Compensated {F11.4}
SPHI .CFCF                                             :Sonic Porosity {F11.4}
STIT .F                                                :Stuck Tool Indicator, Total {F11.4}
TENS .LBF                                              :Cable Tension {F11.4}
TNPH .CFCF                                             :Thermal Neutron Porosity (Ratio Method) in Selected Lithology {F11.4}
HTNP_SAN.CFCF                                          :HiRes Thermal Neutron Porosity (matrix Sandstone) {F11.4}
#-----------------------------------------------------------------------------
# 
#      DEPT        AF10       AF20       AF30       AF60       AF90       AO10       AO20       AO30       AO60       AO90       AT10       AT20       AT30       AT60       AT90       AORT       AORX       CDF        CFTC       CNTC       CTEM       DCAL        DT        DTCO       DTSM        ED      GR_STGC      GTEM     HGR_STGC     HNPO       HTNP       ITT         ND        NPHI       NPOR        PR         SP        SPAR       SPHI       STIT       TENS       TNPH     HTNP_SAN
#
~A  
# ...
   9271.0000  1950.0000    65.2429  1673.2200   165.5915   657.4702  1950.0000    29.3513    28.3953    18.1177    17.7988  1950.0000    66.4368   463.7037   105.3311   138.5893    17.5102  1684.1619 -9630.8516 10273.8496 17248.7969   116.1412     0.0000   115.5469   115.5469   150.4870     0.0000   106.5845   412.3968   106.3164     0.0286     0.0241     0.0601     0.0000     0.0289     0.0183  -999.2500    67.5000    67.1999     0.3221     0.0000  3139.0000     0.0254     0.0554
   9271.5000  1950.0000    48.8032  1600.0638   156.3171   594.8797  1950.0000    35.5910    57.3744    29.0579    28.2462  1950.0000    42.4511   957.8161   100.2963   124.4391    28.1750  1488.1147 -9576.3174  9794.9395 16771.3477   116.1412     0.0000   110.5859   110.5859   154.1091     0.0000   105.4949   412.4752   106.8527     0.0340     0.0315     0.0602     0.0000     0.0309     0.0268     0.0412    67.1875    67.1728     0.3085     0.0000  3129.0000     0.0273     0.0647
   9272.0000  1950.0000    38.5203  1629.8197   147.8952   523.5646  1950.0000    25.9168    96.4259    39.2745    37.7244  1950.0000    32.0454   889.9301    82.6232   100.2561    34.8077  1300.8999 -9572.0518 10488.1289 16961.6348   116.1412     0.0000   110.5859   110.5859   160.3972     0.0000   103.4558   412.4429   104.0648     0.0209     0.0240     0.0602     0.0000     0.0290     0.0238     0.0470    66.8750    67.1803     0.3085     0.0000  3133.0000     0.0273     0.0554
   9272.5000  1950.0000    32.4114  1675.1277   167.2430   560.8257  1950.0000    20.5039   172.4176    41.3839    38.9976  1950.0000    26.0596   913.9733    96.7777   109.0010    37.4745  1183.9993 -9607.6719 10191.0410 16120.2471   116.1412     0.0000   105.7324   105.7324  -999.2500     0.0000   100.7242   412.4521   100.8800     0.0266     0.0239     0.0603     0.0000     0.0286     0.0347  -999.2500    66.8750    67.2536     0.2940     0.0000  3145.0000     0.0275     0.0552
   9273.0000  1950.0000    28.9716  1698.6467   194.6456   687.9413  1950.0000    18.7931   267.6378    89.1293    82.1829  1950.0000    23.1018   886.5825   116.2316   126.5479    59.9173   824.9273 -9634.8330  9663.5898 16349.5889   116.1412     0.0000    93.6816    93.6816  -999.2500     0.0000    97.1833   412.5098    98.5854     0.0272     0.0273     0.0603     0.0000     0.0305     0.0323  -999.2500    66.8750    67.3476     0.2514     0.0000  3151.0000     0.0290     0.0595
   9273.5000  1950.0000    27.3231  1657.5060   237.5896   838.6157  1950.0000    19.1588   278.3234   152.9818   139.0016  1950.0000    22.0529   828.5358   135.4876   135.2980    65.9206  1097.2515 -9635.8281  9976.3271 17077.5059   116.1412     0.0000    84.1406    84.1406  -999.2500     0.0000    95.8872   412.5259    91.7031     0.0340     0.0303     0.0604     0.0000     0.0343     0.0193  -999.2500    67.5000    67.4923     0.2090     0.0000  3158.0000     0.0300     0.0632
   9274.0000  1950.0000    26.9242  1507.8158   310.0239  1029.3562  1950.0000    20.2332   299.0659   240.2491   210.0220  1950.0000    21.7123   720.5897   165.5386   146.6289    88.9009   837.7759 -9559.3955  9267.9033 16483.0332   116.1412     0.0000    76.8490    76.8490  -999.2500     0.0000    95.6308   412.5305    94.4828     0.0384     0.0352     0.0604     0.0000     0.0305     0.0249  -999.2500    67.8125    67.9950     0.1696     0.0000  3155.0000     0.0280     0.0694
   9274.5000  1950.0000    27.4049  1272.0685   428.4307  1212.0023  1950.0000    22.5064   444.5038   343.0874   299.4020  1950.0000    23.8203   725.6312   228.9286   182.0383   104.8008  1267.7810 -9556.6943 10157.7148 15201.4277   116.1412     0.0000    74.3750    74.3750  -999.2500     0.0000    97.7980   412.4706    97.2666     0.0315     0.0219     0.0605     0.0000     0.0300     0.0458  -999.2500    68.1250    68.2489     0.1544     0.0000  3152.0000     0.0302     0.0528
   9275.0000  1950.0000    28.6454  1013.8189   585.8776  1277.8185  1950.0000    25.4591   634.8030   396.9905   354.7003  1950.0000    26.0051   770.1788   316.1596   224.4553   121.7133   984.5153 -9586.9824  9548.1553 16081.0088   116.1412     0.0000    78.3594    78.3594  -999.2500     0.0000    98.6169   412.5398    98.3293     0.0287     0.0294     0.0605     0.0000     0.0284     0.0286  -999.2500    68.1250    68.5571     0.1783     0.0000  3167.0002     0.0272     0.0621
   9275.5000  1950.0000    29.7528   789.4900   723.8887  1182.1034  1950.0000    27.7295   683.8086   335.8274   304.0486  1950.0000    28.5221   754.9017   418.5268   264.1510   125.5576  1291.0951 -9634.3350  9828.2393 16694.6035   116.1412     0.0000    83.6719    83.6719  -999.2500     0.0000    98.3612   412.5813    99.1610     0.0290     0.0316     0.0605     0.0000     0.0325     0.0227  -999.2500    68.7500    68.9165     0.2067     0.0000  3171.0000     0.0292     0.0648
   9276.0000  1950.0000    31.5502   623.2119   720.8777  1014.5334  1950.0000    31.6524   537.5914   395.9488   369.9671  1950.0000    31.6716   701.9571   469.1366   283.6609   132.4296  1430.7030 -9633.9629  9630.0420 16454.8789   116.1412     0.0000    88.1250    88.1250  -999.2500     0.0000    98.1071   412.5467    97.0491     0.0314     0.0292     0.0606     0.0000     0.0341     0.0317  -999.2500    69.0625    69.5877     0.2278     0.0000  3162.0002     0.0318     0.0618
   9276.5000  1950.0000    33.7068   514.8714   594.8115   784.7582  1950.0000    37.4931   423.5963   441.7363   422.2747  1950.0000    36.2896   620.0806   421.9002   271.8227   147.0335  1261.8549 -9594.7314  9383.2471 16540.4668   116.1412     0.0000    93.2422    93.2422  -999.2500     0.0000    96.2295   412.5721    97.8237     0.0346     0.0344     0.0606     0.0000     0.0370     0.0356  -999.2500    70.0000    70.0323     0.2496     0.0000  3162.0002     0.0360     0.0684
   9277.0000  1950.0000    36.0541   450.0166   469.2118   578.8826  1950.0000    40.0205   314.5561   457.8685   451.2899  1950.0000    39.2051   538.0977   335.2270   256.1006   156.3695  1609.5348 -9584.4229  8921.5938 16484.0059   116.1412     0.0000    95.2344    95.2344  -999.2500     0.0000    94.0386   412.5352    94.3844     0.0413     0.0413     0.0607     0.0000     0.0376     0.0393  -999.2500    70.6250    70.5079     0.2575     0.0000  3172.4998     0.0377     0.0771
   9277.5000  1950.0000    38.6941   417.0395   385.4721   424.7604  1950.0000    42.7595   293.6789   392.3379   397.3913  1950.0000    43.6030   501.0636   275.1313   227.0377   178.7379  1567.0585 -9594.9453  9415.6748 16369.2959   116.1412     0.0000    91.7578    91.7578  -999.2500     0.0000    90.2326   412.5813    91.5651     0.0374     0.0350     0.0607     0.0000     0.0397     0.0404  -999.2500    71.2500    71.3106     0.2436     0.0000  3165.0002     0.0380     0.0692
   9278.0000  1950.0000    41.6838   406.1119   347.6815   316.1112  1950.0000    56.0489   466.5907   459.9834   475.4128  1950.0000    51.3745   512.7567   253.0960   213.9532   203.4786  1450.2366 -9636.3613  9201.5742 17153.0762   116.1412     0.0000    88.2813    88.2813  -999.2500     0.0000    87.2358   412.6136    87.7625     0.0367     0.0408     0.0608     0.0000     0.0361     0.0252  -999.2500    71.8750    71.8239     0.2285     0.0000  3154.0000     0.0341     0.0766
   9278.5000  1950.0000    44.8747   409.3929   343.3595   245.1956  1950.0000    65.4400   685.0943   380.9623   407.0397  1950.0000    58.9622   555.7814   259.1896   212.0116   217.1127  1652.7255 -9636.6104  9680.1758 16138.9238   116.1412     0.0000    88.2813    88.2813  -999.2500     0.0000    86.1175   412.6136    85.3520     0.0326     0.0330     0.0608     0.0000     0.0351     0.0427  -999.2500    72.8125    72.3450     0.2285     0.0000  3162.0002     0.0351     0.0666
   9279.0000  1950.0000    49.0557   421.3297   371.9941   200.1048  1950.0000    79.0702   803.2751   449.8896   486.9754  1950.0000    71.8282   638.7666   299.9266   215.0654   255.8726  1692.9485 -9599.7090  9597.0625 16196.9873   116.1412     0.0000    85.6738    85.6738  -999.2500     0.0000    85.5723   412.5951    86.3562     0.0301     0.0285     0.0609     0.0000     0.0343     0.0428  -999.2500    73.7500    72.8687     0.2165     0.0000  3156.0000     0.0343     0.0610
