~VERSION INFORMATION
VERS.           1.2   :CWLS Log ASCII Standard - VERSION 1.2
WRAP.           NO    :One Line per depth step
PROD.  Schlumberger   :LAS Producer
PROG.  DLIS to ASCII 2.3                               :LAS Program name and version
CREA.        2021/07/30 13:36                          :LAS Creation date {YYYY/MM/DD hh:mm}
DLIS_CREA.  2021-Jul-30 07:07                          :DLIS Creation date and time {YYYY-MMM-DD hh:mm}
SOURCE.     dc707e3c-4962-4d77-8314-dc20fe7b42b8       :DLIS File Name
#--------------------------------------------------
~WELL INFORMATION
#MNEM.UNIT      DATA             DESCRIPTION
#---- ------ --------------   -----------------------------
STRT .F        8616.5000     :START DEPTH     
STOP .F        9518.5000     :STOP DEPTH     
STEP .F           0.5000       :STEP     
NULL .          -999.25      :NULL VALUE
COMP .                 COMPANY:  University Of Utah                 
WELL .                    WELL:  FORGE 78B-32                       
FLD  .                   FIELD:  None                               
LOC  .                LOCATION:  Lat: 38.500171, Long: -112.88221   
CNTY .                  COUNTY:  Beaver                             
STAT .                   STATE:  Utah                               
CTRY .                 COUNTRY:                                     
SRVC .         SERVICE COMPANY:  Schlumberger                       
LATI .DEG             LATITUDE:  38 30' 0.616" N                   
LONG .DEG            LONGITUDE:  112 52' 55.956" W                 
API  .              API NUMBER:  NRC 42-00090-03                    
DATE .                LOG DATE:  30-Jul-2021
UWI  .          UNIQUE WELL ID:                                     
#-----------------------------------------------------------------------------
~PARAMETER INFORMATION
#MNEM.UNIT    VALUE                      DESCRIPTION
#---- -----   --------------------       ------------------------
CN   .        University Of Utah         :Company Name
WN   .        FORGE 78B-32               :Well Name
FN   .        None                       :Field Name
FL   .        Lat  38.500171  Long  -112.88221 :Field Location
FL1  .                                   :Field Location, Line 1
COUN .        Beaver                     :County or Parish
STAT .        Utah                       :State or Province
NATI .                                   :Nation
DATE .        30-Jul-2021                :Tools Above Rotary Table Date
APIN .        NRC 42-00090-03            :API Well Number
SECT .                                   :Section
TOWN .                                   :Township
RANG .                                   :Range
DMF  .        KB                         :Drilling Measured From (Name of Drilling Elevation Reference)
LMF  .        KB                         :Logging Measured From (Name of Logging Elevation Reference)
PDAT .        GL                         :Permanent Datum
ENGI .        CSTILES                    :Engineer s Name
WITN .        Virgil  Welch              :Witness s Name
LATI .        38� 30' 0.616  N           :Latitude
LONG .        112� 52' 55.956  W         :Longitude
LUL  .        F.Morgan                   :Logging Unit Location
LUN  .        9108                       :Logging Unit Number
RUN  .        1B                         :Run Number
SON  .                                   :Service Order Number
BHT  .DEGF     419.00000                 :Bottom Hole Temperature
BS   .IN         5.75000                 :Bit Size
MDEN .G/C3       2.71000                 :Matrix Density for Density Porosity
DFD  .LB/G       8.30000                 :Drilling Fluid Density
DFV  .S         24.00000                 :Drilling Fluid Viscosity
DFL  .C3      -999.25000                 :Drilling Fluid Loss
RMFS .OHMM       4.42000                 :Resistivity of Mud Filtrate Sample
EKB  .F       5565.50000                 :Elevation of Kelly Bushing
EGL  .F       5536.00000                 :Elevation of Ground Level
BLI  .F       9532.00000                 :Bottom Log Interval
BSAL .PPM      700.00000                 :Borehole Salinity
FLEV .F          8.00000                 :Depth of Drilling Fluid Level to LMF (Log Measured From)
MCST .DEGF      62.00000                 :Mudcake Sample Temperature
MFST .DEGF      62.00000                 :Mud Filtrate Sample Temperature
MRT  .DEGF     419.00000                 :Maximum Recorded Temperature
MST  .DEGF      62.00000                 :Mud Sample Temperature
RMCS .OHMM       6.21000                 :Resistivity of Mud Cake Sample
RMS  .OHMM       5.20000                 :Resistivity of Mud Sample
RW   .OHMM       1.00000                 :Connate Water Resistivity
TDD  .F       9500.00000                 :Driller Total Depth
TDL  .F       9532.00000                 :Logger Total Depth
TLI  .F       8530.00000                 :Top Log Interval
HIDE .                                   :Header Identifier
MATR .        LIME                       :Rock Matrix for Neutron Porosity Corrections
FNUM .           1.00000                 :F-Numerator for Formation Factor Formula
FEXP .           2.00000                 :Exponent "m" for Formation Factor Formula
DFT  .        WATER                      :Drilling Fluid Type
DFPH .          11.00000                 :Drilling Fluid pH
MCSS .        Calculated                 :Mudcake Sample Source
MFSS .        Calculated                 :Mud Filtrate Sample Source
FD   .G/C3       1.00000                 :Fluid Density
MSS  .        Flowline                   :Mud Sample Source
OS1  .                                   :Other Services Line 1
OS2  .                                   :Other Services Line 2
OS3  .                                   :Other Services Line 3
OS4  .                                   :Other Services Line 4
OS5  .                                   :Other Services Line 5
R1   .                                   :Remarks Line 1
R2   .                                   :Remarks Line 2
R3   .                                   :Remarks Line 3
R4   .                                   :Remarks Line 4
R5   .                                   :Remarks Line 5
R6   .        Tool was run as per tool sketch :Remarks Line 6
R7   .        All logging intervals as per client request :Remarks Line 7
R8   .                                   :Remarks Line 8
TCS  .        20 00 00                   :Time Circulation Stopped
TLAB .        02 17 00                   :Time Logger At Bottom
NMT  .        NOBARITE                   :HRDD Mud Type for Nuclear Devices
EPD  .C3         5536.000000             :Elevation of Permanent Datum above Mean Sea Level
APD  .F          29.500000               :Elevation of Depth Reference (LMF) above Permanent Datum
#-----------------------------------------------------------------------------
~CURVE INFORMATION
#MNEM.UNIT   API CODE                                  DESCRIPTION
#---- -----  --------                                  -----------------------
DEPT .F                                                :DEPTH (BOREHOLE) {F12.4}
AF10 .OHMM                                             :Array Induction Four Foot Resistivity A10 {F11.4}
AF20 .OHMM                                             :Array Induction Four Foot Resistivity A20 {F11.4}
AF30 .OHMM                                             :Array Induction Four Foot Resistivity A30 {F11.4}
AF60 .OHMM                                             :Array Induction Four Foot Resistivity A60 {F11.4}
AF90 .OHMM                                             :Array Induction Four Foot Resistivity A90 {F11.4}
AO10 .OHMM                                             :Array Induction One Foot Resistivity A10 {F11.4}
AO20 .OHMM                                             :Array Induction One Foot Resistivity A20 {F11.4}
AO30 .OHMM                                             :Array Induction One Foot Resistivity A30 {F11.4}
AO60 .OHMM                                             :Array Induction One Foot Resistivity A60 {F11.4}
AO90 .OHMM                                             :Array Induction One Foot Resistivity A90 {F11.4}
AT10 .OHMM                                             :Array Induction Two Foot Resistivity A10 {F11.4}
AT20 .OHMM                                             :Array Induction Two Foot Resistivity A20 {F11.4}
AT30 .OHMM                                             :Array Induction Two Foot Resistivity A30 {F11.4}
AT60 .OHMM                                             :Array Induction Two Foot Resistivity A60 {F11.4}
AT90 .OHMM                                             :Array Induction Two Foot Resistivity A90 {F11.4}
AORT .OHMM                                             :Array Induction One Foot Rt {F11.4}
AORX .OHMM                                             :Array Induction One Foot Rxo {F11.4}
CDF  .LBF                                              :Calibrated Downhole Force {F11.4}
CFTC .HZ                                               :Corrected Far Thermal Count Rate {F11.4}
CNTC .HZ                                               :Corrected Near Thermal Count Rate {F11.4}
CTEM .DEGF                                             :Cartridge Temperature {F11.4}
DCAL .IN                                               :Differential Caliper {F11.4}
DT   .US/F                                             :Delta-T (also called Slowness or Interval Transit Time) {F11.4}
DTCO .US/F                                             :Delta-T Compressional {F11.4}
DTSM .US/F                                             :Delta-T Shear {F11.4}
ED   .F                                                :East Departure {F11.4}
GR_STGC.GAPI                                           :Gamma Ray {F11.4}
GTEM .DEGF                                             :Generalized Borehole Temperature {F11.4}
HGR_STGC.GAPI                                          :High Resolution Gamma Ray {F11.4}
HNPO .CFCF                                             :High Resolution Enhanced Thermal Neutron Porosity in Selected Lithology {F11.4}
HTNP .CFCF                                             :High Resolution Thermal Neutron Porosity (Ratio Method) in Selected Lithology {F11.4}
ITT  .S                                                :Integrated Transit Time {F11.4}
ND   .F                                                :North Departure {F11.4}
NPHI .CFCF                                             :Thermal Neutron Porosity (original Ratio Method) in Selected Lithology {F11.4}
NPOR .CFCF                                             :Enhanced Thermal Neutron Porosity in Selected Lithology {F11.4}
PR   .                                                 :Poisson s Ratio {F11.4}
SP   .MV                                               :Spontaneous Potential {F11.4}
SPAR .MV                                               :SP, Armor Return Compensated {F11.4}
SPHI .CFCF                                             :Sonic Porosity {F11.4}
STIT .F                                                :Stuck Tool Indicator, Total {F11.4}
TENS .LBF                                              :Cable Tension {F11.4}
TNPH .CFCF                                             :Thermal Neutron Porosity (Ratio Method) in Selected Lithology {F11.4}
HTNP_SAN.CFCF                                          :HiRes Thermal Neutron Porosity (matrix Sandstone) {F11.4}
#-----------------------------------------------------------------------------
# 
#      DEPT        AF10       AF20       AF30       AF60       AF90       AO10       AO20       AO30       AO60       AO90       AT10       AT20       AT30       AT60       AT90       AORT       AORX       CDF        CFTC       CNTC       CTEM       DCAL        DT        DTCO       DTSM        ED      GR_STGC      GTEM     HGR_STGC     HNPO       HTNP       ITT         ND        NPHI       NPOR        PR         SP        SPAR       SPHI       STIT       TENS       TNPH     HTNP_SAN
#
~A  
# ...
   8735.5000  1950.0000    39.0880   668.2244  1492.6914  1892.2042  1950.0000    31.7496   376.4824   207.9095   194.0977  1950.0000    33.7208   476.2397  1316.7970  1278.6410   122.8075  1864.0129 -9645.3369  9787.0225 16234.6387   116.1412     0.0000   130.1172   130.1172    94.4410     0.0000    97.8407   392.3160    97.8847     0.0301     0.0278     0.0063     0.0000     0.0284     0.0229  -999.2500    28.1250    28.3561     0.3560     0.0000  3132.5000     0.0247     0.0601
   8736.0000  1950.0000    39.9122   575.1741  1126.5133  1693.5293  1950.0000    34.8219   542.4977   338.4915   307.1445  1950.0000    35.0953   516.8848   975.9964  1229.9788   132.8430  1913.6482 -9781.9385 10372.3848 16119.8662   116.1412     0.0000   130.1172   130.1172    94.7533     0.0000    94.6466   392.3873    97.1876     0.0273     0.0204     0.0064     0.0000     0.0265     0.0249  -999.2500    28.1250    28.5835     0.3560     0.0000  3113.5002     0.0240     0.0509
   8736.5000  1950.0000    41.9115   490.8307   782.2713  1360.1849  1950.0000    36.6771   596.1409   546.6602   463.2435  1950.0000    38.6202   466.8585   641.5092   942.1171   175.7962  1875.1288 -9695.4336 10257.0850 16071.9121   116.1412     0.0000   119.3066   119.3066    94.4801     0.0000    91.7932   392.4034    89.1154     0.0204     0.0212     0.0065     0.0000     0.0253     0.0196  -999.2500    28.7500    28.6640     0.3316     0.0000  3121.0002     0.0215     0.0519
   8737.0000  1950.0000    44.2552   415.0189   528.7607   979.7608  1950.0000    38.0823   451.2413   710.7229   539.3904  1950.0000    44.4448   401.3252   427.9887   662.2813   275.9556  1914.6382 -9651.0742 10050.8242 16043.4014   116.1412     0.0000   114.3555   114.3555    94.0129     0.0000    90.5449   392.3987    89.3915     0.0207     0.0229     0.0065     0.0000     0.0244     0.0196  -999.2500    28.7500    28.7126     0.3189     0.0000  3103.5002     0.0220     0.0539
   8737.5000  1950.0000    48.0371   354.0753   369.0035   666.5256  1950.0000    44.0659   331.4685   734.5405   575.9817  1950.0000    51.2204   331.3293   304.7641   462.4612   347.9391  1948.1610 -9606.7207 10075.6172 15181.6816   116.1412     0.0000   127.3242   127.3242    92.9105     0.0000    90.5478   392.4424    92.5167     0.0222     0.0203     0.0066     0.0000     0.0242     0.0340  -999.2500    28.7500    28.7619     0.3501     0.0000  3112.5000     0.0229     0.0507
   8738.0000  1950.0000    52.7089   307.9238   272.1209   450.2887  1950.0000    54.8058   189.9223   587.3574   478.8215  1950.0000    60.0174   275.5789   222.0145   319.7679   393.7563  1950.0000 -9642.8984 10219.7764 15899.6924   116.1412     0.0000   132.3535   132.3535    92.4613     0.0000    89.8010   392.4838    89.9361     0.0207     0.0202     0.0067     0.0000     0.0241     0.0279  -999.2500    28.7500    28.8834     0.3606     0.0000  3145.5000     0.0233     0.0507
   8738.5000  1950.0000    58.0353   287.3982   217.4923   328.3700  1950.0000    79.1755   171.6801   554.7961   466.4971  1950.0000    75.6891   244.5136   179.4630   255.9533   433.0640  1887.8588 -9622.6748 10479.6221 16691.1348   116.1412     0.0000   114.4629   114.4629    92.3716     0.0000    91.4925   392.4723    88.7177     0.0231     0.0229     0.0067     0.0000     0.0266     0.0206  -999.2500    28.7500    28.8838     0.3192     0.0000  3162.5002     0.0230     0.0540
   8739.0000  1950.0000    64.0142   281.4626   188.9419   247.9768  1950.0000    97.8562   137.1114   244.3292   216.9800  1950.0000   104.9716   246.3331   153.0017   180.9090   235.4341  1642.7109 -9574.1045 10644.4688 17402.5664   116.1412     0.0000    93.8574    93.8574    91.8325     0.0000    95.4295   392.5022    96.4429     0.0306     0.0250     0.0068     0.0000     0.0238     0.0160  -999.2500    28.7500    28.8179     0.2521     0.0000  3146.0000     0.0201     0.0566
   8739.5000  1950.0000    71.0485   292.9372   170.5329   201.6537  1950.0000   162.2765   115.2178   145.5208   132.1052  1950.0000   119.5303   245.4216   152.0069   152.9465   145.5208  1144.7621 -9646.3740 12277.0723 17306.7207   116.1412     0.0000    89.1406    89.1406    91.8584     0.0000   100.8380   392.5689   100.7989     0.0136     0.0148     0.0068     0.0000     0.0236     0.0199  -999.2500    29.3750    28.7622     0.2324     0.0000  3125.0000     0.0193     0.0440
   8740.0000  1950.0000    77.5310   334.8792   183.4302   196.1260  1950.0000   187.7587   175.5578   114.6230   105.9272  1950.0000   146.3156   292.7310   148.9103   139.3430   114.6230   736.8838 -9661.5029 11370.0469 18015.1895   116.1412     0.0000    89.2188    89.2188    91.5890     0.0000   105.1946   392.5574   104.4235     0.0212     0.0212     0.0069     0.0000     0.0217     0.0099  -999.2500    28.7500    28.6617     0.2327     0.0000  3172.3335     0.0175     0.0518
   8740.5000  1950.0000    80.6109   425.7224   201.8952   193.2669  1950.0000   177.7463   210.8000    86.4622    83.4772  1950.0000   126.3993   255.3223   152.0783   134.2825    86.4622   455.4704 -9665.3340 11339.9717 17364.1836   116.1412     0.0000    83.5938    83.5938    91.8526     0.0000   108.3217   392.5873   110.0481     0.0251     0.0202     0.0069     0.0000     0.0241     0.0197  -999.2500    28.7500    28.5582     0.2063     0.0000  3206.0000     0.0208     0.0506
   8741.0000  1950.0000    83.4216   569.4653   240.4601   205.2273  1950.0000   196.3098   424.6831    86.6059    83.7583  1950.0000   185.4971   378.8844   195.3162   157.7010    86.6059   294.7971 -9624.9854 10916.6152 16790.0625   116.1412     0.0000    83.3398    83.3398    92.0312     0.0000   112.2120   392.6148   108.9568     0.0239     0.0197     0.0069     0.0000     0.0238     0.0263  -999.2500    28.7500    28.3375     0.2050     0.0000  3194.5000     0.0218     0.0500
   8741.5000  1950.0000    84.4708   799.5756   322.1352   242.1660   348.2981   141.3503   840.4539   132.9225   129.9884  1950.0000   162.5196   568.9291   322.1419   241.2636   132.9225   194.1663 -9653.0107 10768.1572 16904.7695   116.1412     0.0000    94.0820    94.0820    92.0721     0.0000   117.7796   392.6470   115.1437     0.0126     0.0209     0.0070     0.0000     0.0256     0.0249  -999.2500    28.7500    28.2100     0.2530     0.0000  3159.0000     0.0241     0.0515
   8742.0000  1950.0000    88.1612  1122.2498   472.9779   313.0154   118.9960    99.6480   444.4909   246.5904   240.9987  1950.0000   136.6692   733.8964   320.6941   220.5766   246.5904   171.1784 -9692.8848 10256.9922 16646.2598   116.1412     0.0000    94.3359    94.3359    92.4947     0.0000   125.6744   392.6700   126.6121     0.0282     0.0239     0.0070     0.0000     0.0275     0.0280  -999.2500    28.1250    28.0959     0.2540     0.0000  3160.0002     0.0250     0.0552
   8742.5000  1950.0000    91.2211  1474.4491   727.4541   428.0472    94.8591    47.0669   184.3336   608.2994   598.0942  1950.0000   120.4180  1100.8700   520.6718   334.3228   603.4841   156.2122 -9619.1191 10454.8398 17124.9453   116.1412     0.0000    89.2188    89.2188    93.0528     0.0000   130.3690   392.6884   133.4744     0.0231     0.0262     0.0071     0.0000     0.0299     0.0220  -999.2500    27.9167    27.9793     0.2327     0.0000  3168.5000     0.0269     0.0581
   8743.0000  1950.0000    94.5150  1759.9631  1100.1779   621.7561    72.4693    65.3078   470.8925  1353.6019  1344.0477  1950.0000   113.6837  1486.3053   826.3130   495.0210  1224.1080   160.9890 -9672.9775  9968.7178 16914.2715   116.1412     0.0000    89.2188    89.2188    91.3633     0.0000   130.5325   392.7436   131.3750     0.0308     0.0307     0.0071     0.0000     0.0294     0.0176  -999.2500    27.5000    27.7173     0.2327     0.0000  3205.0000     0.0248     0.0638
   8743.5000  1950.0000    99.1075  1922.5591  1490.3700   905.1626   109.9993    81.5322  1248.2240  1950.0000  1950.0000  1950.0000   114.6313  1753.3823  1172.7351   511.8501  1826.2032   177.6607 -9716.2100 10100.3359 16110.7568   116.1412     0.0000    89.2188    89.2188    91.2282     0.0000   129.5972   392.7804   127.6196     0.0215     0.0260     0.0072     0.0000     0.0331     0.0268  -999.2500    27.1875    27.6498     0.2327     0.0000  3191.5002     0.0298     0.0579
