~VERSION INFORMATION
VERS.           1.2   :CWLS Log ASCII Standard - VERSION 1.2
WRAP.           NO    :One Line per depth step
PROD.  Schlumberger   :LAS Producer
PROG.  DLIS to ASCII 2.3                               :LAS Program name and version
CREA.        2021/07/30 13:36                          :LAS Creation date {YYYY/MM/DD hh:mm}
DLIS_CREA.  2021-Jul-30 07:07                          :DLIS Creation date and time {YYYY-MMM-DD hh:mm}
SOURCE.     dc707e3c-4962-4d77-8314-dc20fe7b42b8       :DLIS File Name
#--------------------------------------------------
~WELL INFORMATION
#MNEM.UNIT      DATA             DESCRIPTION
#---- ------ --------------   -----------------------------
STRT .F        8616.5000     :START DEPTH     
STOP .F        9518.5000     :STOP DEPTH     
STEP .F           0.5000       :STEP     
NULL .          -999.25      :NULL VALUE
COMP .                 COMPANY:  University Of Utah                 
WELL .                    WELL:  FORGE 78B-32                       
FLD  .                   FIELD:  None                               
LOC  .                LOCATION:  Lat: 38.500171, Long: -112.88221   
CNTY .                  COUNTY:  Beaver                             
STAT .                   STATE:  Utah                               
CTRY .                 COUNTRY:                                     
SRVC .         SERVICE COMPANY:  Schlumberger                       
LATI .DEG             LATITUDE:  38 30' 0.616" N                   
LONG .DEG            LONGITUDE:  112 52' 55.956" W                 
API  .              API NUMBER:  NRC 42-00090-03                    
DATE .                LOG DATE:  30-Jul-2021
UWI  .          UNIQUE WELL ID:                                     
#-----------------------------------------------------------------------------
~PARAMETER INFORMATION
#MNEM.UNIT    VALUE                      DESCRIPTION
#---- -----   --------------------       ------------------------
CN   .        University Of Utah         :Company Name
WN   .        FORGE 78B-32               :Well Name
FN   .        None                       :Field Name
FL   .        Lat  38.500171  Long  -112.88221 :Field Location
FL1  .                                   :Field Location, Line 1
COUN .        Beaver                     :County or Parish
STAT .        Utah                       :State or Province
NATI .                                   :Nation
DATE .        30-Jul-2021                :Tools Above Rotary Table Date
APIN .        NRC 42-00090-03            :API Well Number
SECT .                                   :Section
TOWN .                                   :Township
RANG .                                   :Range
DMF  .        KB                         :Drilling Measured From (Name of Drilling Elevation Reference)
LMF  .        KB                         :Logging Measured From (Name of Logging Elevation Reference)
PDAT .        GL                         :Permanent Datum
ENGI .        CSTILES                    :Engineer s Name
WITN .        Virgil  Welch              :Witness s Name
LATI .        38� 30' 0.616  N           :Latitude
LONG .        112� 52' 55.956  W         :Longitude
LUL  .        F.Morgan                   :Logging Unit Location
LUN  .        9108                       :Logging Unit Number
RUN  .        1B                         :Run Number
SON  .                                   :Service Order Number
BHT  .DEGF     419.00000                 :Bottom Hole Temperature
BS   .IN         5.75000                 :Bit Size
MDEN .G/C3       2.71000                 :Matrix Density for Density Porosity
DFD  .LB/G       8.30000                 :Drilling Fluid Density
DFV  .S         24.00000                 :Drilling Fluid Viscosity
DFL  .C3      -999.25000                 :Drilling Fluid Loss
RMFS .OHMM       4.42000                 :Resistivity of Mud Filtrate Sample
EKB  .F       5565.50000                 :Elevation of Kelly Bushing
EGL  .F       5536.00000                 :Elevation of Ground Level
BLI  .F       9532.00000                 :Bottom Log Interval
BSAL .PPM      700.00000                 :Borehole Salinity
FLEV .F          8.00000                 :Depth of Drilling Fluid Level to LMF (Log Measured From)
MCST .DEGF      62.00000                 :Mudcake Sample Temperature
MFST .DEGF      62.00000                 :Mud Filtrate Sample Temperature
MRT  .DEGF     419.00000                 :Maximum Recorded Temperature
MST  .DEGF      62.00000                 :Mud Sample Temperature
RMCS .OHMM       6.21000                 :Resistivity of Mud Cake Sample
RMS  .OHMM       5.20000                 :Resistivity of Mud Sample
RW   .OHMM       1.00000                 :Connate Water Resistivity
TDD  .F       9500.00000                 :Driller Total Depth
TDL  .F       9532.00000                 :Logger Total Depth
TLI  .F       8530.00000                 :Top Log Interval
HIDE .                                   :Header Identifier
MATR .        LIME                       :Rock Matrix for Neutron Porosity Corrections
FNUM .           1.00000                 :F-Numerator for Formation Factor Formula
FEXP .           2.00000                 :Exponent "m" for Formation Factor Formula
DFT  .        WATER                      :Drilling Fluid Type
DFPH .          11.00000                 :Drilling Fluid pH
MCSS .        Calculated                 :Mudcake Sample Source
MFSS .        Calculated                 :Mud Filtrate Sample Source
FD   .G/C3       1.00000                 :Fluid Density
MSS  .        Flowline                   :Mud Sample Source
OS1  .                                   :Other Services Line 1
OS2  .                                   :Other Services Line 2
OS3  .                                   :Other Services Line 3
OS4  .                                   :Other Services Line 4
OS5  .                                   :Other Services Line 5
R1   .                                   :Remarks Line 1
R2   .                                   :Remarks Line 2
R3   .                                   :Remarks Line 3
R4   .                                   :Remarks Line 4
R5   .                                   :Remarks Line 5
R6   .        Tool was run as per tool sketch :Remarks Line 6
R7   .        All logging intervals as per client request :Remarks Line 7
R8   .                                   :Remarks Line 8
TCS  .        20 00 00                   :Time Circulation Stopped
TLAB .        02 17 00                   :Time Logger At Bottom
NMT  .        NOBARITE                   :HRDD Mud Type for Nuclear Devices
EPD  .C3         5536.000000             :Elevation of Permanent Datum above Mean Sea Level
APD  .F          29.500000               :Elevation of Depth Reference (LMF) above Permanent Datum
#-----------------------------------------------------------------------------
~CURVE INFORMATION
#MNEM.UNIT   API CODE                                  DESCRIPTION
#---- -----  --------                                  -----------------------
DEPT .F                                                :DEPTH (BOREHOLE) {F12.4}
AF10 .OHMM                                             :Array Induction Four Foot Resistivity A10 {F11.4}
AF20 .OHMM                                             :Array Induction Four Foot Resistivity A20 {F11.4}
AF30 .OHMM                                             :Array Induction Four Foot Resistivity A30 {F11.4}
AF60 .OHMM                                             :Array Induction Four Foot Resistivity A60 {F11.4}
AF90 .OHMM                                             :Array Induction Four Foot Resistivity A90 {F11.4}
AO10 .OHMM                                             :Array Induction One Foot Resistivity A10 {F11.4}
AO20 .OHMM                                             :Array Induction One Foot Resistivity A20 {F11.4}
AO30 .OHMM                                             :Array Induction One Foot Resistivity A30 {F11.4}
AO60 .OHMM                                             :Array Induction One Foot Resistivity A60 {F11.4}
AO90 .OHMM                                             :Array Induction One Foot Resistivity A90 {F11.4}
AT10 .OHMM                                             :Array Induction Two Foot Resistivity A10 {F11.4}
AT20 .OHMM                                             :Array Induction Two Foot Resistivity A20 {F11.4}
AT30 .OHMM                                             :Array Induction Two Foot Resistivity A30 {F11.4}
AT60 .OHMM                                             :Array Induction Two Foot Resistivity A60 {F11.4}
AT90 .OHMM                                             :Array Induction Two Foot Resistivity A90 {F11.4}
AORT .OHMM                                             :Array Induction One Foot Rt {F11.4}
AORX .OHMM                                             :Array Induction One Foot Rxo {F11.4}
CDF  .LBF                                              :Calibrated Downhole Force {F11.4}
CFTC .HZ                                               :Corrected Far Thermal Count Rate {F11.4}
CNTC .HZ                                               :Corrected Near Thermal Count Rate {F11.4}
CTEM .DEGF                                             :Cartridge Temperature {F11.4}
DCAL .IN                                               :Differential Caliper {F11.4}
DT   .US/F                                             :Delta-T (also called Slowness or Interval Transit Time) {F11.4}
DTCO .US/F                                             :Delta-T Compressional {F11.4}
DTSM .US/F                                             :Delta-T Shear {F11.4}
ED   .F                                                :East Departure {F11.4}
GR_STGC.GAPI                                           :Gamma Ray {F11.4}
GTEM .DEGF                                             :Generalized Borehole Temperature {F11.4}
HGR_STGC.GAPI                                          :High Resolution Gamma Ray {F11.4}
HNPO .CFCF                                             :High Resolution Enhanced Thermal Neutron Porosity in Selected Lithology {F11.4}
HTNP .CFCF                                             :High Resolution Thermal Neutron Porosity (Ratio Method) in Selected Lithology {F11.4}
ITT  .S                                                :Integrated Transit Time {F11.4}
ND   .F                                                :North Departure {F11.4}
NPHI .CFCF                                             :Thermal Neutron Porosity (original Ratio Method) in Selected Lithology {F11.4}
NPOR .CFCF                                             :Enhanced Thermal Neutron Porosity in Selected Lithology {F11.4}
PR   .                                                 :Poisson s Ratio {F11.4}
SP   .MV                                               :Spontaneous Potential {F11.4}
SPAR .MV                                               :SP, Armor Return Compensated {F11.4}
SPHI .CFCF                                             :Sonic Porosity {F11.4}
STIT .F                                                :Stuck Tool Indicator, Total {F11.4}
TENS .LBF                                              :Cable Tension {F11.4}
TNPH .CFCF                                             :Thermal Neutron Porosity (Ratio Method) in Selected Lithology {F11.4}
HTNP_SAN.CFCF                                          :HiRes Thermal Neutron Porosity (matrix Sandstone) {F11.4}
#-----------------------------------------------------------------------------
# 
#      DEPT        AF10       AF20       AF30       AF60       AF90       AO10       AO20       AO30       AO60       AO90       AT10       AT20       AT30       AT60       AT90       AORT       AORX       CDF        CFTC       CNTC       CTEM       DCAL        DT        DTCO       DTSM        ED      GR_STGC      GTEM     HGR_STGC     HNPO       HTNP       ITT         ND        NPHI       NPOR        PR         SP        SPAR       SPHI       STIT       TENS       TNPH     HTNP_SAN
#
~A  
# ...
   9449.5000  1950.0000    69.5298  1142.9193  1250.3845  1500.4584    77.1070   141.5191   102.4417    36.8888    36.4234   448.2743    90.4621  1950.0000   207.0274   145.7166    36.8888    64.7970 -9372.4023 11180.6230 17330.7070   118.1176     0.0000   101.6406   101.6406  -999.2500     0.0000   100.8728   417.9279   100.1036     0.0180     0.0216     0.0771     0.0000     0.0227     0.0174  -999.2500    40.6250    40.8358     0.2806     0.0000  3257.0002     0.0195     0.0524
   9450.0000  1950.0000    82.3202  1535.3174  1153.8575  1156.6389   200.3937   167.1707   115.1628    34.7706    34.3992   790.3725   114.8499  1902.4520   260.7615   106.2408    34.7706    96.2762 -9360.4336 10992.3838 16761.4473   118.1176     0.0000   111.5234   111.5234  -999.2500     0.0000   100.8728   417.9279   100.1036     0.0303     0.0218     0.0771     0.0000     0.0238     0.0252  -999.2500    40.6250    40.8886     0.3112     0.0000  3249.5000     0.0214     0.0526
   9450.5000  1950.0000    91.4749  1817.1359   970.1741   818.0289  1950.0000   284.1615   155.6599    49.8949    49.3157  1571.8024   120.1661   921.3348   334.0222    94.8034    49.8949   147.8382 -9215.9424 10795.5371 16873.9941   118.1176     0.0000   104.9219   104.9219  -999.2500     0.0000   100.8728   417.9279   100.1036     0.0219     0.0216     0.0772     0.0000     0.0238     0.0240  -999.2500    40.9375    40.9787     0.2914     0.0000  3272.4998     0.0222     0.0524
   9451.0000  1950.0000    96.7482  1950.0000   793.4930   565.5588  1950.0000   131.7749    93.0812    57.1693    56.6871  1950.0000   102.8071   631.7755   278.3547    74.6410    57.1693   244.7074 -9324.8838 10834.3027 16776.8984   118.1176     0.0000    98.4375    98.4375  -999.2500     0.0000   100.8728   417.9279   100.1036     0.0174     0.0228     0.0772     0.0000     0.0253     0.0254  -999.2500    41.2500    41.1238     0.2694     0.0000  3290.5000     0.0227     0.0538
   9451.5000  1950.0000   101.4549  1950.0000   668.1904   420.3277  1015.3435    64.6306    62.0361    47.4394    47.2241  1520.6179    82.0505   498.1235   182.9184    67.3343    47.4394   405.7554 -9332.1602 10776.4160 17330.9609   118.1176     0.0000   119.7266   119.7266  -999.2500     0.0000   100.8728   417.9279   100.1036     0.0231     0.0243     0.0773     0.0000     0.0256     0.0189  -999.2500    41.2500    41.2206     0.3327     0.0000  3332.3333     0.0227     0.0557
   9452.0000  1950.0000   108.5207  1879.9518   637.5753   308.5622   779.9627    32.3200    34.8181    28.6692    28.6259  1851.7612    76.0173   329.7285   214.2140    54.0421    28.6692   601.1485 -9305.9229 10893.9697 17196.6934   118.1176     0.0000   116.6406   116.6406  -999.2500     0.0000   100.8728   417.9279   100.1036     0.0163     0.0217     0.0774     0.0000     0.0257     0.0195  -999.2500    41.2500    41.3112     0.3249     0.0000  3365.5000     0.0221     0.0524
   9452.5000  1950.0000   117.2278  1691.9127   825.4371   301.3316   795.5799    40.6358    65.9635    43.5617    43.6567  1950.0000    72.1767   271.0015   177.8163    68.7987    43.5617   699.7239 -9374.5352 10942.8994 16955.8477   118.1176     0.0000    64.5508    64.5508  -999.2500     0.0000   100.8728   417.9279   100.1036     0.0104     0.0211     0.0774     0.0000     0.0238     0.0212  -999.2500    41.2500    41.4437     0.0828     0.0000  3376.0000     0.0211     0.0518
   9453.0000  1950.0000   121.7372  1424.1580  1053.0964   283.4138  1286.6713   104.3732   131.3843    39.5008    39.4764  1950.0000    87.5062   695.9880   111.7351    69.9531    39.5008   571.7692 -9423.0254 11032.0264 16674.8965   118.1176     0.0000    67.4219    67.4219  -999.2500     0.0000   100.8728   417.9279   100.1036     0.0179     0.0185     0.0774     0.0000     0.0207     0.0242  -999.2500    41.2500    41.5329     0.1059     0.0000  3392.3333     0.0192     0.0485
   9453.5000  1950.0000   115.3795  1098.6995  1291.3008   310.3617  1265.7804   104.0389   213.4749    47.7037    47.6167  1950.0000    95.7805   922.8503   419.8724   159.1061    47.7037   378.6319 -9372.5098 11766.0459 16646.2773   118.1176     0.0000   143.1445   143.1445  -999.2500     0.0000   100.8728   417.9279   100.1036     0.0120     0.0148     0.0775     0.0000     0.0171     0.0255  -999.2500    41.5625    41.6460     0.3805     0.0000  3384.5000     0.0154     0.0440
   9454.0000  1950.0000   101.0908   755.4017  1500.5779   378.0165  1950.0000    95.6709   317.8241    52.1841    52.1825  1950.0000    74.5873   331.4596   335.3454   199.6867    52.1841   226.3729 -9317.5840 13179.8867 17852.7129   118.1176     0.0000   135.8594   135.8594  -999.2500     0.0000   100.8728   417.9279   100.1036     0.0122     0.0102     0.0776     0.0000     0.0142     0.0151  -999.2500    41.8750    41.7173     0.3674     0.0000  3379.0000     0.0117     0.0384
   9454.5000  1950.0000    78.3337   564.1932  1714.3599   494.6596  1242.5654    39.0585    82.3893    81.1212    80.7636  1744.5486    55.0141   118.0887   160.3696   111.4420    81.1212   144.1080 -9297.1787 14095.0986 19096.7910   118.1176     0.0000    58.3398    58.3398   133.5602     0.0000   100.8728   417.9279   100.1036     0.0106     0.0092     0.0776     0.0000     0.0138     0.0042     0.3878    41.8750    41.8017     0.0251     0.0000  3409.6667     0.0087     0.0371
   9455.0000  1950.0000    71.5328   414.7573  1883.1956   679.1421   182.7324    17.4261    26.7069    57.7952    57.6047  1494.9760    31.2270    72.3764   110.9105    76.1214    57.7952    99.5117 -9367.6748 14586.3066 20302.9297   118.1176     0.0000    55.1367    55.1367   132.7236     0.0000   100.8728   417.9279   100.1036     0.0054     0.0101     0.0776     0.0000     0.0146    -0.0055     0.3957    41.8750    41.8228    -0.0098     0.0000  3443.0000     0.0085     0.0383
   9455.5000  1950.0000    63.6713   324.5203  1948.5237   958.2153    59.3022     8.6674     8.5387    38.9692    38.8838  1389.6293    23.1669    43.1711    84.9303    64.4260    38.9692    78.3580 -9415.3115 13946.9004 19473.0879   118.1176     0.0000    54.0234    54.0234   133.4652     0.0000   100.8728   417.9279   100.1036     0.0125     0.0113     0.0776     0.0000     0.0147     0.0031     0.4000    42.2917    41.8563    -0.0229     0.0000  3455.3335     0.0096     0.0397
   9456.0000  1950.0000    71.0719   443.8857  1902.4360  1289.5548    37.4791    25.0805    15.6115    56.3332    56.1392  1190.3405    36.5871    71.8115   200.7511   164.6499    56.3332    75.6663 -9361.3115 13299.4414 18111.1387   118.1176     0.0000    53.8086    53.8086   134.2069     0.0000   100.8728   417.9279   100.1036     0.0108     0.0105     0.0777     0.0000     0.0152     0.0172     0.4042    42.5000    41.8843    -0.0255     0.0000  3433.0000     0.0126     0.0387
   9456.5000  1950.0000    73.8563   575.5368  1741.2694  1554.4425    35.4141    62.8843    38.9668    98.9785    98.6647  1740.5458    46.7235   170.8096   334.5398   282.8368    76.1794    62.2708 -9294.7607 12256.4424 17388.1484   118.1176     0.0000    77.4805    77.4805   134.5942     0.0000   100.8728   417.9279   100.1036     0.0135     0.0133     0.0777     0.0000     0.0170     0.0197     0.2522    41.8750    41.8960     0.1733     0.0000  3431.0000     0.0146     0.0422
   9457.0000  1950.0000    72.8143   737.3296  1441.3409  1503.0194    60.1028    92.3519   102.2837    36.8293    36.6792  1950.0000    59.8663   425.7048   850.3956   786.7817    36.8293    69.4207 -9276.5361 11510.2402 17201.4902   118.1176     0.0000    90.4492    90.4492   135.5430     0.0000   100.8728   417.9279   100.1036     0.0146     0.0179     0.0778     0.0000     0.0206     0.0179     0.0986    41.8750    41.8817     0.2380     0.0000  3441.0000     0.0178     0.0478
   9457.5000  1950.0000    67.9197   952.9835  1062.1851  1188.6912   119.6968    27.4972    72.1982    21.1890    21.0947  1950.0000    56.9597   284.8648   316.4837   268.1288    21.1890    90.1920 -9337.8213 10797.7920 16818.5879   118.1176     0.0000    73.4473    73.4473  -999.2500     0.0000   100.8728   417.9279   100.1036     0.0204     0.0210     0.0778     0.0000  -999.2500     0.0217  -999.2500    41.6667    41.8901     0.1485     0.0000  3451.3335     0.0195     0.0516
