~Version
 VERS              .         2.0                           : CWLS LOG ASCII STANDARD - VERSION 2.0
 WRAP              .         NO                            : ONE LINE PER DEPTH STEP
 DLM               .         SPACE                         : DELIMITING CHARACTER(SPACE TAB OR COMMA)
~Well Information
#_______________________________________________________________________________
#
#PARAMETER_NAME    .UNIT     VALUE                         : DESCRIPTION
#_______________________________________________________________________________
STRT               .ft       7493                          : First reference value
STOP               .ft       9543.25                       : Last reference value
STEP               .ft       0.25                          : Step increment
NULL               .         -9999                         : Missing value
COMP               .         University Of Utah            : Company
WELL               .         FORGE 78B-32                  : Well name
FLD                .         None                          : Field
LOC                .                                       : Location
CNTY               .         Beaver                        : County
STAT               .         Utah                          : State
CTRY               .         USA                           : Country
SRVC               .         Schlumberger                  : Service Company
DATE               .         19-Jul-2021                   : Date
API                .         NRC 42-00090-03               : API number
APD                .ft       29.5                          : Elevation of Depth Reference (LMF) Above Permanent Datum
BHS                .         OPEN                          : Borehole Status (Open or Cased Hole)
BHT                .degF     320.87                        : Bottom Hole Temperature
BLI                .ft       -999.25                       : Bottom Log Interval
BS                 .in       8.75                          : Bit Size
CBDR               .ft       2989                          : Casing Bottom of Driller
CBLO               .ft       2988                          : Logger Casing Shoe Depth
CSIZ               .in       11.75                         : Current Casing Size
CWEI               .lbm/ft   54                            : Casing Weight
DCS                .         19-Jul-2021                   : Date Circulation Stopped
DFD                .lbm/gal  8.3                           : Drilling Fluid Density
DFT                .         WATER                         : Drilling Fluid Type
DLAB               .         19-Jul-2021                   : Date Logger At Bottom
EDF                .ft       5536                          : Elevation of Drill Floor
EGL                .ft       5536                          : Elevation of Ground Level
EKB                .ft       5565.5                        : Elevation of Kelly Bushing
EPD                .ft       5536                          : Elevation of Permanent Datum (PDAT) above Mean Sea Level
LMF                .         KB                            : Logging Measured From (Name of Logging Elevation Reference)
LUL                .         F.Morgan                      : Logging Unit Location
LUN                .         9108                          : Logging Unit Number
LATI               .         38.500171 degrees             : Latitude
LONG               .         -112.88221 degrees            : Longitude
MCST               .degF     68                            : Mudcake Sample Temperature
MFST               .degF     68                            : Mud Filtrate Sample Temperature
MRT                .degF     321.43                        : Maximum Recorded Temperature
MST                .degF     68                            : Mud Sample Temperature
ORIGINALWELLNAME   .         FORGE 78B-32                  : 
PDAT               .         GL                            : Permanent Datum
PRODUCER-CODE      .         440                           : 
PRODUCER-NAME      .         Schlumberger                  : 
RMB                .ohm.m    0.04564156                    : Resistivity of Mud at Bottom Hole Temperature
RMCS               .ohm.m    -999.25                       : Resistivity of Mud Cake Sample
RMFS               .ohm.m    0.15                          : Resistivity of Mud Filtrate Sample
RMS                .ohm.m    0.2                           : Resistivity of Mud Sample
RUN                .         1A                            : Run Number
TCS                .         03_00_00                      : Time Circulation Stopped
TDD                .ft       8540                          : Driller Total Depth
TDL                .ft       8540                          : Logger Total Depth
TLAB               .         07_53_00                      : Time Logger At Bottom
TLI                .ft       -999.25                       : Top Log Interval
~Parameter Information Block
#_______________________________________________________________________________
#
#PARAMETER_NAME    .UNIT     VALUE                         : DESCRIPTION
#_______________________________________________________________________________
SET                .         QSLT                          : 
TLFamily_AT10      .         Resistivity - Induction Array 10: 
TLFamily_AT20      .         Resistivity - Induction Array 20: 
TLFamily_AT30      .         Resistivity - Induction Array 30: 
TLFamily_AT60      .         Resistivity - Induction Array 60: 
TLFamily_AT90      .         Resistivity - Induction Array 90: 
TLFamily_BS        .         Bit Size                      : 
TLFamily_DTCO_FINAL .         Compressional Slowness        : 
TLFamily_DTSH_FINAL .         Shear Slowness                : 
TLFamily_GR_STGC   .         Gamma Ray                     : 
TLFamily_HDAR      .         Borehole Diameter             : 
TLFamily_PR        .         Poisson Ratio (Dynamic)       : 
TLFamily_SPHI      .         Total Porosity                : 
TLFamily_TDEP      .         Measured Depth                : 
TLFamily_TENS      .         Tension                       : 
TLFamily_TNPH      .         Thermal Neutron Porosity      : 
TLFamily_VPVS      .         VpVs (Compressional To Shear) Ratio: 
~Curve Information
#_______________________________________________________________________________
#
#LOGNAME           .UNIT     LOG_ID                        : DESCRIPTION
#_______________________________________________________________________________
TDEP               .ft                                     : Measured Depth 
AT10               .ohm.m                                  : Array Induction Two Foot Resistivity A10 
AT20               .ohm.m                                  : Array Induction Two Foot Resistivity A20 
AT30               .ohm.m                                  : Array Induction Two Foot Resistivity A30 
AT60               .ohm.m                                  : Array Induction Two Foot Resistivity A60 
AT90               .ohm.m                                  : Array Induction Two Foot Resistivity A90 
BS                 .in                                     : Bit Size 
DTCO_FINAL         .us/ft                                  : Compressional Slowness 
DTSH_FINAL         .us/ft                                  : Shear Slowness 
GR_STGC            .gAPI                                   : Gamma Ray 
HDAR               .in                                     : Hole Diameter from Area 
PR                 .unitless                               : Possion's Ratio 
SPHI               .ft3/ft3                                : Total porosity from Sonic 
TENS               .lbf                                    : Cable Tension 
TNPH               .ft3/ft3                                : Thermal Neutron Porosity (Ratio Method) in Selected Lithology 
VPVS               .unitless                               : VpVs Ratio 
~Ascii
# ...
8447.5     0.362918   1950       1950       7.766238   23.22759   10.625     56.0771    96.02592   87.52625   10.625     0.2412388  0.06061551 3964.333   0.05325135 1.712391  
8447.75    0.3646264  1950       1950       7.69812    26.47065   10.625     55.87197   95.82538   89.12006   10.625     0.242471   0.05916585 3954.167   0.05243596 1.715089  
8448       0.3646691  1950       1950       7.589638   29.76437   10.625     55.59602   95.72117   90.71387   10.625     0.2454621  0.05721569 3944       0.05162056 1.721727  
8448.25    0.3630562  1950       1950       7.452114   32.70162   10.625     55.36291   95.72411   85.71966   10.625     0.2486861  0.05556828 3934.875   0.05320301 1.72903   
8448.5     0.3600922  1950       1950       7.305176   35.04626   10.625     55.23583   95.83024   80.72545   10.625     0.2512411  0.05467017 3925.75    0.05478546 1.734929  
8448.75    0.3562921  1950       1950       7.169755   36.83807   10.625     55.21526   96.02929   78.04857   10.625     0.2530557  0.0545248  3927.208   0.05596853 1.73918   
8449       0.3522703  1950       1950       7.062555   38.38167   10.625     55.26318   96.29646   75.3717    10.625     0.2544602  0.05486343 3928.667   0.0571516  1.742507  
8449.25    0.3486343  1950       1950       6.993776   40.10598   10.625     55.338     96.59142   74.3644    10.625     0.2557047  0.05539221 3923.167   0.05853029 1.745481  
8449.5     0.3458912  1950       1950       6.966262   42.31312   10.625     55.42479   96.87361   73.35709   10.625     0.2566841  0.05600558 3917.667   0.05990897 1.747839  
8449.75    0.3443798  1950       1950       6.975214   45.19304   10.625     55.51523   97.11697   72.6114    10.625     0.2573185  0.05664475 3950.667   0.06126503 1.749375  
8450       0.3442311  1950       1950       7.009149   48.81698   10.625     55.60279   97.31587   71.86571   10.625     0.257657   0.05726357 3983.667   0.06262108 1.750198  
8450.25    0.3453594  1950       1950       7.052767   53.10559   10.625     55.67657   97.46994   69.61102   10.625     0.2578411  0.05778493 4012.333   0.06484898 1.750646  
8450.5     0.3474839  1950       1950       7.090718   57.74627   10.625     55.72807   97.58369   67.35633   10.625     0.2580148  0.05814893 4041       0.06707688 1.751069  
8450.75    0.3501799  1950       1950       7.111122   62.14312   10.625     55.75576   97.65865   64.43943   10.625     0.2582093  0.05834462 4078       0.06904443 1.751544  
8451       0.3529895  1950       1950       7.108669   65.8295    10.625     55.76129   97.70685   61.52253   10.625     0.258492   0.05838368 4115       0.07101196 1.752234  
8451.25    0.3555048  1950       1950       7.086534   68.54472   10.625     55.76595   97.73727   58.19823   10.625     0.2586552  0.05841658 4133.5     0.07315871 1.752634  
8451.5     0.3574267  1950       1950       7.055139   70.54255   10.625     55.80648   97.74531   54.87394   10.625     0.2581934  0.05870307 4152       0.07530546 1.751505  
8451.75    0.3586021  1950       1950       7.027435   72.25407   10.625     55.91656   97.71008   53.35488   10.625     0.2565132  0.05948097 4133.625   0.07619922 1.747427  
8452       0.359038   1950       1950       7.013501   74.31126   10.625     56.07832   97.61709   51.83582   10.625     0.2537107  0.06062419 4115.25    0.07709298 1.740728  
8452.25    0.3588665  1950       1950       7.017717   77.30486   10.625     56.22801   97.48997   51.81459   10.625     0.2507697  0.06168204 4100.792   0.07728089 1.733833  
8452.5     0.3582997  1950       1950       7.039032   81.78214   10.625     56.3246    97.39354   51.79335   10.625     0.2487375  0.06236467 4086.334   0.07746881 1.729147  
8452.75    0.3575765  1950       1950       7.072312   88.13123   10.625     56.36968   97.39101   50.93007   10.625     0.2481128  0.06268327 4101.167   0.07628138 1.72772   
8453       0.3568889  1950       1950       7.10967    96.32169   10.625     56.38646   97.50038   50.06679   10.625     0.2487366  0.06280183 4116       0.07509395 1.729145  
8453.25    0.3563313  1950       1950       7.142217   105.7345   10.625     56.36979   97.68494   49.12477   10.625     0.2503806  0.06268399 4128.875   0.07459828 1.732931  
8453.5     0.3558957  1950       1950       7.163185   115.5373   10.625     56.30353   97.8947    48.18275   10.625     0.25285    0.06221575 4141.75    0.0741026  1.738696  
8453.75    0.3555135  1950       1950       7.170975   125.7326   10.625     56.20205   98.09651   44.47285   10.625     0.2556818  0.06149855 4152.542   0.07500778 1.745426  
8454       0.3550786  1950       1950       7.169378   135.1244   10.625     56.11216   98.28935   40.76297   10.625     0.2582565  0.06086335 4163.333   0.07591295 1.751659  
8454.25    0.3544855  1950       1950       7.164666   142.9012   10.625     56.06158   98.4744    38.06905   10.625     0.2602415  0.0605059  4167       0.07671057 1.75654   
8454.5     0.3536333  1950       1950       7.162554   148.6943   10.625     56.04338   98.64723   35.37514   10.625     0.26171    0.06037725 4170.667   0.0775082  1.760194  
8454.75    0.3524626  1950       1950       7.167352   152.5542   10.625     56.04687   98.79262   32.19339   10.625     0.2626998  0.06040189 4160.709   0.0791266  1.762679  
8455       0.3509558  1950       1950       7.182054   154.7499   10.625     56.06609   98.88898   29.01164   10.625     0.2631416  0.06053774 4150.75    0.08074501 1.763793  
8455.25    0.3491181  1950       1950       7.207705   155.6768   10.625     56.09002   98.92205   31.4002    10.625     0.2630771  0.06070688 4136.5     0.08038449 1.76363   
8455.5     0.3469881  1950       1950       7.243195   155.992    10.625     56.09029   98.89069   33.78876   10.625     0.2628522  0.06070876 4122.25    0.08002396 1.763063  
8455.75    0.3446378  1950       1950       7.287546   155.3669   10.625     56.03894   98.82047   37.77203   10.625     0.2629958  0.06034587 4101.625   0.07872668 1.763425  
8456       0.3421646  1950       1950       7.342983   154.4233   10.625     55.94627   98.7534    41.75531   10.625     0.2636766  0.05969093 4081       0.07742941 1.765147  
8456.25    0.3396482  1950       1950       7.415021   154.2644   10.625     55.84502   98.71729   46.216     10.625     0.2646799  0.05897544 4110.071   0.07589345 1.767701  
8456.5     0.3371463  1950       1950       7.509595   155.5581   10.625     55.77059   98.70062   50.67669   10.625     0.2654845  0.05844938 4139.143   0.0743575  1.769761  
8456.75    0.3346962  1950       1950       7.631104   159.6602   10.625     55.74558   98.66214   51.80159   10.625     0.2655248  0.05827264 4119.009   0.07383651 1.769865  
8457       0.3323292  1950       1950       7.782064   167.6848   10.625     55.77578   98.57681   52.92649   10.625     0.264553   0.05848607 4098.875   0.07331551 1.767377  
8457.25    0.3300519  1950       1950       7.960904   180.9477   10.625     55.84516   98.46273   53.31499   10.625     0.2628821  0.0589764  4097.638   0.07359475 1.763138  
8457.5     0.3278427  1950       1950       8.156385   201.1983   10.625     55.92816   98.36205   53.7035    10.625     0.26112    0.05956295 4096.4     0.073874   1.758721  
8457.75    0.3256452  1950       1950       8.343522   230.8631   10.625     56.00376   98.29947   53.84192   10.625     0.2597115  0.06009723 4083.018   0.07377368 1.75523   
8458       0.3233901  1950       1950       8.48743    273.4771   10.625     56.07325   98.27378   53.98034   10.625     0.2586401  0.06058831 4069.636   0.07367336 1.752597  
8458.25    0.3209872  1950       1950       8.554658   334.5392   10.625     56.14979   98.27307   54.85788   10.625     0.2576559  0.06112927 4042.952   0.07372356 1.750195  
8458.5     0.3183336  1950       1950       8.524648   420.6269   10.625     56.23577   98.28824   55.73542   10.625     0.2566632  0.06173687 4016.267   0.07377376 1.747789  
8458.75    0.3153563  1950       1950       8.395502   534.798    10.625     56.3135    98.31509   55.22408   10.625     0.2558597  0.06228619 4006.467   0.07411052 1.745853  
