~VERSION INFORMATION
VERS.           1.2   :CWLS Log ASCII Standard - VERSION 1.2
WRAP.           NO    :One Line per depth step
PROD.  Schlumberger   :LAS Producer
PROG.  DLIS to ASCII 2.3                               :LAS Program name and version
CREA.        2021/07/30 13:36                          :LAS Creation date {YYYY/MM/DD hh:mm}
DLIS_CREA.  2021-Jul-30 07:08                          :DLIS Creation date and time {YYYY-MMM-DD hh:mm}
SOURCE.     6d1d3df9-7549-4232-acfc-119b5b71a716       :DLIS File Name
#--------------------------------------------------
~WELL INFORMATION
#MNEM.UNIT      DATA             DESCRIPTION
#---- ------ --------------   -----------------------------
STRT .F      7447.0000       :START DEPTH     
STOP .F      9553.0000       :STOP DEPTH     
STEP .F       0.5000         :STEP       
NULL .          -999.25      :NULL VALUE
COMP .                 COMPANY:  University Of Utah                 
WELL .                    WELL:  FORGE 78B-32                       
FLD  .                   FIELD:  None                               
LOC  .                LOCATION:  Lat: 38.500171, Long: -112.88221   
CNTY .                  COUNTY:  Beaver                             
STAT .                   STATE:  Utah                               
CTRY .                 COUNTRY:                                     
SRVC .         SERVICE COMPANY:  Schlumberger                       
LATI .DEG             LATITUDE:  38 30' 0.616" N                   
LONG .DEG            LONGITUDE:  112 52' 55.956" W                 
API  .              API NUMBER:  NRC 42-00090-03                    
DATE .                LOG DATE:  30-Jul-2021
UWI  .          UNIQUE WELL ID:                                     
#-----------------------------------------------------------------------------
~PARAMETER INFORMATION
#MNEM.UNIT    VALUE                      DESCRIPTION
#---- -----   --------------------       ------------------------
CN   .        University Of Utah         :Company Name
WN   .        FORGE 78B-32               :Well Name
FN   .        None                       :Field Name
FL   .        Lat  38.500171  Long  -112.88221 :Field Location
FL1  .                                   :Field Location, Line 1
COUN .        Beaver                     :County or Parish
STAT .        Utah                       :State or Province
NATI .                                   :Nation
DATE .        30-Jul-2021                :Tools Above Rotary Table Date
APIN .        NRC 42-00090-03            :API Well Number
SECT .                                   :Section
TOWN .                                   :Township
RANG .                                   :Range
DMF  .        KB                         :Drilling Measured From (Name of Drilling Elevation Reference)
LMF  .        KB                         :Logging Measured From (Name of Logging Elevation Reference)
PDAT .        GL                         :Permanent Datum
ENGI .        CSTILES                    :Engineer s Name
WITN .        Virgil  Welch              :Witness s Name
LATI .        38� 30' 0.616  N           :Latitude
LONG .        112� 52' 55.956  W         :Longitude
LUL  .        F.Morgan                   :Logging Unit Location
LUN  .        9108                       :Logging Unit Number
RUN  .        1B                         :Run Number
SON  .                                   :Service Order Number
BHT  .DEGF     419.00000                 :Bottom Hole Temperature
BS   .IN         5.75000                 :Bit Size
MDEN .G/C3       2.71000                 :Matrix Density for Density Porosity
DFD  .LB/G       8.30000                 :Drilling Fluid Density
DFV  .S         24.00000                 :Drilling Fluid Viscosity
DFL  .C3      -999.25000                 :Drilling Fluid Loss
RMFS .OHMM       4.42000                 :Resistivity of Mud Filtrate Sample
EKB  .F       5565.50000                 :Elevation of Kelly Bushing
EGL  .F       5536.00000                 :Elevation of Ground Level
BLI  .F       9532.00000                 :Bottom Log Interval
BSAL .PPM      700.00000                 :Borehole Salinity
FLEV .F          8.00000                 :Depth of Drilling Fluid Level to LMF (Log Measured From)
MCST .DEGF      62.00000                 :Mudcake Sample Temperature
MFST .DEGF      62.00000                 :Mud Filtrate Sample Temperature
MRT  .DEGF     419.00000                 :Maximum Recorded Temperature
MST  .DEGF      62.00000                 :Mud Sample Temperature
RMCS .OHMM       6.21000                 :Resistivity of Mud Cake Sample
RMS  .OHMM       5.20000                 :Resistivity of Mud Sample
RW   .OHMM       1.00000                 :Connate Water Resistivity
TDD  .F       9500.00000                 :Driller Total Depth
TDL  .F       9532.00000                 :Logger Total Depth
TLI  .F       8530.00000                 :Top Log Interval
HIDE .                                   :Header Identifier
MATR .        LIME                       :Rock Matrix for Neutron Porosity Corrections
FNUM .           1.00000                 :F-Numerator for Formation Factor Formula
FEXP .           2.00000                 :Exponent "m" for Formation Factor Formula
DFT  .        WATER                      :Drilling Fluid Type
DFPH .          11.00000                 :Drilling Fluid pH
MCSS .        Calculated                 :Mudcake Sample Source
MFSS .        Calculated                 :Mud Filtrate Sample Source
FD   .G/C3       1.00000                 :Fluid Density
MSS  .        Flowline                   :Mud Sample Source
OS1  .                                   :Other Services Line 1
OS2  .                                   :Other Services Line 2
OS3  .                                   :Other Services Line 3
OS4  .                                   :Other Services Line 4
OS5  .                                   :Other Services Line 5
R1   .                                   :Remarks Line 1
R2   .                                   :Remarks Line 2
R3   .                                   :Remarks Line 3
R4   .                                   :Remarks Line 4
R5   .                                   :Remarks Line 5
R6   .        Tool was run as per tool sketch :Remarks Line 6
R7   .        All logging intervals as per client request :Remarks Line 7
R8   .                                   :Remarks Line 8
TCS  .        20 00 00                   :Time Circulation Stopped
TLAB .        02 17 00                   :Time Logger At Bottom
NMT  .        NOBARITE                   :HRDD Mud Type for Nuclear Devices
EPD  .C3         5536.000000             :Elevation of Permanent Datum above Mean Sea Level
APD  .F          29.500000               :Elevation of Depth Reference (LMF) above Permanent Datum
#-----------------------------------------------------------------------------
~CURVE INFORMATION
#MNEM.UNIT   API CODE                                  DESCRIPTION
#---- -----  --------                                  -----------------------
DEPT .F                                                :DEPTH (BOREHOLE) {F12.4}
AF10 .OHMM                                             :Array Induction Four Foot Resistivity A10 {F11.4}
AF20 .OHMM                                             :Array Induction Four Foot Resistivity A20 {F11.4}
AF30 .OHMM                                             :Array Induction Four Foot Resistivity A30 {F11.4}
AF60 .OHMM                                             :Array Induction Four Foot Resistivity A60 {F11.4}
AF90 .OHMM                                             :Array Induction Four Foot Resistivity A90 {F11.4}
AO10 .OHMM                                             :Array Induction One Foot Resistivity A10 {F11.4}
AO20 .OHMM                                             :Array Induction One Foot Resistivity A20 {F11.4}
AO30 .OHMM                                             :Array Induction One Foot Resistivity A30 {F11.4}
AO60 .OHMM                                             :Array Induction One Foot Resistivity A60 {F11.4}
AO90 .OHMM                                             :Array Induction One Foot Resistivity A90 {F11.4}
AT10 .OHMM                                             :Array Induction Two Foot Resistivity A10 {F11.4}
AT20 .OHMM                                             :Array Induction Two Foot Resistivity A20 {F11.4}
AT30 .OHMM                                             :Array Induction Two Foot Resistivity A30 {F11.4}
AT60 .OHMM                                             :Array Induction Two Foot Resistivity A60 {F11.4}
AT90 .OHMM                                             :Array Induction Two Foot Resistivity A90 {F11.4}
AORT .OHMM                                             :Array Induction One Foot Rt {F11.4}
AORX .OHMM                                             :Array Induction One Foot Rxo {F11.4}
CDF  .LBF                                              :Calibrated Downhole Force {F11.4}
CFTC .HZ                                               :Corrected Far Thermal Count Rate {F11.4}
CNTC .HZ                                               :Corrected Near Thermal Count Rate {F11.4}
CTEM .DEGF                                             :Cartridge Temperature {F11.4}
DCAL .IN                                               :Differential Caliper {F11.4}
DT   .US/F                                             :Delta-T (also called Slowness or Interval Transit Time) {F11.4}
DTCO .US/F                                             :Delta-T Compressional {F11.4}
DTSM .US/F                                             :Delta-T Shear {F11.4}
ED   .F                                                :East Departure {F11.4}
GR_STGC.GAPI                                           :Gamma Ray {F11.4}
GTEM .DEGF                                             :Generalized Borehole Temperature {F11.4}
HGR_STGC.GAPI                                          :High Resolution Gamma Ray {F11.4}
HNPO .CFCF                                             :High Resolution Enhanced Thermal Neutron Porosity in Selected Lithology {F11.4}
HTNP .CFCF                                             :High Resolution Thermal Neutron Porosity (Ratio Method) in Selected Lithology {F11.4}
ITT  .S                                                :Integrated Transit Time {F11.4}
ND   .F                                                :North Departure {F11.4}
NPHI .CFCF                                             :Thermal Neutron Porosity (original Ratio Method) in Selected Lithology {F11.4}
NPOR .CFCF                                             :Enhanced Thermal Neutron Porosity in Selected Lithology {F11.4}
PR   .                                                 :Poisson s Ratio {F11.4}
SP   .MV                                               :Spontaneous Potential {F11.4}
SPAR .MV                                               :SP, Armor Return Compensated {F11.4}
SPHI .CFCF                                             :Sonic Porosity {F11.4}
STIT .F                                                :Stuck Tool Indicator, Total {F11.4}
TENS .LBF                                              :Cable Tension {F11.4}
TNPH .CFCF                                             :Thermal Neutron Porosity (Ratio Method) in Selected Lithology {F11.4}
HTNP_SAN.CFCF                                          :HiRes Thermal Neutron Porosity (matrix Sandstone) {F11.4}
#-----------------------------------------------------------------------------
# 
#      DEPT        AF10       AF20       AF30       AF60       AF90       AO10       AO20       AO30       AO60       AO90       AT10       AT20       AT30       AT60       AT90       AORT       AORX       CDF        CFTC       CNTC       CTEM       DCAL        DT        DTCO       DTSM        ED      GR_STGC      GTEM     HGR_STGC     HNPO       HTNP       ITT         ND        NPHI       NPOR        PR         SP        SPAR       SPHI       STIT       TENS       TNPH     HTNP_SAN
#
~A  
# ...
   8569.0000    16.2052   960.7202  1950.0000  1950.0000  1950.0000    13.3009    58.4165    44.4461    73.7340    60.3984    16.2899   295.0689   207.7356   832.7388   548.1858    73.7340    15.0133 -9999.9999  2323.1414  6450.6870   133.9294     0.0000    53.0859    53.0859    96.1094     0.0000    82.6498   381.9358    81.9357     0.0933     0.0998     0.0508     0.0000     0.0913     0.0783     0.2805     5.0000     6.7443    -0.0343     0.0000  4028.4998     0.0862     0.1509
   8569.5000    16.7583   663.3129  1950.0000  1950.0000  1950.0000    17.6746   178.4653   118.7206   108.3921    97.5163    17.1587   698.5156   322.4846  1160.0094   546.5836   108.3921    16.4784 -9999.9999  2407.6760  6130.1392   133.9294     0.0000    53.3594    53.3594    96.9108     0.0000    73.8669   382.1043    73.0691     0.0838     0.0865     0.0508     0.0000     0.0923     0.0943     0.2825     6.9531     7.0256    -0.0309     0.0000  4020.0002     0.0902     0.1345
   8570.0000    17.8188   362.6795  1950.0000  1950.0000  1950.0000    19.4265   492.1960   147.0028   115.2758   104.5168    18.5866   670.1915   283.4058  1084.6007   457.4232   105.2742    18.2720 -9999.9999  2383.5005  6072.6812   133.9294     0.0000    53.5547    53.5547    96.6761     0.0000    72.5145   382.3023    66.5960     0.0879     0.0839     0.0507     0.0000     0.0851     0.0929     0.2786     7.7344     7.1164    -0.0285     0.0000  4011.6667     0.0860     0.1312
   8570.5000    19.4680   201.3512  1069.8378  1950.0000  1950.0000    15.4715   218.7553    60.0868    50.3228    49.4276    17.5748   185.7122   220.0340   283.5663   190.2208    50.3228    16.0843 -9999.9999  2510.7507  6185.1978   133.9294     0.0000    53.2031    53.2031    98.0373     0.0000    78.7654   382.5134    77.8783     0.0836     0.0792     0.0507     0.0000     0.0820     0.0832     0.2913     7.4609     6.9730    -0.0329     0.0000  4044.6667     0.0800     0.1254
   8571.0000    21.8871   117.4879  1368.3893  1950.0000  1950.0000    17.7981    89.7708    30.4007    31.4880    30.3856    17.2927    90.9489   158.8886   356.4824   164.4875    31.4880    14.8317 -9999.9999  2674.6067  6444.8076   133.9294     0.0000    53.1836    53.1836   101.4124     0.0000    85.3756   382.7267    91.8219     0.0833     0.0761     0.0507     0.0000     0.0779     0.0659     0.3103     8.4766     7.0735    -0.0331     0.0000  3989.0002     0.0717     0.1214
   8571.5000    25.0583    74.4580  1547.8197  1950.0000  1950.0000    12.9686    54.0279    21.5229    25.7346    24.8767    16.8075    45.3519   128.2444   264.4197   225.5170    25.7346    14.1793 -9999.9999  2760.1658  6533.3315   133.9294     0.0000    53.5156    53.5156    92.8402     0.0000    84.3557   382.9596    86.4265     0.0697     0.0705     0.0507     0.0000     0.0722     0.0597     0.2512     8.5156     6.9823    -0.0290     0.0000  4010.0000     0.0672     0.1144
   8572.0000    29.1884    51.0150  1607.9196  1943.9313  1933.2367    13.3430    43.0810    29.3234    27.8560    26.9472    21.9544    49.0461   207.0854   633.4191   231.6531    27.8560    13.9911 -9999.9999  2781.3171  6150.4458   133.9294     0.0000    53.9453    53.9453    95.1791     0.0000    83.8811   383.2004    74.6079     0.0690     0.0620     0.0506     0.0000     0.0698     0.0714     0.2634     8.0078     6.6819    -0.0238     0.0000  4040.0002     0.0660     0.1035
   8572.5000    34.7990    37.9870  1576.2762  1758.2920  1723.5801    12.8201    32.4492    50.8456    35.5054    34.2746    23.6208    33.0433   231.1725   285.7207   227.1076    35.5054    14.8586 -9999.9999  2717.9241  6246.1509   133.9294     0.0000    54.1602    54.1602    95.8398     0.0000    87.0804   383.4707    90.3983     0.0570     0.0666     0.0506     0.0000     0.0691     0.0754     0.2654     7.6563     6.5389    -0.0212     0.0000  4000.3333     0.0708     0.1094
   8573.0000    43.2468    30.8851  1374.5068  1419.6619  1360.8173    12.3973    16.7711    56.1741    25.1309    24.3296    25.8594    24.6415   256.5388   301.2868   271.0566    25.1309    16.7966 -9999.9999  2620.9373  6126.5596   133.9294     0.0000    53.8184    53.8184    95.4914     0.0000   100.1857   383.7341    96.0243     0.0726     0.0702     0.0506     0.0000     0.0654     0.1195     0.2673     7.4219     6.4440    -0.0253     0.0000  4058.3335     0.0808     0.1140
   8573.5000    56.4158    27.4663  1043.2046  1011.0251   949.4287    13.5645    11.8793    64.6607    14.9552    14.5236    30.9885    20.8700   252.7152   284.6158   296.9228    15.0230    15.4808 -9999.9999  3340.4397  6820.8145   133.9294     0.0000    58.7207    58.7207    93.1756     0.0000   114.2264   383.9664   114.1345     0.0662     0.0543     0.0506     0.0000     0.0650     0.1814     0.1706     6.4063     6.2031     0.0290     0.0000  4042.5000     0.0960     0.0938
   8574.0000    83.4719    26.6212   733.4465   672.8437   624.0681    23.0975     8.3260    34.2052    22.8170    22.1860    41.5985    20.3173   191.2119   208.1574   227.7236    22.8170    23.4162 -9999.9999  4613.3057 10510.7148   133.9294     0.0000    69.0527    69.0527   106.6910     0.0000   129.4757   384.2217   132.9860     0.0784     0.0742     0.0505     0.0000     0.0601     0.1016     0.1396     5.0000     5.9365     0.1181     0.0000  4048.6667     0.0690     0.1190
   8574.5000   129.6769    27.6727   523.7272   455.3545   421.7686    78.8393    17.0673    70.4275    21.3105    20.7755    59.8588    22.8928   136.6087   143.5680   149.2943    21.3105    34.5332 -9999.9999  7841.4058 16551.1016   133.9294     0.0000    67.1094    67.1094    98.8783     0.0000   145.9312   384.4298   141.7722     0.0481     0.0586     0.0505     0.0000     0.0490     0.0079     0.0730     4.1406     5.8588     0.1035     0.0000  4088.9998     0.0334     0.0992
   8575.0000   214.3053    30.9988   397.7924   330.3148   307.2536   247.9432    23.6274    71.0578    16.8817    16.3418    96.8426    24.3628   127.1320   141.4767   112.6632    16.8817    52.3898 -9999.9999 12406.7734 18836.6133   133.9294     0.0000    54.5703    54.5703    85.0545     0.0000   156.4491   384.6478   163.5009     0.0144     0.0193     0.0505     0.0000     0.0305    -0.0059     0.1502     3.2813     5.8755    -0.0164     0.0000  4076.0005     0.0157     0.0495
   8575.5000   392.5139    36.1930   314.5392   255.2002   237.4640  1126.8785    47.5847    46.7915    15.5819    15.2900   191.0168    35.8108   123.9323   125.8337   111.6507    15.5819    92.5423 -9999.9999 14300.6748 19412.2656   133.9294     0.0000    50.1660    50.1660    85.5052     0.0000   163.1756   384.8884   164.0742     0.0073     0.0088     0.0504     0.0000     0.0163    -0.0005     0.2376     5.1563     6.4122    -0.0727     0.0000  4077.0002     0.0100     0.0367
   8576.0000   717.3162    41.5404   291.6078   210.5980   190.8091  1950.0000    83.8487    54.3246    17.1298    16.7804   410.5037    48.8727   166.0330   193.4647   189.9021    17.1298   180.9249 -9999.9999 13881.1768 18926.2363   133.9294     0.0000    51.2695    51.2695    91.2385     0.0000   143.5799   385.1219   161.9514     0.0132     0.0107     0.0504     0.0000     0.0147     0.0059     0.2693     6.9922     7.1543    -0.0577     0.0000  4136.5005     0.0097     0.0391
   8576.5000  1213.4611    44.2310   376.4248   249.9496   245.7231  1950.0000   109.9847    56.2470    22.3528    21.7970   872.4678    64.2204   123.8579   137.2108   148.8762    22.3528   378.1484 -9999.9999 12903.0781 18469.2422   133.9294     0.0000    51.7090    51.7090    93.2845     0.0000   125.2868   385.3463   105.2380     0.0127     0.0137     0.0504     0.0000     0.0148     0.0086     0.2782     8.1641     7.8627    -0.0519     0.0000  4097.0000     0.0114     0.0427
   8577.0000  1876.3757    45.1339   478.3424   330.2967   329.3838  1950.0000   127.6880    86.2220    37.5549    36.6462  1950.0000    75.7472   187.8312   172.6349   135.7633    37.5549   799.3411 -9999.9999 12663.9893 17249.9492   133.9294     0.0000    52.0117    52.0117    93.9606     0.0000   107.6934   385.5693   109.1949     0.0138     0.0105     0.0504     0.0000     0.0151     0.0202     0.2791     9.1016     8.6035    -0.0479     0.0000  4099.9995     0.0129     0.0387
