~VERSION INFORMATION
VERS.           1.2   :CWLS Log ASCII Standard - VERSION 1.2
WRAP.           NO    :One Line per depth step
PROD.  Schlumberger   :LAS Producer
PROG.  DLIS to ASCII 2.3                               :LAS Program name and version
CREA.        2021/07/30 13:36                          :LAS Creation date {YYYY/MM/DD hh:mm}
DLIS_CREA.  2021-Jul-30 07:08                          :DLIS Creation date and time {YYYY-MMM-DD hh:mm}
SOURCE.     9adb19af-6988-40d6-a86c-1e71535bb624       :DLIS File Name
#--------------------------------------------------
~WELL INFORMATION
#MNEM.UNIT      DATA             DESCRIPTION
#---- ------ --------------   -----------------------------
STRT .F        5785.0000     :START DEPTH     
STOP .F        9045.0000     :STOP DEPTH     
STEP .F           0.5000       :STEP     
NULL .          -999.25      :NULL VALUE
COMP .                 COMPANY:  University Of Utah                 
WELL .                    WELL:  FORGE 78B-32                       
FLD  .                   FIELD:  None                               
LOC  .                LOCATION:  Lat: 38.500171, Long: -112.88221   
CNTY .                  COUNTY:  Beaver                             
STAT .                   STATE:  Utah                               
CTRY .                 COUNTRY:                                     
SRVC .         SERVICE COMPANY:  Schlumberger                       
LATI .DEG             LATITUDE:  38 30' 0.616" N                   
LONG .DEG            LONGITUDE:  112 52' 55.956" W                 
API  .              API NUMBER:  NRC 42-00090-03                    
DATE .                LOG DATE:  30-Jul-2021
UWI  .          UNIQUE WELL ID:                                     
#-----------------------------------------------------------------------------
~PARAMETER INFORMATION
#MNEM.UNIT    VALUE                      DESCRIPTION
#---- -----   --------------------       ------------------------
CN   .        University Of Utah         :Company Name
WN   .        FORGE 78B-32               :Well Name
FN   .        None                       :Field Name
FL   .        Lat  38.500171  Long  -112.88221 :Field Location
FL1  .                                   :Field Location, Line 1
COUN .        Beaver                     :County or Parish
STAT .        Utah                       :State or Province
NATI .                                   :Nation
DATE .        30-Jul-2021                :Tools Above Rotary Table Date
APIN .        NRC 42-00090-03            :API Well Number
SECT .                                   :Section
TOWN .                                   :Township
RANG .                                   :Range
DMF  .        KB                         :Drilling Measured From (Name of Drilling Elevation Reference)
LMF  .        KB                         :Logging Measured From (Name of Logging Elevation Reference)
PDAT .        GL                         :Permanent Datum
ENGI .        CSTILES                    :Engineer s Name
WITN .        Virgil  Welch              :Witness s Name
LATI .        38� 30' 0.616  N           :Latitude
LONG .        112� 52' 55.956  W         :Longitude
LUL  .        F.Morgan                   :Logging Unit Location
LUN  .        9108                       :Logging Unit Number
RUN  .        1B                         :Run Number
SON  .                                   :Service Order Number
BHT  .DEGF     419.00000                 :Bottom Hole Temperature
BS   .IN         5.75000                 :Bit Size
MDEN .G/C3       2.71000                 :Matrix Density for Density Porosity
DFD  .LB/G       8.30000                 :Drilling Fluid Density
DFV  .S         24.00000                 :Drilling Fluid Viscosity
DFL  .C3      -999.25000                 :Drilling Fluid Loss
RMFS .OHMM       4.42000                 :Resistivity of Mud Filtrate Sample
EKB  .F       5565.50000                 :Elevation of Kelly Bushing
EGL  .F       5536.00000                 :Elevation of Ground Level
BLI  .F       9532.00000                 :Bottom Log Interval
BSAL .PPM      700.00000                 :Borehole Salinity
FLEV .F          8.00000                 :Depth of Drilling Fluid Level to LMF (Log Measured From)
MCST .DEGF      62.00000                 :Mudcake Sample Temperature
MFST .DEGF      62.00000                 :Mud Filtrate Sample Temperature
MRT  .DEGF     419.00000                 :Maximum Recorded Temperature
MST  .DEGF      62.00000                 :Mud Sample Temperature
RMCS .OHMM       6.21000                 :Resistivity of Mud Cake Sample
RMS  .OHMM       5.20000                 :Resistivity of Mud Sample
RW   .OHMM       1.00000                 :Connate Water Resistivity
TDD  .F       9500.00000                 :Driller Total Depth
TDL  .F       9532.00000                 :Logger Total Depth
TLI  .F       8530.00000                 :Top Log Interval
HIDE .                                   :Header Identifier
MATR .        LIME                       :Rock Matrix for Neutron Porosity Corrections
FNUM .           1.00000                 :F-Numerator for Formation Factor Formula
FEXP .           2.00000                 :Exponent "m" for Formation Factor Formula
DFT  .        WATER                      :Drilling Fluid Type
DFPH .          11.00000                 :Drilling Fluid pH
MCSS .        Calculated                 :Mudcake Sample Source
MFSS .        Calculated                 :Mud Filtrate Sample Source
FD   .G/C3       1.00000                 :Fluid Density
MSS  .        Flowline                   :Mud Sample Source
OS1  .                                   :Other Services Line 1
OS2  .                                   :Other Services Line 2
OS3  .                                   :Other Services Line 3
OS4  .                                   :Other Services Line 4
OS5  .                                   :Other Services Line 5
R1   .                                   :Remarks Line 1
R2   .                                   :Remarks Line 2
R3   .                                   :Remarks Line 3
R4   .                                   :Remarks Line 4
R5   .                                   :Remarks Line 5
R6   .        Tool was run as per tool sketch :Remarks Line 6
R7   .        All logging intervals as per client request :Remarks Line 7
R8   .                                   :Remarks Line 8
TCS  .        20 00 00                   :Time Circulation Stopped
TLAB .        02 17 00                   :Time Logger At Bottom
NMT  .        NOBARITE                   :HRDD Mud Type for Nuclear Devices
EPD  .C3         5536.000000             :Elevation of Permanent Datum above Mean Sea Level
APD  .F          29.500000               :Elevation of Depth Reference (LMF) above Permanent Datum
#-----------------------------------------------------------------------------
~CURVE INFORMATION
#MNEM.UNIT   API CODE                                  DESCRIPTION
#---- -----  --------                                  -----------------------
DEPT .F                                                :DEPTH (BOREHOLE) {F12.4}
AF10 .OHMM                                             :Array Induction Four Foot Resistivity A10 {F11.4}
AF20 .OHMM                                             :Array Induction Four Foot Resistivity A20 {F11.4}
AF30 .OHMM                                             :Array Induction Four Foot Resistivity A30 {F11.4}
AF60 .OHMM                                             :Array Induction Four Foot Resistivity A60 {F11.4}
AF90 .OHMM                                             :Array Induction Four Foot Resistivity A90 {F11.4}
AO10 .OHMM                                             :Array Induction One Foot Resistivity A10 {F11.4}
AO20 .OHMM                                             :Array Induction One Foot Resistivity A20 {F11.4}
AO30 .OHMM                                             :Array Induction One Foot Resistivity A30 {F11.4}
AO60 .OHMM                                             :Array Induction One Foot Resistivity A60 {F11.4}
AO90 .OHMM                                             :Array Induction One Foot Resistivity A90 {F11.4}
AT10 .OHMM                                             :Array Induction Two Foot Resistivity A10 {F11.4}
AT20 .OHMM                                             :Array Induction Two Foot Resistivity A20 {F11.4}
AT30 .OHMM                                             :Array Induction Two Foot Resistivity A30 {F11.4}
AT60 .OHMM                                             :Array Induction Two Foot Resistivity A60 {F11.4}
AT90 .OHMM                                             :Array Induction Two Foot Resistivity A90 {F11.4}
AORT .OHMM                                             :Array Induction One Foot Rt {F11.4}
AORX .OHMM                                             :Array Induction One Foot Rxo {F11.4}
CDF  .LBF                                              :Calibrated Downhole Force {F11.4}
CFTC .HZ                                               :Corrected Far Thermal Count Rate {F11.4}
CNTC .HZ                                               :Corrected Near Thermal Count Rate {F11.4}
CTEM .DEGF                                             :Cartridge Temperature {F11.4}
DCAL .IN                                               :Differential Caliper {F11.4}
DT   .US/F                                             :Delta-T (also called Slowness or Interval Transit Time) {F11.4}
DTCO .US/F                                             :Delta-T Compressional {F11.4}
DTSM .US/F                                             :Delta-T Shear {F11.4}
ED   .F                                                :East Departure {F11.4}
GR_STGC.GAPI                                           :Gamma Ray {F11.4}
GTEM .DEGF                                             :Generalized Borehole Temperature {F11.4}
HGR_STGC.GAPI                                          :High Resolution Gamma Ray {F11.4}
HNPO .CFCF                                             :High Resolution Enhanced Thermal Neutron Porosity in Selected Lithology {F11.4}
HTNP .CFCF                                             :High Resolution Thermal Neutron Porosity (Ratio Method) in Selected Lithology {F11.4}
ITT  .S                                                :Integrated Transit Time {F11.4}
ND   .F                                                :North Departure {F11.4}
NPHI .CFCF                                             :Thermal Neutron Porosity (original Ratio Method) in Selected Lithology {F11.4}
NPOR .CFCF                                             :Enhanced Thermal Neutron Porosity in Selected Lithology {F11.4}
PR   .                                                 :Poisson s Ratio {F11.4}
SP   .MV                                               :Spontaneous Potential {F11.4}
SPAR .MV                                               :SP, Armor Return Compensated {F11.4}
SPHI .CFCF                                             :Sonic Porosity {F11.4}
STIT .F                                                :Stuck Tool Indicator, Total {F11.4}
TENS .LBF                                              :Cable Tension {F11.4}
TNPH .CFCF                                             :Thermal Neutron Porosity (Ratio Method) in Selected Lithology {F11.4}
HTNP_SAN.CFCF                                          :HiRes Thermal Neutron Porosity (matrix Sandstone) {F11.4}
#-----------------------------------------------------------------------------
# 
#      DEPT        AF10       AF20       AF30       AF60       AF90       AO10       AO20       AO30       AO60       AO90       AT10       AT20       AT30       AT60       AT90       AORT       AORX       CDF        CFTC       CNTC       CTEM       DCAL        DT        DTCO       DTSM        ED      GR_STGC      GTEM     HGR_STGC     HNPO       HTNP       ITT         ND        NPHI       NPOR        PR         SP        SPAR       SPHI       STIT       TENS       TNPH     HTNP_SAN
#
~A  
# ...
   6439.5000     0.4621     6.9277  1950.0000     8.7411    79.2519     0.2984    11.0620  1395.8488     3.9166     9.1699     0.3198     6.9859  1950.0000    11.6055  1950.0000     3.6077     0.3101 -9999.9999  3182.5308  7064.6431   100.3294     0.0000    55.8594    55.8594    93.1934     0.0000    84.6051   317.5531    85.5893     0.0503     0.0496     0.0539     0.0000     0.0257     0.0483     0.2196    59.3750    59.8885    -0.0016     0.0000  2528.0000     0.0513     0.0878
   6440.0000     0.4273    14.2793  1950.0000     7.5941    65.9053     0.2700    42.2152  1154.4641     3.1417     5.7660     0.2893    14.6416  1950.0000     8.9164  1950.0000     3.2468     0.2837 -9999.9999  2918.8660  7102.4453   100.3294     0.0000    55.8594    55.8594    95.7960     0.0000    80.7172   317.5803    81.9930     0.0515     0.0520     0.0539     0.0000     0.0136     0.0465     0.2424    58.7500    59.3364    -0.0016     0.0000  2528.0000     0.0433     0.0908
   6440.5000     0.3988    34.0959  1950.0000     6.9902    59.2818     0.2478   250.4422  1154.4640     2.7926     4.6346     0.2678    35.7656  1950.0000     7.4596  1950.0000     2.9721     0.2653  5128.0889  3677.4775  6968.8481   100.3294     0.0000    55.1270    55.1270    93.6754     0.0000    78.2022   317.6257    78.4572     0.0345     0.0282     0.0539     0.0000     0.0072     0.0429     0.2351    58.1250    58.9968    -0.0099     0.0000  2529.0000     0.0328     0.0606
   6441.0000     0.3757    95.9683  1950.0000     6.4276    55.6111     0.2417  1950.0000  1034.9357     2.7567     4.6617     0.2530   101.7785  1950.0000     6.2822  1950.0000     2.7466     0.2530 10254.9316  4188.6553  7811.3130   100.3294     0.0000    53.6621    53.6621    93.6754     0.0000    74.8362   317.6302    76.6714     0.0157     0.0207     0.0539     0.0000    -0.0049     0.0142     0.2558    57.8125    58.5709    -0.0272     0.0000  2540.0000     0.0216     0.0512
   6441.5000     0.3570   325.6801  1950.0000     5.9547    50.9669     0.2420  1950.0000  1430.8854     2.6271     4.5400     0.2432   347.4439  1950.0000     5.8347   119.6169     2.5537     0.2453 10254.7529  4427.7935  7658.0747   100.3294     0.0000    40.8594    40.8594    91.8938     0.0000    71.9313   317.6733    72.7460     0.0204     0.0178     0.0540     0.0000    -0.0096     0.0146     0.3768    57.5000    58.0671    -0.2316     0.0000  2537.0000     0.0140     0.0476
   6442.0000     0.3421  1223.8661  1950.0000     5.5811    48.1701     0.2342  1950.0000  1800.5134     2.4399     4.1170     0.2371  1504.8597  1950.0000     5.4424    50.1710     2.3872     0.2412 -9999.9999  4996.4087  8041.0181   100.3294     0.0000    57.9297    57.9297    91.8938     0.0000    69.8265   317.6075    68.4669     0.0135     0.0148     0.0540     0.0000    -0.0143     0.0113     0.1703    57.5000    56.8317     0.0208     0.0000  2538.0000     0.0124     0.0440
   6442.5000     0.3302  1950.0000  1950.0000     5.3736    46.0579     0.2293  1950.0000  1950.0000     2.2503     3.6518     0.2341  1950.0000  1950.0000     5.1645    30.7087     2.2484     0.2402 -9999.9999  5029.6846  7925.6401   100.3294     0.0000    57.9297    57.9297    91.8999     0.0000    71.6622   317.6574    70.1017     0.0080     0.0093     0.0540     0.0000    -0.0122     0.0134     0.1703    56.8750    56.2107     0.0208     0.0000  2544.0002     0.0115     0.0373
   6443.0000     0.3212  1950.0000  1950.0000     5.2633    44.8239     0.2355  1950.0000  1950.0000     2.0340     3.2654     0.2340  1950.0000  1950.0000     4.9844    21.9384     2.1414     0.2420 -9999.9999  4584.4785  8538.7529   100.3294     0.0000    57.9297    57.9297    90.1638     0.0000    75.7146   317.7164    76.4181     0.0191     0.0132     0.0540     0.0000    -0.0116     0.0042     0.1485    56.2500    55.5573     0.0208     0.0000  2546.0002     0.0141     0.0420
   6443.5000     0.3148  1950.0000  1950.0000     5.2394    44.1034     0.2410  1950.0000  1950.0000     1.8994     3.1725     0.2369  1950.0000  1950.0000     4.9287    17.9421     2.0720     0.2464 10255.8203  4765.8325  7849.6035   100.3294     0.0000    57.9297    57.9297    90.1638     0.0000    81.4180   317.6801    80.2418     0.0125     0.0188     0.0541     0.0000    -0.0099     0.0211     0.1485    55.6250    54.3291     0.0208     0.0000  2548.0002     0.0150     0.0489
   6444.0000     0.3107  1950.0000  1950.0000     5.2999    43.7823     0.2449  1950.0000  1950.0000     1.9060     3.4316     0.2426  1950.0000  1950.0000     5.0099    16.4580     2.0424     0.2532 10253.6865  4881.2676  8174.9951   100.3294     0.0000    57.9297    57.9297    88.4692     0.0000    88.5498   317.7527    83.5844     0.0149     0.0118     0.0541     0.0000    -0.0124     0.0144     0.1247    55.0000    53.6784     0.0208     0.0000  2544.0002     0.0149     0.0403
   6444.5000     0.3085  1950.0000  1950.0000     5.4357    43.6408     0.2598  1950.0000  1950.0000     1.9654     3.7854     0.2508  1950.0000  1950.0000     5.2065    16.4121     2.0509     0.2618  5127.3765  4683.1484  8021.8335   100.3294     0.0000    57.9297    57.9297    89.3415     0.0000    96.4563   317.6756    90.7458     0.0161     0.0146     0.0541     0.0000    -0.0107     0.0153     0.1373    53.7500    53.0667     0.0208     0.0000  2548.0002     0.0144     0.0438
   6445.0000     0.3079  1950.0000  1950.0000     5.6272    43.4186     0.2805  1950.0000  1950.0000     2.0176     4.0395     0.2606  1950.0000  1950.0000     5.4710    17.1623     2.0919     0.2715 -9999.9999  4666.8872  8174.5933   100.3294     0.0000    57.9297    57.9297    89.3415     0.0000   102.5406   317.6938    99.9900     0.0150     0.0165     0.0542     0.0000    -0.0110     0.0087     0.1373    53.1250    52.5198     0.0208     0.0000  2547.0002     0.0135     0.0460
   6445.5000     0.3081  1950.0000  1950.0000     5.8455    42.9354     0.2887  1950.0000  1950.0000     2.1370     4.5291     0.2711  1950.0000  1950.0000     5.7415    18.3292     2.1562     0.2815 -9999.9999  4864.7769  8060.1235   100.3294     0.0000    68.6621    68.6621    88.7877     0.0000   105.6002   317.7437   104.7174     0.0150     0.0140     0.0542     0.0000    -0.0132     0.0110  -999.2500    51.8750    51.8409     0.1153     0.0000  2543.0002     0.0133     0.0430
   6446.0000     0.3090  1950.0000  1950.0000     6.0579    42.1762     0.2920  1950.0000  1950.0000     2.3191     5.3844     0.2816  1950.0000  1950.0000     5.9718    19.9638     2.2325     0.2909 -5126.1323  4699.9155  7409.1870   100.3294     0.0000    85.5371    85.5371    88.7877     0.0000   109.2847   317.7618   106.4830     0.0229     0.0125     0.0542     0.0000    -0.0129     0.0268  -999.2500    50.6250    51.4945     0.2158     0.0000  2552.0000     0.0135     0.0412
   6446.5000     0.3100  1950.0000  1950.0000     6.2358    41.2624     0.3028  1950.0000  1950.0000     2.4123     5.9517     0.2912  1950.0000  1950.0000     6.1525    22.6034     2.3104     0.2989 10255.2871  4600.9248  8136.7842   100.3294     0.0000    85.6348    85.6348    87.3712     0.0000   114.3779   317.7482   112.5955     0.0112     0.0159     0.0543     0.0000    -0.0119     0.0061  -999.2500    50.6250    51.2765     0.2163     0.0000  2556.5000     0.0138     0.0453
   6447.0000     0.3110  1950.0000  1950.0000     6.3606    40.3373     0.3154  1950.0000  1950.0000     2.4063     6.0621     0.2994  1950.0000  1950.0000     6.2947    27.2150     2.3838     0.3052 10254.7529  4584.1636  7887.8169   100.3294     0.0000    80.4199    80.4199    88.2396     0.0000   121.6461   317.7527   118.9621     0.0150     0.0154     0.0543     0.0000    -0.0100     0.0150  -999.2500    50.0000    51.1983     0.1898     0.0000  2555.0000     0.0158     0.0447
   6447.5000     0.3117  1950.0000  1950.0000     6.4237    39.4753     0.3193  1950.0000  1950.0000     2.4253     6.3415     0.3056  1950.0000  1950.0000     6.4005    35.1288     2.4527     0.3095     1.0665  4477.2651  7561.9028   100.3294     0.0000    81.2500    81.2500    88.2396     0.0000   125.9762   317.7346   126.1126     0.0235     0.0178     0.0544     0.0000    -0.0058     0.0295  -999.2500    50.0000    50.7830     0.1942     0.0000  2551.0000     0.0202     0.0476
