~VERSION INFORMATION
VERS.           1.2   :CWLS Log ASCII Standard - VERSION 1.2
WRAP.           NO    :One Line per depth step
PROD.  Schlumberger   :LAS Producer
PROG.  DLIS to ASCII 2.3                               :LAS Program name and version
CREA.        2021/07/30 13:36                          :LAS Creation date {YYYY/MM/DD hh:mm}
DLIS_CREA.  2021-Jul-30 07:08                          :DLIS Creation date and time {YYYY-MMM-DD hh:mm}
SOURCE.     9adb19af-6988-40d6-a86c-1e71535bb624       :DLIS File Name
#--------------------------------------------------
~WELL INFORMATION
#MNEM.UNIT      DATA             DESCRIPTION
#---- ------ --------------   -----------------------------
STRT .F        5785.0000     :START DEPTH     
STOP .F        9045.0000     :STOP DEPTH     
STEP .F           0.5000       :STEP     
NULL .          -999.25      :NULL VALUE
COMP .                 COMPANY:  University Of Utah                 
WELL .                    WELL:  FORGE 78B-32                       
FLD  .                   FIELD:  None                               
LOC  .                LOCATION:  Lat: 38.500171, Long: -112.88221   
CNTY .                  COUNTY:  Beaver                             
STAT .                   STATE:  Utah                               
CTRY .                 COUNTRY:                                     
SRVC .         SERVICE COMPANY:  Schlumberger                       
LATI .DEG             LATITUDE:  38 30' 0.616" N                   
LONG .DEG            LONGITUDE:  112 52' 55.956" W                 
API  .              API NUMBER:  NRC 42-00090-03                    
DATE .                LOG DATE:  30-Jul-2021
UWI  .          UNIQUE WELL ID:                                     
#-----------------------------------------------------------------------------
~PARAMETER INFORMATION
#MNEM.UNIT    VALUE                      DESCRIPTION
#---- -----   --------------------       ------------------------
CN   .        University Of Utah         :Company Name
WN   .        FORGE 78B-32               :Well Name
FN   .        None                       :Field Name
FL   .        Lat  38.500171  Long  -112.88221 :Field Location
FL1  .                                   :Field Location, Line 1
COUN .        Beaver                     :County or Parish
STAT .        Utah                       :State or Province
NATI .                                   :Nation
DATE .        30-Jul-2021                :Tools Above Rotary Table Date
APIN .        NRC 42-00090-03            :API Well Number
SECT .                                   :Section
TOWN .                                   :Township
RANG .                                   :Range
DMF  .        KB                         :Drilling Measured From (Name of Drilling Elevation Reference)
LMF  .        KB                         :Logging Measured From (Name of Logging Elevation Reference)
PDAT .        GL                         :Permanent Datum
ENGI .        CSTILES                    :Engineer s Name
WITN .        Virgil  Welch              :Witness s Name
LATI .        38� 30' 0.616  N           :Latitude
LONG .        112� 52' 55.956  W         :Longitude
LUL  .        F.Morgan                   :Logging Unit Location
LUN  .        9108                       :Logging Unit Number
RUN  .        1B                         :Run Number
SON  .                                   :Service Order Number
BHT  .DEGF     419.00000                 :Bottom Hole Temperature
BS   .IN         5.75000                 :Bit Size
MDEN .G/C3       2.71000                 :Matrix Density for Density Porosity
DFD  .LB/G       8.30000                 :Drilling Fluid Density
DFV  .S         24.00000                 :Drilling Fluid Viscosity
DFL  .C3      -999.25000                 :Drilling Fluid Loss
RMFS .OHMM       4.42000                 :Resistivity of Mud Filtrate Sample
EKB  .F       5565.50000                 :Elevation of Kelly Bushing
EGL  .F       5536.00000                 :Elevation of Ground Level
BLI  .F       9532.00000                 :Bottom Log Interval
BSAL .PPM      700.00000                 :Borehole Salinity
FLEV .F          8.00000                 :Depth of Drilling Fluid Level to LMF (Log Measured From)
MCST .DEGF      62.00000                 :Mudcake Sample Temperature
MFST .DEGF      62.00000                 :Mud Filtrate Sample Temperature
MRT  .DEGF     419.00000                 :Maximum Recorded Temperature
MST  .DEGF      62.00000                 :Mud Sample Temperature
RMCS .OHMM       6.21000                 :Resistivity of Mud Cake Sample
RMS  .OHMM       5.20000                 :Resistivity of Mud Sample
RW   .OHMM       1.00000                 :Connate Water Resistivity
TDD  .F       9500.00000                 :Driller Total Depth
TDL  .F       9532.00000                 :Logger Total Depth
TLI  .F       8530.00000                 :Top Log Interval
HIDE .                                   :Header Identifier
MATR .        LIME                       :Rock Matrix for Neutron Porosity Corrections
FNUM .           1.00000                 :F-Numerator for Formation Factor Formula
FEXP .           2.00000                 :Exponent "m" for Formation Factor Formula
DFT  .        WATER                      :Drilling Fluid Type
DFPH .          11.00000                 :Drilling Fluid pH
MCSS .        Calculated                 :Mudcake Sample Source
MFSS .        Calculated                 :Mud Filtrate Sample Source
FD   .G/C3       1.00000                 :Fluid Density
MSS  .        Flowline                   :Mud Sample Source
OS1  .                                   :Other Services Line 1
OS2  .                                   :Other Services Line 2
OS3  .                                   :Other Services Line 3
OS4  .                                   :Other Services Line 4
OS5  .                                   :Other Services Line 5
R1   .                                   :Remarks Line 1
R2   .                                   :Remarks Line 2
R3   .                                   :Remarks Line 3
R4   .                                   :Remarks Line 4
R5   .                                   :Remarks Line 5
R6   .        Tool was run as per tool sketch :Remarks Line 6
R7   .        All logging intervals as per client request :Remarks Line 7
R8   .                                   :Remarks Line 8
TCS  .        20 00 00                   :Time Circulation Stopped
TLAB .        02 17 00                   :Time Logger At Bottom
NMT  .        NOBARITE                   :HRDD Mud Type for Nuclear Devices
EPD  .C3         5536.000000             :Elevation of Permanent Datum above Mean Sea Level
APD  .F          29.500000               :Elevation of Depth Reference (LMF) above Permanent Datum
#-----------------------------------------------------------------------------
~CURVE INFORMATION
#MNEM.UNIT   API CODE                                  DESCRIPTION
#---- -----  --------                                  -----------------------
DEPT .F                                                :DEPTH (BOREHOLE) {F12.4}
AF10 .OHMM                                             :Array Induction Four Foot Resistivity A10 {F11.4}
AF20 .OHMM                                             :Array Induction Four Foot Resistivity A20 {F11.4}
AF30 .OHMM                                             :Array Induction Four Foot Resistivity A30 {F11.4}
AF60 .OHMM                                             :Array Induction Four Foot Resistivity A60 {F11.4}
AF90 .OHMM                                             :Array Induction Four Foot Resistivity A90 {F11.4}
AO10 .OHMM                                             :Array Induction One Foot Resistivity A10 {F11.4}
AO20 .OHMM                                             :Array Induction One Foot Resistivity A20 {F11.4}
AO30 .OHMM                                             :Array Induction One Foot Resistivity A30 {F11.4}
AO60 .OHMM                                             :Array Induction One Foot Resistivity A60 {F11.4}
AO90 .OHMM                                             :Array Induction One Foot Resistivity A90 {F11.4}
AT10 .OHMM                                             :Array Induction Two Foot Resistivity A10 {F11.4}
AT20 .OHMM                                             :Array Induction Two Foot Resistivity A20 {F11.4}
AT30 .OHMM                                             :Array Induction Two Foot Resistivity A30 {F11.4}
AT60 .OHMM                                             :Array Induction Two Foot Resistivity A60 {F11.4}
AT90 .OHMM                                             :Array Induction Two Foot Resistivity A90 {F11.4}
AORT .OHMM                                             :Array Induction One Foot Rt {F11.4}
AORX .OHMM                                             :Array Induction One Foot Rxo {F11.4}
CDF  .LBF                                              :Calibrated Downhole Force {F11.4}
CFTC .HZ                                               :Corrected Far Thermal Count Rate {F11.4}
CNTC .HZ                                               :Corrected Near Thermal Count Rate {F11.4}
CTEM .DEGF                                             :Cartridge Temperature {F11.4}
DCAL .IN                                               :Differential Caliper {F11.4}
DT   .US/F                                             :Delta-T (also called Slowness or Interval Transit Time) {F11.4}
DTCO .US/F                                             :Delta-T Compressional {F11.4}
DTSM .US/F                                             :Delta-T Shear {F11.4}
ED   .F                                                :East Departure {F11.4}
GR_STGC.GAPI                                           :Gamma Ray {F11.4}
GTEM .DEGF                                             :Generalized Borehole Temperature {F11.4}
HGR_STGC.GAPI                                          :High Resolution Gamma Ray {F11.4}
HNPO .CFCF                                             :High Resolution Enhanced Thermal Neutron Porosity in Selected Lithology {F11.4}
HTNP .CFCF                                             :High Resolution Thermal Neutron Porosity (Ratio Method) in Selected Lithology {F11.4}
ITT  .S                                                :Integrated Transit Time {F11.4}
ND   .F                                                :North Departure {F11.4}
NPHI .CFCF                                             :Thermal Neutron Porosity (original Ratio Method) in Selected Lithology {F11.4}
NPOR .CFCF                                             :Enhanced Thermal Neutron Porosity in Selected Lithology {F11.4}
PR   .                                                 :Poisson s Ratio {F11.4}
SP   .MV                                               :Spontaneous Potential {F11.4}
SPAR .MV                                               :SP, Armor Return Compensated {F11.4}
SPHI .CFCF                                             :Sonic Porosity {F11.4}
STIT .F                                                :Stuck Tool Indicator, Total {F11.4}
TENS .LBF                                              :Cable Tension {F11.4}
TNPH .CFCF                                             :Thermal Neutron Porosity (Ratio Method) in Selected Lithology {F11.4}
HTNP_SAN.CFCF                                          :HiRes Thermal Neutron Porosity (matrix Sandstone) {F11.4}
#-----------------------------------------------------------------------------
# 
#      DEPT        AF10       AF20       AF30       AF60       AF90       AO10       AO20       AO30       AO60       AO90       AT10       AT20       AT30       AT60       AT90       AORT       AORX       CDF        CFTC       CNTC       CTEM       DCAL        DT        DTCO       DTSM        ED      GR_STGC      GTEM     HGR_STGC     HNPO       HTNP       ITT         ND        NPHI       NPOR        PR         SP        SPAR       SPHI       STIT       TENS       TNPH     HTNP_SAN
#
~A  
# ...
   8819.5000  1950.0000    40.3389   416.7732  1209.0630  1950.0000  1950.0000    35.7819   285.1903   255.4480   241.4388  1950.0000    37.4277   361.8286   445.1472   641.8561   180.6991  1057.6605 -9597.4336 14049.7031 19509.1367   108.2353     0.0000    90.4297    90.4297    90.3241     0.0000   215.2588   393.5391   219.8045     0.0076     0.0097     0.2537     0.0000     0.0115    -0.0024  -999.2500     4.3750     3.4980     0.2380     0.0000  3111.0000     0.0067     0.0378
   8820.0000  1950.0000    39.6101   452.4897  1296.8452  1950.0000  1950.0000    40.5697   448.2090   382.2181   359.9765  1950.0000    38.8078   348.5630   378.5266   719.4919   155.6141  1384.2397 -9572.5488 14231.5332 18120.3633   108.2353     0.0000    90.4297    90.4297    90.5057     0.0000   220.1061   393.4885   220.8970     0.0040     0.0089     0.2537     0.0000     0.0117     0.0082  -999.2500     3.7500     3.5586     0.2380     0.0000  3109.0000     0.0079     0.0368
   8820.5000  1950.0000    39.6382   506.7078  1435.2279  1950.0000  1950.0000    37.3093   630.8856   586.2065   556.6962  1950.0000    41.4772   402.6892   478.4963   851.4196   149.5874  1648.3014 -9572.5488 12763.2285 16924.3457   108.2353     0.0000    90.4297    90.4297    90.5057     0.0000   222.4030   393.5437   220.3840     0.0040     0.0062     0.2538     0.0000     0.0129     0.0223     0.0748     3.4375     3.6022     0.2380     0.0000  3101.0000     0.0111     0.0336
   8821.0000  1950.0000    40.2625   554.5192  1600.4449  1950.0000  1950.0000    35.5929   742.1637   899.2182   859.0830  1950.0000    41.3233   452.3417   615.6321  1088.1528   147.8045  1800.3480 -9610.9424 11651.7539 16923.5137   108.2353     0.0000    61.5430    61.5430    90.7437     0.0000   223.1432   393.5621   224.4220     0.0124     0.0124     0.2538     0.0000     0.0180     0.0196     0.0741     3.1250     3.5967     0.0563     0.0000  3106.0000     0.0150     0.0411
   8821.5000  1950.0000    41.4882   578.9042  1763.8977  1950.0000  1950.0000    35.3665   515.8652   799.4943   755.2123  1950.0000    41.2715   476.8166   854.2133  1375.3435   144.3394  1877.6259 -9610.0898 11395.1211 17665.9180   108.2353     0.0000    59.4629    59.4629    90.6312     0.0000   222.8469   393.6035   224.4090     0.0132     0.0188     0.2538     0.0000     0.0217     0.0103     0.1221     3.1250     3.6248     0.0364     0.0000  3096.0000     0.0180     0.0489
   8822.0000  1950.0000    43.2012   570.7880  1885.6417  1950.0000  1950.0000    38.3074   324.6441   446.3458   418.6522  1950.0000    44.3167   462.7286  1194.4950  1604.6840   137.5060  1925.0740 -9595.2295 11040.3008 16847.7637   108.2353     0.0000    55.3027    55.3027    90.6312     0.0000   216.2016   393.6104   218.4438     0.0207     0.0201     0.2539     0.0000     0.0213     0.0233     0.2034     3.1250     3.6553    -0.0079     0.0000  3086.0000     0.0188     0.0505
   8822.5000  1950.0000    45.1368   542.5908  1941.4423  1950.0000  1950.0000    42.8307   202.6104   259.4545   245.4359  1950.0000    47.3172   406.0204  1570.5720  1676.3820   124.8080  1950.0000 -9537.8887 11741.4277 16780.3613   108.2353     0.0000    53.2227    53.2227    91.0234     0.0000   206.1539   393.5851   207.0309     0.0240     0.0173     0.2539     0.0000     0.0192     0.0235     0.2402     3.1250     3.6943    -0.0326     0.0000  3087.0000     0.0168     0.0470
   8823.0000  1950.0000    46.4920   513.7422  1886.9137  1950.0000  1950.0000    59.2692   152.7406   104.5283   100.1487  1950.0000    52.9790   413.7538  1829.9993  1573.5741    91.9655  1950.0000 -9538.2080 12383.8369 17805.0234   108.2353     0.0000    53.2227    53.2227    91.4216     0.0000   199.3657   393.6310   194.1418     0.0169     0.0143     0.2539     0.0000     0.0174     0.0044     0.2437     3.1250     3.9621    -0.0326     0.0000  3073.0000     0.0127     0.0434
   8823.5000  1950.0000    46.6822   492.1288  1660.1461  1950.0000  1950.0000    75.9860   263.0743   142.3708   137.3764  1950.0000    56.6727   492.6689  1831.7290  1324.0586   116.5116  1920.5674 -9588.7588 12236.2705 17497.6699   108.2353     0.0000    53.2227    53.2227    91.4216     0.0000   194.2885   393.6494   192.3754     0.0157     0.0142     0.2540     0.0000     0.0164     0.0087     0.2437     3.7500     4.0303    -0.0326     0.0000  3076.0000     0.0124     0.0432
   8824.0000  1950.0000    45.2963   475.8356  1257.4020  1946.2109  1950.0000    61.0750   254.3296   107.1606   104.4070  1950.0000    54.4371   490.9720  1453.9841   991.9056    97.1603  1859.5736 -9620.7188 12087.7334 16599.0391   108.2353     0.0000    54.7461    54.7461    91.2993     0.0000   192.4493   393.6909   193.8926     0.0191     0.0129     0.2540     0.0000     0.0168     0.0254     0.2193     3.7500     4.1151    -0.0143     0.0000  3088.0000     0.0149     0.0417
   8824.5000  1950.0000    42.7363   457.5076   828.0222  1797.2926  1950.0000    48.6675   144.8202    61.2073    60.2629  1950.0000    48.2274   467.9888   898.1793   646.3586    61.8754  1797.2566 -9619.8301 11807.0352 17288.1035   108.2353     0.0000    98.1445    98.1445    91.2127     0.0000   182.3913   393.6909   188.9129     0.0151     0.0152     0.2540     0.0000     0.0203     0.0177  -999.2500     4.3750     4.2147     0.2684     0.0000  3084.5000     0.0172     0.0445
   8825.0000  1950.0000    39.3295   428.1832   507.8619  1505.0778  1950.0000    36.1355   236.4754   113.5071   111.2496  1950.0000    42.2601   437.5625   477.3727   412.2651    87.8136  1753.3278 -9683.5352 11114.8877 17948.0859   108.2353     0.0000   105.6641   105.6641    91.2127     0.0000   173.3479   393.6862   174.4265     0.0212     0.0222     0.2541     0.0000     0.0239     0.0054  -999.2500     4.3750     4.4401     0.2938     0.0000  3099.0000     0.0177     0.0531
   8825.5000  1950.0000    36.3819   403.1214   323.4456  1146.4597  1950.0000    30.4296   203.6853   137.1097   134.6101  1950.0000    38.0104   375.5153   262.3525   264.7457    93.8344  1505.3751 -9701.9512 11048.1641 17288.2734   108.2353     0.0000    93.7891    93.7891    91.3926     0.0000   165.1177   393.6978   164.6690     0.0213     0.0247     0.2541     0.0000     0.0216     0.0125  -999.2500     4.6875     4.5573     0.2518     0.0000  3101.0000     0.0181     0.0563
   8826.0000  1950.0000    33.7694   379.9380   223.5860   823.5571  1950.0000    33.5374   173.3470   140.6496   140.4484  1950.0000    34.2435   304.8653   156.2316   174.1465    90.5157  1768.3629 -9686.1670 11477.5752 15430.1104   108.2353     0.0000    72.5000    72.5000    91.5914     0.0000   158.3127   393.7599   165.3273     0.0235     0.0135     0.2542     0.0000     0.0229     0.0339  -999.2500     5.0000     4.6752     0.1422     0.0000  3096.0000     0.0201     0.0424
   8826.5000  1950.0000    32.1889   386.7515   167.7787   599.5744  1950.0000    27.4266   128.4644   107.3019   108.6970  1950.0000    31.5843   252.0556   107.0612   130.7397    76.2316  1798.1041 -9630.2822  9614.2129 16177.6826   108.2353     0.0000    72.5000    72.5000    91.5914     0.0000   151.2440   393.7645   152.5859     0.0201     0.0264     0.2542     0.0000     0.0226     0.0148  -999.2500     5.0000     4.6232     0.1422     0.0000  3096.0000     0.0196     0.0583
   8827.0000  1950.0000    30.2028   405.4445   133.7380   474.5369  1950.0000    31.6555   106.8366    84.0358    85.7861  1950.0000    28.3039   288.0722   102.3766   136.9323    69.1631  1860.1671 -9631.3828  9918.8867 15335.4453   108.2353     0.0000    92.3828    92.3828    91.3347     0.0000   141.8133   393.7506   146.1477     0.0206     0.0192     0.2542     0.0000     0.0274     0.0233  -999.2500     5.6250     4.7257     0.2461     0.0000  3102.0000     0.0237     0.0495
   8827.5000  1950.0000    28.8475   455.5637   123.3188   357.4984  1950.0000    31.7646   149.2443    89.2063    92.3117  1950.0000    27.7065   222.1159    86.1725    94.7462    71.6798  1915.7220 -9676.7803  9251.4121 14779.6426   108.2353     0.0000   103.3203   103.3203    91.0738     0.0000   135.8540   393.7920   137.4789     0.0228     0.0241     0.2543     0.0000     0.0313     0.0332  -999.2500     5.6250     4.8141     0.2862     0.0000  3106.0000     0.0287     0.0555
