~VERSION INFORMATION
VERS.           1.2   :CWLS Log ASCII Standard - VERSION 1.2
WRAP.           NO    :One Line per depth step
PROD.  Schlumberger   :LAS Producer
PROG.  DLIS to ASCII 2.3                               :LAS Program name and version
CREA.        2021/07/30 13:36                          :LAS Creation date {YYYY/MM/DD hh:mm}
DLIS_CREA.  2021-Jul-30 07:08                          :DLIS Creation date and time {YYYY-MMM-DD hh:mm}
SOURCE.     9adb19af-6988-40d6-a86c-1e71535bb624       :DLIS File Name
#--------------------------------------------------
~WELL INFORMATION
#MNEM.UNIT      DATA             DESCRIPTION
#---- ------ --------------   -----------------------------
STRT .F        5785.0000     :START DEPTH     
STOP .F        9045.0000     :STOP DEPTH     
STEP .F           0.5000       :STEP     
NULL .          -999.25      :NULL VALUE
COMP .                 COMPANY:  University Of Utah                 
WELL .                    WELL:  FORGE 78B-32                       
FLD  .                   FIELD:  None                               
LOC  .                LOCATION:  Lat: 38.500171, Long: -112.88221   
CNTY .                  COUNTY:  Beaver                             
STAT .                   STATE:  Utah                               
CTRY .                 COUNTRY:                                     
SRVC .         SERVICE COMPANY:  Schlumberger                       
LATI .DEG             LATITUDE:  38 30' 0.616" N                   
LONG .DEG            LONGITUDE:  112 52' 55.956" W                 
API  .              API NUMBER:  NRC 42-00090-03                    
DATE .                LOG DATE:  30-Jul-2021
UWI  .          UNIQUE WELL ID:                                     
#-----------------------------------------------------------------------------
~PARAMETER INFORMATION
#MNEM.UNIT    VALUE                      DESCRIPTION
#---- -----   --------------------       ------------------------
CN   .        University Of Utah         :Company Name
WN   .        FORGE 78B-32               :Well Name
FN   .        None                       :Field Name
FL   .        Lat  38.500171  Long  -112.88221 :Field Location
FL1  .                                   :Field Location, Line 1
COUN .        Beaver                     :County or Parish
STAT .        Utah                       :State or Province
NATI .                                   :Nation
DATE .        30-Jul-2021                :Tools Above Rotary Table Date
APIN .        NRC 42-00090-03            :API Well Number
SECT .                                   :Section
TOWN .                                   :Township
RANG .                                   :Range
DMF  .        KB                         :Drilling Measured From (Name of Drilling Elevation Reference)
LMF  .        KB                         :Logging Measured From (Name of Logging Elevation Reference)
PDAT .        GL                         :Permanent Datum
ENGI .        CSTILES                    :Engineer s Name
WITN .        Virgil  Welch              :Witness s Name
LATI .        38� 30' 0.616  N           :Latitude
LONG .        112� 52' 55.956  W         :Longitude
LUL  .        F.Morgan                   :Logging Unit Location
LUN  .        9108                       :Logging Unit Number
RUN  .        1B                         :Run Number
SON  .                                   :Service Order Number
BHT  .DEGF     419.00000                 :Bottom Hole Temperature
BS   .IN         5.75000                 :Bit Size
MDEN .G/C3       2.71000                 :Matrix Density for Density Porosity
DFD  .LB/G       8.30000                 :Drilling Fluid Density
DFV  .S         24.00000                 :Drilling Fluid Viscosity
DFL  .C3      -999.25000                 :Drilling Fluid Loss
RMFS .OHMM       4.42000                 :Resistivity of Mud Filtrate Sample
EKB  .F       5565.50000                 :Elevation of Kelly Bushing
EGL  .F       5536.00000                 :Elevation of Ground Level
BLI  .F       9532.00000                 :Bottom Log Interval
BSAL .PPM      700.00000                 :Borehole Salinity
FLEV .F          8.00000                 :Depth of Drilling Fluid Level to LMF (Log Measured From)
MCST .DEGF      62.00000                 :Mudcake Sample Temperature
MFST .DEGF      62.00000                 :Mud Filtrate Sample Temperature
MRT  .DEGF     419.00000                 :Maximum Recorded Temperature
MST  .DEGF      62.00000                 :Mud Sample Temperature
RMCS .OHMM       6.21000                 :Resistivity of Mud Cake Sample
RMS  .OHMM       5.20000                 :Resistivity of Mud Sample
RW   .OHMM       1.00000                 :Connate Water Resistivity
TDD  .F       9500.00000                 :Driller Total Depth
TDL  .F       9532.00000                 :Logger Total Depth
TLI  .F       8530.00000                 :Top Log Interval
HIDE .                                   :Header Identifier
MATR .        LIME                       :Rock Matrix for Neutron Porosity Corrections
FNUM .           1.00000                 :F-Numerator for Formation Factor Formula
FEXP .           2.00000                 :Exponent "m" for Formation Factor Formula
DFT  .        WATER                      :Drilling Fluid Type
DFPH .          11.00000                 :Drilling Fluid pH
MCSS .        Calculated                 :Mudcake Sample Source
MFSS .        Calculated                 :Mud Filtrate Sample Source
FD   .G/C3       1.00000                 :Fluid Density
MSS  .        Flowline                   :Mud Sample Source
OS1  .                                   :Other Services Line 1
OS2  .                                   :Other Services Line 2
OS3  .                                   :Other Services Line 3
OS4  .                                   :Other Services Line 4
OS5  .                                   :Other Services Line 5
R1   .                                   :Remarks Line 1
R2   .                                   :Remarks Line 2
R3   .                                   :Remarks Line 3
R4   .                                   :Remarks Line 4
R5   .                                   :Remarks Line 5
R6   .        Tool was run as per tool sketch :Remarks Line 6
R7   .        All logging intervals as per client request :Remarks Line 7
R8   .                                   :Remarks Line 8
TCS  .        20 00 00                   :Time Circulation Stopped
TLAB .        02 17 00                   :Time Logger At Bottom
NMT  .        NOBARITE                   :HRDD Mud Type for Nuclear Devices
EPD  .C3         5536.000000             :Elevation of Permanent Datum above Mean Sea Level
APD  .F          29.500000               :Elevation of Depth Reference (LMF) above Permanent Datum
#-----------------------------------------------------------------------------
~CURVE INFORMATION
#MNEM.UNIT   API CODE                                  DESCRIPTION
#---- -----  --------                                  -----------------------
DEPT .F                                                :DEPTH (BOREHOLE) {F12.4}
AF10 .OHMM                                             :Array Induction Four Foot Resistivity A10 {F11.4}
AF20 .OHMM                                             :Array Induction Four Foot Resistivity A20 {F11.4}
AF30 .OHMM                                             :Array Induction Four Foot Resistivity A30 {F11.4}
AF60 .OHMM                                             :Array Induction Four Foot Resistivity A60 {F11.4}
AF90 .OHMM                                             :Array Induction Four Foot Resistivity A90 {F11.4}
AO10 .OHMM                                             :Array Induction One Foot Resistivity A10 {F11.4}
AO20 .OHMM                                             :Array Induction One Foot Resistivity A20 {F11.4}
AO30 .OHMM                                             :Array Induction One Foot Resistivity A30 {F11.4}
AO60 .OHMM                                             :Array Induction One Foot Resistivity A60 {F11.4}
AO90 .OHMM                                             :Array Induction One Foot Resistivity A90 {F11.4}
AT10 .OHMM                                             :Array Induction Two Foot Resistivity A10 {F11.4}
AT20 .OHMM                                             :Array Induction Two Foot Resistivity A20 {F11.4}
AT30 .OHMM                                             :Array Induction Two Foot Resistivity A30 {F11.4}
AT60 .OHMM                                             :Array Induction Two Foot Resistivity A60 {F11.4}
AT90 .OHMM                                             :Array Induction Two Foot Resistivity A90 {F11.4}
AORT .OHMM                                             :Array Induction One Foot Rt {F11.4}
AORX .OHMM                                             :Array Induction One Foot Rxo {F11.4}
CDF  .LBF                                              :Calibrated Downhole Force {F11.4}
CFTC .HZ                                               :Corrected Far Thermal Count Rate {F11.4}
CNTC .HZ                                               :Corrected Near Thermal Count Rate {F11.4}
CTEM .DEGF                                             :Cartridge Temperature {F11.4}
DCAL .IN                                               :Differential Caliper {F11.4}
DT   .US/F                                             :Delta-T (also called Slowness or Interval Transit Time) {F11.4}
DTCO .US/F                                             :Delta-T Compressional {F11.4}
DTSM .US/F                                             :Delta-T Shear {F11.4}
ED   .F                                                :East Departure {F11.4}
GR_STGC.GAPI                                           :Gamma Ray {F11.4}
GTEM .DEGF                                             :Generalized Borehole Temperature {F11.4}
HGR_STGC.GAPI                                          :High Resolution Gamma Ray {F11.4}
HNPO .CFCF                                             :High Resolution Enhanced Thermal Neutron Porosity in Selected Lithology {F11.4}
HTNP .CFCF                                             :High Resolution Thermal Neutron Porosity (Ratio Method) in Selected Lithology {F11.4}
ITT  .S                                                :Integrated Transit Time {F11.4}
ND   .F                                                :North Departure {F11.4}
NPHI .CFCF                                             :Thermal Neutron Porosity (original Ratio Method) in Selected Lithology {F11.4}
NPOR .CFCF                                             :Enhanced Thermal Neutron Porosity in Selected Lithology {F11.4}
PR   .                                                 :Poisson s Ratio {F11.4}
SP   .MV                                               :Spontaneous Potential {F11.4}
SPAR .MV                                               :SP, Armor Return Compensated {F11.4}
SPHI .CFCF                                             :Sonic Porosity {F11.4}
STIT .F                                                :Stuck Tool Indicator, Total {F11.4}
TENS .LBF                                              :Cable Tension {F11.4}
TNPH .CFCF                                             :Thermal Neutron Porosity (Ratio Method) in Selected Lithology {F11.4}
HTNP_SAN.CFCF                                          :HiRes Thermal Neutron Porosity (matrix Sandstone) {F11.4}
#-----------------------------------------------------------------------------
# 
#      DEPT        AF10       AF20       AF30       AF60       AF90       AO10       AO20       AO30       AO60       AO90       AT10       AT20       AT30       AT60       AT90       AORT       AORX       CDF        CFTC       CNTC       CTEM       DCAL        DT        DTCO       DTSM        ED      GR_STGC      GTEM     HGR_STGC     HNPO       HTNP       ITT         ND        NPHI       NPOR        PR         SP        SPAR       SPHI       STIT       TENS       TNPH     HTNP_SAN
#
~A  
# ...
   6652.0000     0.3288  1950.0000  1950.0000     4.6224    41.2151     0.3233  1950.0000     9.7179     3.2024     4.6765     0.3397  1950.0000    26.7534     4.3413    10.7066     2.3170     0.3296 10256.1758  2209.7847  4680.9985   100.3294     0.0000    82.5781    82.5781   100.3456     0.0000   108.7754   322.6378   109.0312     0.0413     0.0513     0.0692     0.0000     0.0194     0.0611  -999.2500    15.6250    14.7393     0.2012     0.0000  2589.0000     0.0475     0.0900
   6652.5000     0.3293  1950.0000  1950.0000     4.5994    46.6566     0.3222  1950.0000    14.0595     6.1607    15.1624     0.3348  1950.0000    45.9742     4.3843     8.3963     3.1223     0.3297 10256.1758  2160.2905  5284.1235   100.3294     0.0000    82.5781    82.5781   100.3456     0.0000   107.7547   322.6560   108.0092     0.0551     0.0393     0.0692     0.0000     0.0212     0.0389  -999.2500    13.7500    13.7754     0.2012     0.0000  2597.0000     0.0485     0.0746
   6653.0000     0.3298  1950.0000  1950.0000     4.7663    52.8902     0.3314  1950.0000    24.7637     8.8680    52.3840     0.3293  1950.0000    92.5986     4.4588     7.0343     4.6276     0.3309 10255.3223  2143.6736  5130.9102   100.3294     0.0000    82.5781    82.5781   102.0863     0.0000   104.1842   322.7037   106.9899     0.0527     0.0552     0.0693     0.0000     0.0259     0.0423  -999.2500    12.5000    12.8582     0.2012     0.0000  2609.0000     0.0474     0.0949
   6653.5000     0.3300  1950.0000  1950.0000     5.0953    58.7316     0.3343  1950.0000    61.2053     8.1943    59.6610     0.3272  1950.0000   212.9070     4.6472     6.5981     5.4005     0.3302 10254.0420  2209.7847  5226.3281   100.3294     0.0000    82.5781    82.5781   103.8270     0.0000   100.8719   322.7514    97.8091     0.0501     0.0516     0.0693     0.0000     0.0204     0.0485  -999.2500    10.6250    10.8179     0.2012     0.0000  2620.5000     0.0513     0.0903
   6654.0000     0.3301  1950.0000  1950.0000     5.5731    62.7788     0.3295  1950.0000   203.5819     6.4750    30.8566     0.3252  1950.0000   533.7208     5.0459     7.0279     4.6586     0.3292  5127.5537  2176.7813  4690.6167   100.3294     0.0000    82.5781    82.5781   100.6455     0.0000    97.5581   322.6651    97.8167     0.0529     0.0437     0.0694     0.0000     0.0197     0.0705  -999.2500    10.0000    10.1324     0.2012     0.0000  2612.0000     0.0489     0.0802
   6654.5000     0.3300  1950.0000  1950.0000     6.1774    63.9483     0.3216  1950.0000   767.6546     5.1749    15.2305     0.3248  1950.0000  1473.4124     5.6915     8.4028     3.9788     0.3292 -9999.9999  2308.7078  5437.2329   100.3294     0.0000    82.5781    82.5781   104.4933     0.0000    97.2891   322.6605    97.0485     0.0321     0.0431     0.0694     0.0000     0.0252     0.0503  -999.2500     8.4375     9.6237     0.2012     0.0000  2613.0000     0.0554     0.0794
   6655.0000     0.3300  1950.0000  1950.0000     6.8598    62.1189     0.3212  1950.0000   378.6927     3.7856     7.5017     0.3263  1950.0000  1950.0000     6.5120    10.7848     3.1104     0.3315 -9999.9999  2061.3662  5475.5234   100.3294     0.0000    82.5781    82.5781   104.4933     0.0000    97.2911   322.7377    96.7295     0.0722     0.0706     0.0694     0.0000     0.0322     0.0479  -999.2500     8.1250     9.2971     0.2012     0.0000  2617.0000     0.0538     0.1145
   6655.5000     0.3304  1950.0000  1950.0000     7.5395    58.2681     0.3343  1950.0000    76.0750     2.7402     4.4454     0.3296  1950.0000  1950.0000     7.3470    14.0334     2.5465     0.3356  2052.0886  2267.4170  5705.3218   100.3294     0.0000    76.1719    76.1719   106.9901     0.0000    95.3722   322.7832    97.8210     0.0515     0.0555     0.0695     0.0000     0.0301     0.0448  -999.2500     8.1250     9.2237     0.1655     0.0000  2614.0000     0.0555     0.0952
   6656.0000     0.3311  1950.0000  1950.0000     8.1198    53.7568     0.3525  1950.0000    22.3357     2.1437     3.0989     0.3336  1950.0000  1950.0000     8.0384    17.6874     2.1460     0.3384 10255.2871  2358.2031  5303.0635   100.3294     0.0000    76.1719    76.1719   107.4518     0.0000    94.2842   322.7786    95.6457     0.0540     0.0546     0.0695     0.0000     0.0214     0.0456     0.0122     8.7500     9.3865     0.1655     0.0000  2613.0000     0.0459     0.0941
   6656.5000     0.3321  1950.0000  1950.0000     8.5217    49.5833     0.3533  1950.0000     9.6427     1.7349     2.2925     0.3367  1950.0000  1950.0000     8.5440    21.9174     1.8616     0.3407 10254.7529  2358.1799  5188.3965   100.3294     0.0000    75.7129    75.7129   107.4518     0.0000    91.2948   322.7968    92.1072     0.0414     0.0416     0.0696     0.0000     0.0197     0.0514     0.0070     9.3750     9.7817     0.1627     0.0000  2622.0000     0.0498     0.0776
   6657.0000     0.3332  1950.0000  1950.0000     8.7068    46.2228     0.3409  1950.0000     6.2225     1.4687     1.8409     0.3385  1950.0000  1950.0000     8.8980    28.5465     1.6680     0.3417 -5124.9775  1978.8923  4805.4419   100.3294     0.0000    78.7207    78.7207   108.3596     0.0000    89.9056   322.7877    92.1103     0.0465     0.0527     0.0696     0.0000     0.0198     0.0570  -999.2500    10.6250    11.3808     0.1804     0.0000  2624.0000     0.0467     0.0917
   6657.5000     0.3342  1950.0000  1950.0000     8.6789    43.7940     0.3347  1950.0000     6.0215     1.3999     1.7283     0.3394  1950.0000  1950.0000     9.0526    40.8103     1.5426     0.3417 -9999.9999  2275.7485  5130.9102   100.3294     0.0000   128.4375   128.4375   108.7375     0.0000    86.1708   322.8195    88.2778     0.0418     0.0470     0.0697     0.0000     0.0162     0.0314  -999.2500    11.8750    12.1808     0.3525     0.0000  2616.0000     0.0412     0.0844
   6658.0000     0.3351  1950.0000  1950.0000     8.4755    42.2474     0.3279  1950.0000     8.6011     1.4325     1.7838     0.3405  1950.0000  1950.0000     8.9270    65.7266     1.4663     0.3413 -9999.9999  2407.5105  4824.6343   100.3294     0.0000   128.4375   128.4375   108.7375     0.0000    83.8097   322.8513    84.0639     0.0400     0.0350     0.0697     0.0000     0.0069     0.0341  -999.2500    14.3750    13.1326     0.3525     0.0000  2616.0000     0.0335     0.0692
   6658.5000     0.3355  1950.0000  1950.0000     8.1584    41.4680     0.3430  1950.0000    15.6552     1.4153     1.7900     0.3417  1950.0000  1950.0000     8.5370   119.6059     1.4262     0.3404 -9999.9999  2341.6892  4479.7095   100.3294     0.0000   128.4375   128.4375   107.8634     0.0000    80.8515   322.8332    82.0255     0.0405     0.0304     0.0698     0.0000     0.0085     0.0491  -999.2500    15.6250    14.1923     0.3525     0.0000  2607.0000     0.0352     0.0633
   6659.0000     0.3352  1950.0000  1950.0000     7.7982    41.2962     0.3580  1950.0000    17.8233     1.3581     1.7266     0.3417  1950.0000  1950.0000     8.0258   230.4808     1.4169     0.3382 -9999.9999  2110.8391  4958.6035   100.3294     0.0000   128.4375   128.4375   107.8634     0.0000    79.1505   322.8195    79.4233     0.0382     0.0452     0.0698     0.0000     0.0048     0.0262  -999.2500    16.2500    16.5095     0.3525     0.0000  2599.0000     0.0326     0.0822
   6659.5000     0.3341  1950.0000  1950.0000     7.4563    41.5218     0.3540  1950.0000    10.3279     1.3162     1.6551     0.3386  1950.0000  1950.0000     7.5647   370.2807     1.4404     0.3338 -9999.9999  2564.3145  4594.8896   100.3294     0.0000   128.4375   128.4375   106.1749     0.0000    76.8922   322.8558    77.7038     0.0349     0.0250     0.0699     0.0000     0.0097     0.0500  -999.2500    17.5000    17.6400     0.3525     0.0000  2593.0002     0.0358     0.0566
   6660.0000     0.3320  1950.0000  1950.0000     7.1740    41.9089     0.3294  1950.0000     6.8492     1.3142     1.6272     0.3321  1950.0000  1950.0000     7.2333   349.1045     1.5037     0.3275 -9999.9999  2341.5742  5130.9102   100.3294     0.0000   106.7188   106.7188   103.2926     0.0000    76.7916   322.8922    74.9961     0.0128     0.0272     0.0700     0.0000     0.0090     0.0366  -999.2500    18.7500    18.7347     0.2970     0.0000  2590.0002     0.0364     0.0593
