~VERSION INFORMATION
VERS.           1.2   :CWLS Log ASCII Standard - VERSION 1.2
WRAP.           NO    :One Line per depth step
PROD.  Schlumberger   :LAS Producer
PROG.  DLIS to ASCII 2.3                               :LAS Program name and version
CREA.        2021/07/30 13:36                          :LAS Creation date {YYYY/MM/DD hh:mm}
DLIS_CREA.  2021-Jul-30 07:08                          :DLIS Creation date and time {YYYY-MMM-DD hh:mm}
SOURCE.     9adb19af-6988-40d6-a86c-1e71535bb624       :DLIS File Name
#--------------------------------------------------
~WELL INFORMATION
#MNEM.UNIT      DATA             DESCRIPTION
#---- ------ --------------   -----------------------------
STRT .F        5785.0000     :START DEPTH     
STOP .F        9045.0000     :STOP DEPTH     
STEP .F           0.5000       :STEP     
NULL .          -999.25      :NULL VALUE
COMP .                 COMPANY:  University Of Utah                 
WELL .                    WELL:  FORGE 78B-32                       
FLD  .                   FIELD:  None                               
LOC  .                LOCATION:  Lat: 38.500171, Long: -112.88221   
CNTY .                  COUNTY:  Beaver                             
STAT .                   STATE:  Utah                               
CTRY .                 COUNTRY:                                     
SRVC .         SERVICE COMPANY:  Schlumberger                       
LATI .DEG             LATITUDE:  38 30' 0.616" N                   
LONG .DEG            LONGITUDE:  112 52' 55.956" W                 
API  .              API NUMBER:  NRC 42-00090-03                    
DATE .                LOG DATE:  30-Jul-2021
UWI  .          UNIQUE WELL ID:                                     
#-----------------------------------------------------------------------------
~PARAMETER INFORMATION
#MNEM.UNIT    VALUE                      DESCRIPTION
#---- -----   --------------------       ------------------------
CN   .        University Of Utah         :Company Name
WN   .        FORGE 78B-32               :Well Name
FN   .        None                       :Field Name
FL   .        Lat  38.500171  Long  -112.88221 :Field Location
FL1  .                                   :Field Location, Line 1
COUN .        Beaver                     :County or Parish
STAT .        Utah                       :State or Province
NATI .                                   :Nation
DATE .        30-Jul-2021                :Tools Above Rotary Table Date
APIN .        NRC 42-00090-03            :API Well Number
SECT .                                   :Section
TOWN .                                   :Township
RANG .                                   :Range
DMF  .        KB                         :Drilling Measured From (Name of Drilling Elevation Reference)
LMF  .        KB                         :Logging Measured From (Name of Logging Elevation Reference)
PDAT .        GL                         :Permanent Datum
ENGI .        CSTILES                    :Engineer s Name
WITN .        Virgil  Welch              :Witness s Name
LATI .        38� 30' 0.616  N           :Latitude
LONG .        112� 52' 55.956  W         :Longitude
LUL  .        F.Morgan                   :Logging Unit Location
LUN  .        9108                       :Logging Unit Number
RUN  .        1B                         :Run Number
SON  .                                   :Service Order Number
BHT  .DEGF     419.00000                 :Bottom Hole Temperature
BS   .IN         5.75000                 :Bit Size
MDEN .G/C3       2.71000                 :Matrix Density for Density Porosity
DFD  .LB/G       8.30000                 :Drilling Fluid Density
DFV  .S         24.00000                 :Drilling Fluid Viscosity
DFL  .C3      -999.25000                 :Drilling Fluid Loss
RMFS .OHMM       4.42000                 :Resistivity of Mud Filtrate Sample
EKB  .F       5565.50000                 :Elevation of Kelly Bushing
EGL  .F       5536.00000                 :Elevation of Ground Level
BLI  .F       9532.00000                 :Bottom Log Interval
BSAL .PPM      700.00000                 :Borehole Salinity
FLEV .F          8.00000                 :Depth of Drilling Fluid Level to LMF (Log Measured From)
MCST .DEGF      62.00000                 :Mudcake Sample Temperature
MFST .DEGF      62.00000                 :Mud Filtrate Sample Temperature
MRT  .DEGF     419.00000                 :Maximum Recorded Temperature
MST  .DEGF      62.00000                 :Mud Sample Temperature
RMCS .OHMM       6.21000                 :Resistivity of Mud Cake Sample
RMS  .OHMM       5.20000                 :Resistivity of Mud Sample
RW   .OHMM       1.00000                 :Connate Water Resistivity
TDD  .F       9500.00000                 :Driller Total Depth
TDL  .F       9532.00000                 :Logger Total Depth
TLI  .F       8530.00000                 :Top Log Interval
HIDE .                                   :Header Identifier
MATR .        LIME                       :Rock Matrix for Neutron Porosity Corrections
FNUM .           1.00000                 :F-Numerator for Formation Factor Formula
FEXP .           2.00000                 :Exponent "m" for Formation Factor Formula
DFT  .        WATER                      :Drilling Fluid Type
DFPH .          11.00000                 :Drilling Fluid pH
MCSS .        Calculated                 :Mudcake Sample Source
MFSS .        Calculated                 :Mud Filtrate Sample Source
FD   .G/C3       1.00000                 :Fluid Density
MSS  .        Flowline                   :Mud Sample Source
OS1  .                                   :Other Services Line 1
OS2  .                                   :Other Services Line 2
OS3  .                                   :Other Services Line 3
OS4  .                                   :Other Services Line 4
OS5  .                                   :Other Services Line 5
R1   .                                   :Remarks Line 1
R2   .                                   :Remarks Line 2
R3   .                                   :Remarks Line 3
R4   .                                   :Remarks Line 4
R5   .                                   :Remarks Line 5
R6   .        Tool was run as per tool sketch :Remarks Line 6
R7   .        All logging intervals as per client request :Remarks Line 7
R8   .                                   :Remarks Line 8
TCS  .        20 00 00                   :Time Circulation Stopped
TLAB .        02 17 00                   :Time Logger At Bottom
NMT  .        NOBARITE                   :HRDD Mud Type for Nuclear Devices
EPD  .C3         5536.000000             :Elevation of Permanent Datum above Mean Sea Level
APD  .F          29.500000               :Elevation of Depth Reference (LMF) above Permanent Datum
#-----------------------------------------------------------------------------
~CURVE INFORMATION
#MNEM.UNIT   API CODE                                  DESCRIPTION
#---- -----  --------                                  -----------------------
DEPT .F                                                :DEPTH (BOREHOLE) {F12.4}
AF10 .OHMM                                             :Array Induction Four Foot Resistivity A10 {F11.4}
AF20 .OHMM                                             :Array Induction Four Foot Resistivity A20 {F11.4}
AF30 .OHMM                                             :Array Induction Four Foot Resistivity A30 {F11.4}
AF60 .OHMM                                             :Array Induction Four Foot Resistivity A60 {F11.4}
AF90 .OHMM                                             :Array Induction Four Foot Resistivity A90 {F11.4}
AO10 .OHMM                                             :Array Induction One Foot Resistivity A10 {F11.4}
AO20 .OHMM                                             :Array Induction One Foot Resistivity A20 {F11.4}
AO30 .OHMM                                             :Array Induction One Foot Resistivity A30 {F11.4}
AO60 .OHMM                                             :Array Induction One Foot Resistivity A60 {F11.4}
AO90 .OHMM                                             :Array Induction One Foot Resistivity A90 {F11.4}
AT10 .OHMM                                             :Array Induction Two Foot Resistivity A10 {F11.4}
AT20 .OHMM                                             :Array Induction Two Foot Resistivity A20 {F11.4}
AT30 .OHMM                                             :Array Induction Two Foot Resistivity A30 {F11.4}
AT60 .OHMM                                             :Array Induction Two Foot Resistivity A60 {F11.4}
AT90 .OHMM                                             :Array Induction Two Foot Resistivity A90 {F11.4}
AORT .OHMM                                             :Array Induction One Foot Rt {F11.4}
AORX .OHMM                                             :Array Induction One Foot Rxo {F11.4}
CDF  .LBF                                              :Calibrated Downhole Force {F11.4}
CFTC .HZ                                               :Corrected Far Thermal Count Rate {F11.4}
CNTC .HZ                                               :Corrected Near Thermal Count Rate {F11.4}
CTEM .DEGF                                             :Cartridge Temperature {F11.4}
DCAL .IN                                               :Differential Caliper {F11.4}
DT   .US/F                                             :Delta-T (also called Slowness or Interval Transit Time) {F11.4}
DTCO .US/F                                             :Delta-T Compressional {F11.4}
DTSM .US/F                                             :Delta-T Shear {F11.4}
ED   .F                                                :East Departure {F11.4}
GR_STGC.GAPI                                           :Gamma Ray {F11.4}
GTEM .DEGF                                             :Generalized Borehole Temperature {F11.4}
HGR_STGC.GAPI                                          :High Resolution Gamma Ray {F11.4}
HNPO .CFCF                                             :High Resolution Enhanced Thermal Neutron Porosity in Selected Lithology {F11.4}
HTNP .CFCF                                             :High Resolution Thermal Neutron Porosity (Ratio Method) in Selected Lithology {F11.4}
ITT  .S                                                :Integrated Transit Time {F11.4}
ND   .F                                                :North Departure {F11.4}
NPHI .CFCF                                             :Thermal Neutron Porosity (original Ratio Method) in Selected Lithology {F11.4}
NPOR .CFCF                                             :Enhanced Thermal Neutron Porosity in Selected Lithology {F11.4}
PR   .                                                 :Poisson s Ratio {F11.4}
SP   .MV                                               :Spontaneous Potential {F11.4}
SPAR .MV                                               :SP, Armor Return Compensated {F11.4}
SPHI .CFCF                                             :Sonic Porosity {F11.4}
STIT .F                                                :Stuck Tool Indicator, Total {F11.4}
TENS .LBF                                              :Cable Tension {F11.4}
TNPH .CFCF                                             :Thermal Neutron Porosity (Ratio Method) in Selected Lithology {F11.4}
HTNP_SAN.CFCF                                          :HiRes Thermal Neutron Porosity (matrix Sandstone) {F11.4}
#-----------------------------------------------------------------------------
# 
#      DEPT        AF10       AF20       AF30       AF60       AF90       AO10       AO20       AO30       AO60       AO90       AT10       AT20       AT30       AT60       AT90       AORT       AORX       CDF        CFTC       CNTC       CTEM       DCAL        DT        DTCO       DTSM        ED      GR_STGC      GTEM     HGR_STGC     HNPO       HTNP       ITT         ND        NPHI       NPOR        PR         SP        SPAR       SPHI       STIT       TENS       TNPH     HTNP_SAN
#
~A  
# ...
   6218.5000     0.2975  1950.0000  1950.0000     5.6446    36.7213     0.2659  1950.0000  1950.0000     2.0114     3.7748     0.2695  1950.0000  1950.0000     5.6486   153.5946     2.2049     0.2739 10255.1084  2062.1836  5207.4912   100.3294     0.0000   113.1250   113.1250    96.3424     0.0000    39.5849   311.4346    39.5849     0.0712     0.0656     0.0347     0.0000     0.0391     0.0627  -999.2500    59.3750    59.0069     0.3156     0.0000  2477.0000     0.0625     0.1082
   6219.0000     0.2936  1950.0000  1950.0000     5.5605    36.5129     0.2540  1950.0000  1950.0000     2.0889     3.8502     0.2661  1950.0000  1950.0000     5.5451    87.0160     2.2612     0.2712  5128.1768  2011.7551  5017.9927   100.3294     0.0000   113.1250   113.1250    97.5925     0.0000    38.5820   311.4890    39.1262     0.0513     0.0568     0.0347     0.0000     0.0296     0.0780  -999.2500    58.7500    58.4974     0.3156     0.0000  2474.0000     0.0641     0.0969
   6219.5000     0.2911  1950.0000  1950.0000     5.5034    36.4960     0.2548  1950.0000  1950.0000     2.3130     4.2233     0.2662  1950.0000  1950.0000     5.4569    54.8989     2.3649     0.2714 -9999.9999  2160.2905  5130.6079   100.3294     0.0000   115.8594   115.8594    97.5925     0.0000    39.1251   311.4664    38.0377     0.0584     0.0536     0.0348     0.0000     0.0247     0.0546  -999.2500    58.1250    57.2314     0.3229     0.0000  2479.0000     0.0517     0.0928
   6220.0000     0.2899  1950.0000  1950.0000     5.4711    36.5055     0.2696  1950.0000  1950.0000     2.5802     4.6831     0.2697  1950.0000  1950.0000     5.3936    38.6556     2.5153     0.2743 -9999.9999  2407.6758  5475.5234   100.3294     0.0000   121.3281   121.3281    97.6355     0.0000    39.6681   311.4936    40.7555     0.0558     0.0503     0.0348     0.0000     0.0140     0.0360  -999.2500    57.5000    56.5192     0.3365     0.0000  2478.5002     0.0414     0.0886
   6220.5000     0.2898  1950.0000  1950.0000     5.4616    36.3156     0.2880  1950.0000  1950.0000     2.6956     4.8169     0.2756  1950.0000  1950.0000     5.3656    30.1449     2.7120     0.2792 -7688.6650  2704.4861  5188.3965   100.3294     0.0000   131.5365   131.5365    97.6355     0.0000    41.2996   311.5389    40.7554     0.0290     0.0332     0.0349     0.0000     0.0143     0.0531  -999.2500    56.8750    55.7368     0.3589     0.0000  2480.0000     0.0408     0.0669
   6221.0000     0.2906  1950.0000  1950.0000     5.4726    35.7777     0.2922  1950.0000  1950.0000     2.8269     5.0231     0.2825  1950.0000  1950.0000     5.3754    25.5576     2.9564     0.2852     0.0000  2440.6338  5839.2822   100.3294     0.0000   146.4844   146.4844    97.9009     0.0000    42.2334   311.5389    42.3878     0.0328     0.0420     0.0350     0.0000     0.0152     0.0332  -999.2500    54.6875    54.2135     0.3861     0.0000  2477.0000     0.0411     0.0780
   6221.5000     0.2921  1950.0000  1950.0000     5.5004    34.9222     0.2874  1950.0000  1950.0000     3.2443     6.0827     0.2897  1950.0000  1950.0000     5.4131    22.9276     3.2583     0.2919     0.0000  2539.4536  5896.7173   100.3294     0.0000   146.4844   146.4844    97.5763     0.0000    44.6786   311.5026    43.5570     0.0495     0.0503     0.0351     0.0000     0.0218     0.0387  -999.2500    53.1250    53.3721     0.3861     0.0000  2470.0000     0.0464     0.0887
   6222.0000     0.2941  1950.0000  1950.0000     5.5417    33.9281     0.2907  1950.0000  1950.0000     3.8152     8.3675     0.2975  1950.0000  1950.0000     5.4607    21.1829     3.5882     0.2990  6153.7051  2490.1060  5666.6973   100.3294     0.0000   146.4844   146.4844    97.5763     0.0000    48.2101   311.5797    48.0911     0.0508     0.0475     0.0351     0.0000     0.0185     0.0487  -999.2500    51.8750    52.5447     0.3861     0.0000  2473.0000     0.0452     0.0851
   6222.5000     0.2966  1950.0000  1950.0000     5.5943    33.0056     0.3050  1950.0000  1950.0000     4.2774    11.7858     0.3059  1950.0000  1950.0000     5.5049    19.8475     3.9661     0.3066 10254.8418  2622.0322  5800.9917   100.3294     0.0000   144.1797   144.1797    92.6443     0.0000    53.2544   311.5797    52.9820     0.0371     0.0403     0.0352     0.0000     0.0132     0.0393  -999.2500    50.6250    51.7593     0.3822     0.0000  2480.0000     0.0412     0.0759
   6223.0000     0.2992  1950.0000  1950.0000     5.6584    32.3068     0.3216  1950.0000  1950.0000     4.7747    16.0667     0.3145  1950.0000  1950.0000     5.5509    18.8852     4.4145     0.3146 10254.3975  2753.9854  5609.5396   100.3294     0.0000    98.7500    98.7500    94.2489     0.0000    59.1318   311.5797    57.8752     0.0360     0.0336     0.0353     0.0000     0.0099     0.0415  -999.2500    50.0000    50.3628     0.2706     0.0000  2472.0000     0.0369     0.0674
   6223.5000     0.3019  1950.0000  1950.0000     5.7356    31.9090     0.3331  1950.0000  1950.0000     5.3479    19.3377     0.3223  1950.0000  1950.0000     5.6187    18.4026     4.7613     0.3221 -5124.7993  2753.9583  5762.7578   100.3294     0.0000    98.7500    98.7500    94.2489     0.0000    64.9060   311.5525    62.6645     0.0348     0.0351     0.0353     0.0000     0.0107     0.0383  -999.2500    49.3750    49.7324     0.2706     0.0000  2470.0000     0.0379     0.0694
   6224.0000     0.3047  1950.0000  1950.0000     5.8271    31.8446     0.3363  1950.0000  1950.0000     5.7172    19.0425     0.3286  1950.0000  1950.0000     5.7229    18.3086     5.1897     0.3289 -9999.9999  2597.3086  5858.4272   100.3294     0.0000   136.2500   136.2500    96.0523     0.0000    69.7951   311.6205    67.2503     0.0380     0.0415     0.0354     0.0000     0.0117     0.0362  -999.2500    48.7500    49.2049     0.3681     0.0000  2478.0000     0.0381     0.0774
   6224.5000     0.3078  1950.0000  1950.0000     5.9336    32.1372     0.3325  1950.0000  1950.0000     5.5196    16.5338     0.3336  1950.0000  1950.0000     5.8565    18.3160     5.0105     0.3329 -9999.9999  2786.9399  5829.7402   100.3294     0.0000   132.9688   132.9688    96.0523     0.0000    75.8739   311.6659    71.3222     0.0579     0.0438     0.0354     0.0000     0.0109     0.0429  -999.2500    48.1250    48.7892     0.3618     0.0000  2484.0000     0.0390     0.0804
   6225.0000     0.3112  1950.0000  1950.0000     6.0551    32.8250     0.3307  1950.0000  1950.0000     4.7438    13.5696     0.3380  1950.0000  1950.0000     6.0037    18.1848     4.7001     0.3371     0.0000  2902.2043  5954.1528   100.3294     0.0000   124.8828   124.8828    97.1917     0.0000    81.4782   311.6205    76.8915     0.0363     0.0395     0.0355     0.0000     0.0076     0.0353  -999.2500    47.8125    48.2210     0.3447     0.0000  2489.0000     0.0336     0.0749
   6225.5000     0.3146  1950.0000  1950.0000     6.1904    33.9524     0.3377  1950.0000  1950.0000     4.1695    12.2500     0.3427  1950.0000  1950.0000     6.1609    18.0346     4.5098     0.3412     0.0000  3050.8223  6317.5396   100.3294     0.0000    97.9297    97.9297    95.4222     0.0000    87.7292   311.6205    85.0123     0.0369     0.0321     0.0355     0.0000     0.0088     0.0324  -999.2500    47.5000    48.0288     0.2676     0.0000  2488.0000     0.0369     0.0655
   6226.0000     0.3178  1950.0000  1950.0000     6.3332    35.5294     0.3481  1950.0000  1950.0000     4.1432    13.4325     0.3475  1950.0000  1950.0000     6.3431    18.2474     4.3947     0.3451     0.0000  2803.4307  6049.9385   100.3294     0.0000    80.6250    80.6250    95.4222     0.0000    91.5826   311.6522    88.7818     0.0415     0.0380     0.0356     0.0000     0.0117     0.0477  -999.2500    48.1250    47.9366     0.1909     0.0000  2490.0000     0.0383     0.0730
   6226.5000     0.3202  1950.0000  1950.0000     6.4655    37.4664     0.3556  1950.0000  1950.0000     4.4080    16.2226     0.3514  1950.0000  1950.0000     6.5523    19.0097     4.3296     0.3478 10255.8203  3034.3013  6719.9604   100.3294     0.0000    79.8438    79.8438    93.2221     0.0000    95.1494   311.7021    94.3833     0.0328     0.0410     0.0356     0.0000     0.0181     0.0416  -999.2500    48.1250    47.9298     0.1866     0.0000  2488.0000     0.0473     0.0768
