~VERSION INFORMATION
VERS.           1.2   :CWLS Log ASCII Standard - VERSION 1.2
WRAP.           NO    :One Line per depth step
PROD.  Schlumberger   :LAS Producer
PROG.  DLIS to ASCII 2.3                               :LAS Program name and version
CREA.        2021/07/30 13:36                          :LAS Creation date {YYYY/MM/DD hh:mm}
DLIS_CREA.  2021-Jul-30 07:08                          :DLIS Creation date and time {YYYY-MMM-DD hh:mm}
SOURCE.     6d1d3df9-7549-4232-acfc-119b5b71a716       :DLIS File Name
#--------------------------------------------------
~WELL INFORMATION
#MNEM.UNIT      DATA             DESCRIPTION
#---- ------ --------------   -----------------------------
STRT .F      7447.0000       :START DEPTH     
STOP .F      9553.0000       :STOP DEPTH     
STEP .F       0.5000         :STEP       
NULL .          -999.25      :NULL VALUE
COMP .                 COMPANY:  University Of Utah                 
WELL .                    WELL:  FORGE 78B-32                       
FLD  .                   FIELD:  None                               
LOC  .                LOCATION:  Lat: 38.500171, Long: -112.88221   
CNTY .                  COUNTY:  Beaver                             
STAT .                   STATE:  Utah                               
CTRY .                 COUNTRY:                                     
SRVC .         SERVICE COMPANY:  Schlumberger                       
LATI .DEG             LATITUDE:  38 30' 0.616" N                   
LONG .DEG            LONGITUDE:  112 52' 55.956" W                 
API  .              API NUMBER:  NRC 42-00090-03                    
DATE .                LOG DATE:  30-Jul-2021
UWI  .          UNIQUE WELL ID:                                     
#-----------------------------------------------------------------------------
~PARAMETER INFORMATION
#MNEM.UNIT    VALUE                      DESCRIPTION
#---- -----   --------------------       ------------------------
CN   .        University Of Utah         :Company Name
WN   .        FORGE 78B-32               :Well Name
FN   .        None                       :Field Name
FL   .        Lat  38.500171  Long  -112.88221 :Field Location
FL1  .                                   :Field Location, Line 1
COUN .        Beaver                     :County or Parish
STAT .        Utah                       :State or Province
NATI .                                   :Nation
DATE .        30-Jul-2021                :Tools Above Rotary Table Date
APIN .        NRC 42-00090-03            :API Well Number
SECT .                                   :Section
TOWN .                                   :Township
RANG .                                   :Range
DMF  .        KB                         :Drilling Measured From (Name of Drilling Elevation Reference)
LMF  .        KB                         :Logging Measured From (Name of Logging Elevation Reference)
PDAT .        GL                         :Permanent Datum
ENGI .        CSTILES                    :Engineer s Name
WITN .        Virgil  Welch              :Witness s Name
LATI .        38� 30' 0.616  N           :Latitude
LONG .        112� 52' 55.956  W         :Longitude
LUL  .        F.Morgan                   :Logging Unit Location
LUN  .        9108                       :Logging Unit Number
RUN  .        1B                         :Run Number
SON  .                                   :Service Order Number
BHT  .DEGF     419.00000                 :Bottom Hole Temperature
BS   .IN         5.75000                 :Bit Size
MDEN .G/C3       2.71000                 :Matrix Density for Density Porosity
DFD  .LB/G       8.30000                 :Drilling Fluid Density
DFV  .S         24.00000                 :Drilling Fluid Viscosity
DFL  .C3      -999.25000                 :Drilling Fluid Loss
RMFS .OHMM       4.42000                 :Resistivity of Mud Filtrate Sample
EKB  .F       5565.50000                 :Elevation of Kelly Bushing
EGL  .F       5536.00000                 :Elevation of Ground Level
BLI  .F       9532.00000                 :Bottom Log Interval
BSAL .PPM      700.00000                 :Borehole Salinity
FLEV .F          8.00000                 :Depth of Drilling Fluid Level to LMF (Log Measured From)
MCST .DEGF      62.00000                 :Mudcake Sample Temperature
MFST .DEGF      62.00000                 :Mud Filtrate Sample Temperature
MRT  .DEGF     419.00000                 :Maximum Recorded Temperature
MST  .DEGF      62.00000                 :Mud Sample Temperature
RMCS .OHMM       6.21000                 :Resistivity of Mud Cake Sample
RMS  .OHMM       5.20000                 :Resistivity of Mud Sample
RW   .OHMM       1.00000                 :Connate Water Resistivity
TDD  .F       9500.00000                 :Driller Total Depth
TDL  .F       9532.00000                 :Logger Total Depth
TLI  .F       8530.00000                 :Top Log Interval
HIDE .                                   :Header Identifier
MATR .        LIME                       :Rock Matrix for Neutron Porosity Corrections
FNUM .           1.00000                 :F-Numerator for Formation Factor Formula
FEXP .           2.00000                 :Exponent "m" for Formation Factor Formula
DFT  .        WATER                      :Drilling Fluid Type
DFPH .          11.00000                 :Drilling Fluid pH
MCSS .        Calculated                 :Mudcake Sample Source
MFSS .        Calculated                 :Mud Filtrate Sample Source
FD   .G/C3       1.00000                 :Fluid Density
MSS  .        Flowline                   :Mud Sample Source
OS1  .                                   :Other Services Line 1
OS2  .                                   :Other Services Line 2
OS3  .                                   :Other Services Line 3
OS4  .                                   :Other Services Line 4
OS5  .                                   :Other Services Line 5
R1   .                                   :Remarks Line 1
R2   .                                   :Remarks Line 2
R3   .                                   :Remarks Line 3
R4   .                                   :Remarks Line 4
R5   .                                   :Remarks Line 5
R6   .        Tool was run as per tool sketch :Remarks Line 6
R7   .        All logging intervals as per client request :Remarks Line 7
R8   .                                   :Remarks Line 8
TCS  .        20 00 00                   :Time Circulation Stopped
TLAB .        02 17 00                   :Time Logger At Bottom
NMT  .        NOBARITE                   :HRDD Mud Type for Nuclear Devices
EPD  .C3         5536.000000             :Elevation of Permanent Datum above Mean Sea Level
APD  .F          29.500000               :Elevation of Depth Reference (LMF) above Permanent Datum
#-----------------------------------------------------------------------------
~CURVE INFORMATION
#MNEM.UNIT   API CODE                                  DESCRIPTION
#---- -----  --------                                  -----------------------
DEPT .F                                                :DEPTH (BOREHOLE) {F12.4}
AF10 .OHMM                                             :Array Induction Four Foot Resistivity A10 {F11.4}
AF20 .OHMM                                             :Array Induction Four Foot Resistivity A20 {F11.4}
AF30 .OHMM                                             :Array Induction Four Foot Resistivity A30 {F11.4}
AF60 .OHMM                                             :Array Induction Four Foot Resistivity A60 {F11.4}
AF90 .OHMM                                             :Array Induction Four Foot Resistivity A90 {F11.4}
AO10 .OHMM                                             :Array Induction One Foot Resistivity A10 {F11.4}
AO20 .OHMM                                             :Array Induction One Foot Resistivity A20 {F11.4}
AO30 .OHMM                                             :Array Induction One Foot Resistivity A30 {F11.4}
AO60 .OHMM                                             :Array Induction One Foot Resistivity A60 {F11.4}
AO90 .OHMM                                             :Array Induction One Foot Resistivity A90 {F11.4}
AT10 .OHMM                                             :Array Induction Two Foot Resistivity A10 {F11.4}
AT20 .OHMM                                             :Array Induction Two Foot Resistivity A20 {F11.4}
AT30 .OHMM                                             :Array Induction Two Foot Resistivity A30 {F11.4}
AT60 .OHMM                                             :Array Induction Two Foot Resistivity A60 {F11.4}
AT90 .OHMM                                             :Array Induction Two Foot Resistivity A90 {F11.4}
AORT .OHMM                                             :Array Induction One Foot Rt {F11.4}
AORX .OHMM                                             :Array Induction One Foot Rxo {F11.4}
CDF  .LBF                                              :Calibrated Downhole Force {F11.4}
CFTC .HZ                                               :Corrected Far Thermal Count Rate {F11.4}
CNTC .HZ                                               :Corrected Near Thermal Count Rate {F11.4}
CTEM .DEGF                                             :Cartridge Temperature {F11.4}
DCAL .IN                                               :Differential Caliper {F11.4}
DT   .US/F                                             :Delta-T (also called Slowness or Interval Transit Time) {F11.4}
DTCO .US/F                                             :Delta-T Compressional {F11.4}
DTSM .US/F                                             :Delta-T Shear {F11.4}
ED   .F                                                :East Departure {F11.4}
GR_STGC.GAPI                                           :Gamma Ray {F11.4}
GTEM .DEGF                                             :Generalized Borehole Temperature {F11.4}
HGR_STGC.GAPI                                          :High Resolution Gamma Ray {F11.4}
HNPO .CFCF                                             :High Resolution Enhanced Thermal Neutron Porosity in Selected Lithology {F11.4}
HTNP .CFCF                                             :High Resolution Thermal Neutron Porosity (Ratio Method) in Selected Lithology {F11.4}
ITT  .S                                                :Integrated Transit Time {F11.4}
ND   .F                                                :North Departure {F11.4}
NPHI .CFCF                                             :Thermal Neutron Porosity (original Ratio Method) in Selected Lithology {F11.4}
NPOR .CFCF                                             :Enhanced Thermal Neutron Porosity in Selected Lithology {F11.4}
PR   .                                                 :Poisson s Ratio {F11.4}
SP   .MV                                               :Spontaneous Potential {F11.4}
SPAR .MV                                               :SP, Armor Return Compensated {F11.4}
SPHI .CFCF                                             :Sonic Porosity {F11.4}
STIT .F                                                :Stuck Tool Indicator, Total {F11.4}
TENS .LBF                                              :Cable Tension {F11.4}
TNPH .CFCF                                             :Thermal Neutron Porosity (Ratio Method) in Selected Lithology {F11.4}
HTNP_SAN.CFCF                                          :HiRes Thermal Neutron Porosity (matrix Sandstone) {F11.4}
#-----------------------------------------------------------------------------
# 
#      DEPT        AF10       AF20       AF30       AF60       AF90       AO10       AO20       AO30       AO60       AO90       AT10       AT20       AT30       AT60       AT90       AORT       AORX       CDF        CFTC       CNTC       CTEM       DCAL        DT        DTCO       DTSM        ED      GR_STGC      GTEM     HGR_STGC     HNPO       HTNP       ITT         ND        NPHI       NPOR        PR         SP        SPAR       SPHI       STIT       TENS       TNPH     HTNP_SAN
#
~A  
# ...
   7583.0000     0.3589  1950.0000  1950.0000     5.7314    34.8240     0.5406  1950.0000  1950.0000     2.5421     4.9964     0.4990  1950.0000  1950.0000     5.6254     7.0966     2.8963     0.4684 -2373.4543  2415.7554  5328.5483   141.8353     0.0000    50.8496    50.8496   107.0141     0.0000    97.4438   354.8521    97.8120     0.0233     0.0382     0.1110     0.0000     0.0145     0.0322     0.3542   -33.7500   -34.1639    -0.0633     0.0000  3728.0000     0.0413     0.0733
   7583.5000     0.3732  1950.0000  1950.0000     6.3502    35.7532     0.6185  1950.0000  1950.0000     3.3769     7.9302     0.5453  1950.0000  1950.0000     6.2983     8.4304     3.2593     0.4987 -9999.9999  2242.6709  4886.5210   141.8353     0.0000    52.1777    52.1777   106.9333     0.0000    95.1110   354.8719    93.9260     0.0446     0.0417     0.1110     0.0000     0.0125     0.0420     0.3438   -34.5313   -34.5527    -0.0458     0.0000  3722.0000     0.0363     0.0777
   7584.0000     0.3838  1950.0000  1950.0000     7.0009    36.1308     0.5936  1950.0000  1950.0000     4.4387    15.0716     0.5678  1950.0000  1950.0000     7.0039    10.6489     3.7451     0.5140 -2938.4614  2473.5251  5194.5352   141.8353     0.0000    52.4414    52.4414   109.0838     0.0000    92.5476   354.9084    93.7433     0.0414     0.0325     0.1110     0.0000     0.0124     0.0349     0.3497   -35.0000   -34.6561    -0.0424     0.0000  3700.0000     0.0415     0.0660
   7584.5000     0.3908  1950.0000  1950.0000     7.6385    36.2756     0.5229  1950.0000  1950.0000     5.3959    29.1652     0.5658  1950.0000  1950.0000     7.7307    14.6043     4.4180     0.5151     0.0000  2119.3425  4664.8706   141.8353     0.0000    51.9824    51.9824   108.9076     0.0000    91.5043   354.9392    90.1220     0.0564     0.0521     0.1109     0.0000     0.0133     0.0570     0.3525   -35.0000   -34.7024    -0.0483     0.0000  3709.0002     0.0413     0.0909
   7585.0000     0.3949  1950.0000  1950.0000     8.2262    36.5293     0.4845  1950.0000  1950.0000     6.2339    53.1108     0.5494  1950.0000  1950.0000     8.4686    22.2123     5.3410     0.5072     0.0000  2264.6494  5045.5107   141.8353     0.0000    51.5430    51.5430   105.1581     0.0000    89.5091   354.9419    90.6476     0.0308     0.0418     0.1109     0.0000     0.0161     0.0463     0.3419   -35.0000   -34.9771    -0.0540     0.0000  3718.0000     0.0446     0.0778
   7585.5000     0.3966  1950.0000  1950.0000     8.7368    37.0417     0.4794  1950.0000  1950.0000     6.7430    61.0312     0.5287  1950.0000  1950.0000     9.1984    37.9989     6.2174     0.4934     0.0000  2380.0273  5366.8452   141.8353     0.0000    52.0313    52.0313   104.4972     0.0000    88.9706   354.9435    87.7576     0.0376     0.0403     0.1109     0.0000     0.0185     0.0287     0.3352   -35.6250   -35.2400    -0.0477     0.0000  3701.0002     0.0414     0.0759
   7586.0000     0.3962  1950.0000  1950.0000     9.1397    37.7059     0.4841  1950.0000  1950.0000     6.6125    35.4002     0.5068  1950.0000  1950.0000     9.9058    73.6618     6.3124     0.4774 -9999.9999  2215.1775  5162.5146   141.8353     0.0000    52.2852    52.2852    84.6158     0.0000    88.1325   354.9754    88.5065     0.0509     0.0518     0.1109     0.0000     0.0162     0.0382     0.1912   -35.6250   -35.4735    -0.0444     0.0000  3684.0000     0.0412     0.0906
   7586.5000     0.3935  1950.0000  1950.0000     9.3836    38.2416     0.4840  1950.0000  1950.0000     6.0392    20.5380     0.4819  1950.0000  1950.0000    10.5274   160.2655     5.7533     0.4556 -9999.9999  2345.6736  4932.8926   141.8353     0.0000    51.9238    51.9238    85.0701     0.0000    90.6698   355.0165    88.0316     0.0479     0.0358     0.1108     0.0000     0.0170     0.0482     0.2031   -36.0417   -35.6802    -0.0491     0.0000  3700.0000     0.0442     0.0702
   7587.0000     0.3881  1950.0000  1950.0000     9.4009    38.3919     0.4670  1950.0000  1950.0000     5.6395    15.3661     0.4526  1950.0000  1950.0000    10.8612   381.6123     5.2254     0.4310 -9999.9999  2144.3064  4924.8091   141.8353     0.0000    51.9141    51.9141    90.5337     0.0000    92.3680   355.0432    95.3698     0.0514     0.0460     0.1108     0.0000     0.0151     0.0410     0.2551   -35.8333   -35.8702    -0.0492     0.0000  3662.0000     0.0422     0.0831
   7587.5000     0.3805  1950.0000  1950.0000     9.1492    38.1205     0.4261  1950.0000  1950.0000     5.2872    12.5041     0.4200  1950.0000  1950.0000    10.6279   925.0125     4.6897     0.4045 -8081.9111  2138.1770  4761.8359   141.8353     0.0000    52.2656    52.2656    90.1533     0.0000    94.1077   355.0515    93.6011     0.0591     0.0462     0.1108     0.0000     0.0164     0.0519     0.2469   -36.0938   -36.1245    -0.0447     0.0000  3720.0000     0.0460     0.0835
   7588.0000     0.3717  1950.0000  1950.0000     8.6618    37.6329     0.3791  1950.0000  1950.0000     4.4739     9.4592     0.3878  1950.0000  1950.0000     9.8000  1696.8807     4.3225     0.3782     0.0000  2160.2004  4703.0571   141.8353     0.0000    53.0762    53.0762   105.0118     0.0000    90.6657   355.0713    93.3523     0.0545     0.0457     0.1107     0.0000     0.0148     0.0508     0.3284   -36.2500   -36.4556    -0.0344     0.0000  3714.9998     0.0421     0.0827
   7588.5000     0.3626  1950.0000  1950.0000     8.0469    37.2201     0.3449  1950.0000  1950.0000     3.7146     7.6509     0.3596  1950.0000  1950.0000     8.7207  1950.0000     3.8974     0.3557 -3164.4971  2347.1028  5178.5591   141.8353     0.0000    53.6914    53.6914   105.9884     0.0000    87.4505   355.0881    85.0439     0.0339     0.0370     0.1107     0.0000     0.0170     0.0329     0.3274   -36.7188   -36.7627    -0.0269     0.0000  3748.0002     0.0430     0.0717
   7589.0000     0.3546  1950.0000  1950.0000     7.4323    37.1017     0.3241  1950.0000  1950.0000     3.5066     7.6922     0.3375  1950.0000  1950.0000     7.7463  1950.0000     3.5101     0.3379 -5876.8213  2116.6589  4971.1968   141.8353     0.0000    54.2773    54.2773   106.6990     0.0000    81.0582   355.1399    83.5470     0.0618     0.0519     0.1107     0.0000     0.0159     0.0398     0.3254   -37.2917   -37.0092    -0.0198     0.0000  3763.9998     0.0401     0.0907
   7589.5000     0.3484  1950.0000  1950.0000     6.9128    37.3816     0.3093  1950.0000  1950.0000     3.5101     8.4074     0.3224  1950.0000  1950.0000     7.0189  1796.4570     3.2207     0.3256 -4746.7451  2362.2019  5004.3169   141.8353     0.0000    54.9121    54.9121   106.7859     0.0000    79.1690   355.1505    74.1752     0.0439     0.0415     0.1107     0.0000     0.0150     0.0476     0.3203   -37.5000   -37.4179    -0.0124     0.0000  3751.0000     0.0443     0.0775
   7590.0000     0.3446  1950.0000  1950.0000     6.5374    38.0937     0.2993  1950.0000  1950.0000     3.0925     7.0364     0.3142  1950.0000  1950.0000     6.5401  1494.8276     2.9812     0.3193 -4747.2920  2297.5784  4958.3921   141.8353     0.0000    53.7891    53.7891   102.0953     0.0000    80.2510   355.1676    79.3765     0.0485     0.0385     0.1106     0.0000     0.0119     0.0382     0.3079   -37.5000   -37.6415    -0.0257     0.0000  3749.0000     0.0363     0.0736
   7590.5000     0.3434  1950.0000  1950.0000     6.3236    39.2582     0.2993  1950.0000  1950.0000     2.5351     5.0538     0.3126  1950.0000  1950.0000     6.2793  1084.3025     2.8096     0.3186     0.0000  2440.5403  5315.6670   141.8353     0.0000    52.3633    52.3633    97.6752     0.0000    85.6244   355.2007    87.2014     0.0196     0.0333     0.1106     0.0000     0.0125     0.0279     0.2983   -37.7083   -38.0477    -0.0434     0.0000  3784.0000     0.0392     0.0670
   7591.0000     0.3445  1950.0000  1950.0000     6.2740    40.8921     0.3123  1950.0000  1950.0000     2.3157     4.2574     0.3167  1950.0000  1950.0000     6.2091   722.5320     2.7220     0.3227  6612.9092  2222.0054  4773.3643   141.8353     0.0000    52.8613    52.8613    94.7057     0.0000    89.8817   355.2205    90.2952     0.0484     0.0441     0.1106     0.0000     0.0152     0.0490     0.2737   -38.1250   -38.4771    -0.0371     0.0000  3786.0000     0.0402     0.0807
