~VERSION INFORMATION
VERS.           1.2   :CWLS Log ASCII Standard - VERSION 1.2
WRAP.           NO    :One Line per depth step
PROD.  Schlumberger   :LAS Producer
PROG.  DLIS to ASCII 2.3                               :LAS Program name and version
CREA.        2021/07/30 13:36                          :LAS Creation date {YYYY/MM/DD hh:mm}
DLIS_CREA.  2021-Jul-30 07:07                          :DLIS Creation date and time {YYYY-MMM-DD hh:mm}
SOURCE.     dc707e3c-4962-4d77-8314-dc20fe7b42b8       :DLIS File Name
#--------------------------------------------------
~WELL INFORMATION
#MNEM.UNIT      DATA             DESCRIPTION
#---- ------ --------------   -----------------------------
STRT .F        8616.5000     :START DEPTH     
STOP .F        9518.5000     :STOP DEPTH     
STEP .F           0.5000       :STEP     
NULL .          -999.25      :NULL VALUE
COMP .                 COMPANY:  University Of Utah                 
WELL .                    WELL:  FORGE 78B-32                       
FLD  .                   FIELD:  None                               
LOC  .                LOCATION:  Lat: 38.500171, Long: -112.88221   
CNTY .                  COUNTY:  Beaver                             
STAT .                   STATE:  Utah                               
CTRY .                 COUNTRY:                                     
SRVC .         SERVICE COMPANY:  Schlumberger                       
LATI .DEG             LATITUDE:  38 30' 0.616" N                   
LONG .DEG            LONGITUDE:  112 52' 55.956" W                 
API  .              API NUMBER:  NRC 42-00090-03                    
DATE .                LOG DATE:  30-Jul-2021
UWI  .          UNIQUE WELL ID:                                     
#-----------------------------------------------------------------------------
~PARAMETER INFORMATION
#MNEM.UNIT    VALUE                      DESCRIPTION
#---- -----   --------------------       ------------------------
CN   .        University Of Utah         :Company Name
WN   .        FORGE 78B-32               :Well Name
FN   .        None                       :Field Name
FL   .        Lat  38.500171  Long  -112.88221 :Field Location
FL1  .                                   :Field Location, Line 1
COUN .        Beaver                     :County or Parish
STAT .        Utah                       :State or Province
NATI .                                   :Nation
DATE .        30-Jul-2021                :Tools Above Rotary Table Date
APIN .        NRC 42-00090-03            :API Well Number
SECT .                                   :Section
TOWN .                                   :Township
RANG .                                   :Range
DMF  .        KB                         :Drilling Measured From (Name of Drilling Elevation Reference)
LMF  .        KB                         :Logging Measured From (Name of Logging Elevation Reference)
PDAT .        GL                         :Permanent Datum
ENGI .        CSTILES                    :Engineer s Name
WITN .        Virgil  Welch              :Witness s Name
LATI .        38� 30' 0.616  N           :Latitude
LONG .        112� 52' 55.956  W         :Longitude
LUL  .        F.Morgan                   :Logging Unit Location
LUN  .        9108                       :Logging Unit Number
RUN  .        1B                         :Run Number
SON  .                                   :Service Order Number
BHT  .DEGF     419.00000                 :Bottom Hole Temperature
BS   .IN         5.75000                 :Bit Size
MDEN .G/C3       2.71000                 :Matrix Density for Density Porosity
DFD  .LB/G       8.30000                 :Drilling Fluid Density
DFV  .S         24.00000                 :Drilling Fluid Viscosity
DFL  .C3      -999.25000                 :Drilling Fluid Loss
RMFS .OHMM       4.42000                 :Resistivity of Mud Filtrate Sample
EKB  .F       5565.50000                 :Elevation of Kelly Bushing
EGL  .F       5536.00000                 :Elevation of Ground Level
BLI  .F       9532.00000                 :Bottom Log Interval
BSAL .PPM      700.00000                 :Borehole Salinity
FLEV .F          8.00000                 :Depth of Drilling Fluid Level to LMF (Log Measured From)
MCST .DEGF      62.00000                 :Mudcake Sample Temperature
MFST .DEGF      62.00000                 :Mud Filtrate Sample Temperature
MRT  .DEGF     419.00000                 :Maximum Recorded Temperature
MST  .DEGF      62.00000                 :Mud Sample Temperature
RMCS .OHMM       6.21000                 :Resistivity of Mud Cake Sample
RMS  .OHMM       5.20000                 :Resistivity of Mud Sample
RW   .OHMM       1.00000                 :Connate Water Resistivity
TDD  .F       9500.00000                 :Driller Total Depth
TDL  .F       9532.00000                 :Logger Total Depth
TLI  .F       8530.00000                 :Top Log Interval
HIDE .                                   :Header Identifier
MATR .        LIME                       :Rock Matrix for Neutron Porosity Corrections
FNUM .           1.00000                 :F-Numerator for Formation Factor Formula
FEXP .           2.00000                 :Exponent "m" for Formation Factor Formula
DFT  .        WATER                      :Drilling Fluid Type
DFPH .          11.00000                 :Drilling Fluid pH
MCSS .        Calculated                 :Mudcake Sample Source
MFSS .        Calculated                 :Mud Filtrate Sample Source
FD   .G/C3       1.00000                 :Fluid Density
MSS  .        Flowline                   :Mud Sample Source
OS1  .                                   :Other Services Line 1
OS2  .                                   :Other Services Line 2
OS3  .                                   :Other Services Line 3
OS4  .                                   :Other Services Line 4
OS5  .                                   :Other Services Line 5
R1   .                                   :Remarks Line 1
R2   .                                   :Remarks Line 2
R3   .                                   :Remarks Line 3
R4   .                                   :Remarks Line 4
R5   .                                   :Remarks Line 5
R6   .        Tool was run as per tool sketch :Remarks Line 6
R7   .        All logging intervals as per client request :Remarks Line 7
R8   .                                   :Remarks Line 8
TCS  .        20 00 00                   :Time Circulation Stopped
TLAB .        02 17 00                   :Time Logger At Bottom
NMT  .        NOBARITE                   :HRDD Mud Type for Nuclear Devices
EPD  .C3         5536.000000             :Elevation of Permanent Datum above Mean Sea Level
APD  .F          29.500000               :Elevation of Depth Reference (LMF) above Permanent Datum
#-----------------------------------------------------------------------------
~CURVE INFORMATION
#MNEM.UNIT   API CODE                                  DESCRIPTION
#---- -----  --------                                  -----------------------
DEPT .F                                                :DEPTH (BOREHOLE) {F12.4}
AF10 .OHMM                                             :Array Induction Four Foot Resistivity A10 {F11.4}
AF20 .OHMM                                             :Array Induction Four Foot Resistivity A20 {F11.4}
AF30 .OHMM                                             :Array Induction Four Foot Resistivity A30 {F11.4}
AF60 .OHMM                                             :Array Induction Four Foot Resistivity A60 {F11.4}
AF90 .OHMM                                             :Array Induction Four Foot Resistivity A90 {F11.4}
AO10 .OHMM                                             :Array Induction One Foot Resistivity A10 {F11.4}
AO20 .OHMM                                             :Array Induction One Foot Resistivity A20 {F11.4}
AO30 .OHMM                                             :Array Induction One Foot Resistivity A30 {F11.4}
AO60 .OHMM                                             :Array Induction One Foot Resistivity A60 {F11.4}
AO90 .OHMM                                             :Array Induction One Foot Resistivity A90 {F11.4}
AT10 .OHMM                                             :Array Induction Two Foot Resistivity A10 {F11.4}
AT20 .OHMM                                             :Array Induction Two Foot Resistivity A20 {F11.4}
AT30 .OHMM                                             :Array Induction Two Foot Resistivity A30 {F11.4}
AT60 .OHMM                                             :Array Induction Two Foot Resistivity A60 {F11.4}
AT90 .OHMM                                             :Array Induction Two Foot Resistivity A90 {F11.4}
AORT .OHMM                                             :Array Induction One Foot Rt {F11.4}
AORX .OHMM                                             :Array Induction One Foot Rxo {F11.4}
CDF  .LBF                                              :Calibrated Downhole Force {F11.4}
CFTC .HZ                                               :Corrected Far Thermal Count Rate {F11.4}
CNTC .HZ                                               :Corrected Near Thermal Count Rate {F11.4}
CTEM .DEGF                                             :Cartridge Temperature {F11.4}
DCAL .IN                                               :Differential Caliper {F11.4}
DT   .US/F                                             :Delta-T (also called Slowness or Interval Transit Time) {F11.4}
DTCO .US/F                                             :Delta-T Compressional {F11.4}
DTSM .US/F                                             :Delta-T Shear {F11.4}
ED   .F                                                :East Departure {F11.4}
GR_STGC.GAPI                                           :Gamma Ray {F11.4}
GTEM .DEGF                                             :Generalized Borehole Temperature {F11.4}
HGR_STGC.GAPI                                          :High Resolution Gamma Ray {F11.4}
HNPO .CFCF                                             :High Resolution Enhanced Thermal Neutron Porosity in Selected Lithology {F11.4}
HTNP .CFCF                                             :High Resolution Thermal Neutron Porosity (Ratio Method) in Selected Lithology {F11.4}
ITT  .S                                                :Integrated Transit Time {F11.4}
ND   .F                                                :North Departure {F11.4}
NPHI .CFCF                                             :Thermal Neutron Porosity (original Ratio Method) in Selected Lithology {F11.4}
NPOR .CFCF                                             :Enhanced Thermal Neutron Porosity in Selected Lithology {F11.4}
PR   .                                                 :Poisson s Ratio {F11.4}
SP   .MV                                               :Spontaneous Potential {F11.4}
SPAR .MV                                               :SP, Armor Return Compensated {F11.4}
SPHI .CFCF                                             :Sonic Porosity {F11.4}
STIT .F                                                :Stuck Tool Indicator, Total {F11.4}
TENS .LBF                                              :Cable Tension {F11.4}
TNPH .CFCF                                             :Thermal Neutron Porosity (Ratio Method) in Selected Lithology {F11.4}
HTNP_SAN.CFCF                                          :HiRes Thermal Neutron Porosity (matrix Sandstone) {F11.4}
#-----------------------------------------------------------------------------
# 
#      DEPT        AF10       AF20       AF30       AF60       AF90       AO10       AO20       AO30       AO60       AO90       AT10       AT20       AT30       AT60       AT90       AORT       AORX       CDF        CFTC       CNTC       CTEM       DCAL        DT        DTCO       DTSM        ED      GR_STGC      GTEM     HGR_STGC     HNPO       HTNP       ITT         ND        NPHI       NPOR        PR         SP        SPAR       SPHI       STIT       TENS       TNPH     HTNP_SAN
#
~A  
# ...
   9152.0000  1950.0000    63.7532   421.7260   517.9092   716.6426  1950.0000    62.3188   285.2502   159.8755   145.7517  1950.0000    62.4309   418.9900   414.7196   301.9794   136.0110  1882.6823 -9621.2520 16094.9902 21805.0820   116.1412     0.0000   107.5195   107.5195   171.9264     0.0000   130.9008   407.5912   131.6304     0.0114     0.0035     0.0476     0.0000     0.0074    -0.0084     0.1788    36.8750    36.1970     0.2995     0.0000  3133.0000     0.0024     0.0304
   9152.5000  1950.0000    62.4618   431.9458   618.6003   714.5663  1950.0000    54.1048   233.6355   187.7000   171.0194  1950.0000    59.4922   437.6640   504.1872   314.4981   142.8338  1868.4897 -9568.3535 16869.0625 21308.5938   116.1412     0.0000    92.1094    92.1094   170.5608     0.0000   130.9630   407.6143   130.6830     0.0084     0.0064     0.0477     0.0000     0.0091    -0.0037     0.2941    36.8750    36.3643     0.2450     0.0000  3133.0000     0.0035     0.0338
   9153.0000  1950.0000    61.4690   444.4805   772.1348   706.8854  1950.0000    43.3725   192.8313   128.6911   116.6514  1950.0000    58.2785   439.1035   644.3603   322.5339   110.9641  1839.4844 -9531.0977 16622.8574 20350.1348   116.1412     0.0000    92.1094    92.1094   167.2414     0.0000   130.6901   407.6557   128.8841     0.0073     0.0033     0.0477     0.0000     0.0071     0.0072     0.2823    36.8750    36.6577     0.2450     0.0000  3113.5002     0.0042     0.0301
   9153.5000  1950.0000    61.8532   438.7739   989.2877   687.7437  1950.0000    48.0951   343.7849   182.6015   161.1840  1950.0000    57.8448   409.7186   870.0839   330.7032   139.6335  1866.1125 -9546.8818 15765.1748 19547.4277   116.1412     0.0000    92.1094    92.1094   165.8759     0.0000   129.6668   407.6051   131.1407     0.0095     0.0047     0.0477     0.0000     0.0068     0.0081     0.2771    36.8750    36.8121     0.2450     0.0000  3123.0000     0.0030     0.0319
   9154.0000  1950.0000    62.1579   423.7550  1265.1260   661.9485  1950.0000    59.7204   478.0085   205.4113   185.9196  1950.0000    60.0349   346.7283  1150.5599   314.9040   155.9901  1862.8340 -9617.4834 16166.5059 20179.0273   116.1412     0.0000    92.1094    92.1094   165.8697     0.0000   128.3969   407.6466   130.5731    -0.0031     0.0018     0.0478     0.0000     0.0055    -0.0014     0.2771    36.8750    36.9629     0.2450     0.0000  3122.0000     0.0027     0.0284
   9154.5000  1950.0000    64.4313   421.7929  1551.7805   645.6637  1950.0000    71.8868   468.3278   285.3009   244.2730  1950.0000    67.1963   353.6620  1438.5081   352.9622   190.0292  1853.2223 -9617.1641 16259.8975 18701.5039   116.1412     0.0000    92.9395    92.9395   165.8636     0.0000   126.7681   407.6650   126.2207     0.0064     0.0001     0.0478     0.0000     0.0049     0.0138     0.2712    36.8750    37.1132     0.2484     0.0000  3123.0000     0.0016     0.0264
   9155.0000  1950.0000    67.2470   417.8467  1796.0481   654.3226  1950.0000    80.3716   353.4279   303.9650   257.0200  1950.0000    69.9891   390.8965  1593.8613   451.1989   212.8523  1828.5437 -9584.7773 16655.8398 20121.5918   116.1412     0.0000   102.7441   102.7441   165.3771     0.0000   127.7908   407.7203   126.6193     0.0047    -0.0002     0.0479     0.0000     0.0052     0.0029     0.1857    37.5000    37.3686     0.2843     0.0000  3118.0002     0.0026     0.0260
   9155.5000  1950.0000    70.9104   420.8639  1924.6597   709.3832  1950.0000    66.0644   189.4374   479.2545   397.8541  1950.0000    77.5362   423.0221  1689.7384   569.6206   253.6303  1623.3807 -9533.7998 16242.4492 20504.6953   116.1412     0.0000   111.7188   111.7188   165.3710     0.0000   130.7811   407.7295   130.6811     0.0018     0.0033     0.0479     0.0000     0.0074     0.0030     0.0802    37.5000    37.5305     0.3117     0.0000  3115.0002     0.0033     0.0302
   9156.0000  1950.0000    73.1626   403.1376  1950.0000   798.7099  1950.0000    89.5410   221.5632   676.9263   545.4625  1950.0000    80.9201   418.4295  1628.9686   772.2770   263.0192  1858.8893 -9532.0928 16606.2051 21192.4727   116.1412     0.0000   111.7188   111.7188   165.3649     0.0000   131.4561   407.7342   134.4954     0.0033     0.0048     0.0480     0.0000     0.0096     0.0003     0.0802    37.5000    37.7044     0.3117     0.0000  3112.0002     0.0046     0.0319
   9156.5000  1950.0000    74.6147   381.2869  1950.0000   910.3807  1950.0000    91.0729   398.6703   633.3736   509.0787  1950.0000    88.5573   382.6974  1493.4685  1067.0927   321.4400  1605.3018 -9602.7666 16424.3926 21825.5137   116.1412     0.0000    98.2617    98.2617   164.3979     0.0000   130.5524   407.6972   130.4143     0.0024     0.0065     0.0481     0.0000     0.0093    -0.0059     0.2221    37.8125    38.1092     0.2688     0.0000  3103.0000     0.0046     0.0339
   9157.0000  1950.0000    75.1818   354.5495  1950.0000  1009.2272  1950.0000   115.8341   512.1721   350.2196   259.4190  1950.0000    98.7164   344.9949  1317.9077  1417.5964   253.7852  1772.6824 -9606.3213 16160.0010 20178.5254   116.1412     0.0000   100.7422   100.7422   168.9355     0.0000   128.9228   407.7526   126.3400     0.0060     0.0049     0.0481     0.0000     0.0081     0.0109     0.2241    38.1250    38.3162     0.2776     0.0000  3111.0000     0.0047     0.0320
   9157.5000  1950.0000    75.3972   331.5542  1950.0000  1074.2335  1950.0000   141.2945   395.1778   439.7967   358.8809  1950.0000    95.6349   335.7769  1150.7628  1671.9102   294.8122  1727.0093 -9596.4385 16589.7129 20024.6855   116.1412     0.0000   100.7422   100.7422   168.9355     0.0000   129.1627   407.8079   128.5154     0.0021     0.0018     0.0482     0.0000     0.0071     0.0085     0.2241    38.1250    38.5420     0.2776     0.0000  3112.0002     0.0040     0.0284
   9158.0000  1950.0000    73.0606   319.7582  1950.0000  1074.8705  1950.0000    94.0365   281.9903   443.4702   366.9060  1950.0000    84.1192   377.9124  1010.8687  1746.4329   289.1435  1692.9888 -9546.9531 16194.0947 20619.3672   116.1412     0.0000   100.7422   100.7422   169.7274     0.0000   126.7526   407.7987   129.8099     0.0012     0.0037     0.0482     0.0000     0.0050     0.0018     0.2280    38.7500    38.7862     0.2776     0.0000  3111.0000     0.0026     0.0306
   9158.5000  1950.0000    68.8835   321.0315  1950.0000  1082.3306  1950.0000   128.8426   246.7567   513.7610   460.2644  1950.0000    90.8639   306.0328   937.1661  1819.0037   319.4124  1672.7371 -9544.6064 17314.2871 19604.8633   116.1412     0.0000    98.4473    98.4473   170.1004     0.0000   122.4055   407.8402   123.7970     0.0101     0.0003     0.0483     0.0000     0.0078     0.0146     0.2482    38.7500    39.2815     0.2695     0.0000  3113.0002     0.0034     0.0266
   9159.0000  1950.0000    64.3761   329.7878  1895.6895  1160.7499  1950.0000   124.5972   327.7854   686.2356   585.0178  1950.0000    85.1698   357.6035  1079.4673  1739.3988   346.3548  1596.4487 -9592.2441 16292.3906 22207.1094   116.1412     0.0000    87.3145    87.3145   170.8923     0.0000   117.0547   407.7941   116.5654    -0.0005     0.0071     0.0483     0.0000     0.0081    -0.0121     0.3234    39.3750    39.5565     0.2241     0.0000  3121.0000     0.0033     0.0347
   9159.5000  1950.0000    60.4733   341.9214  1738.2452  1306.4772  1950.0000    95.8664   357.0466   880.8279   762.9364  1950.0000    77.8369   363.9044  1097.6371  1561.9399   340.4976  1771.8323 -9606.0547 16144.6211 20800.6309   116.1412     0.0000    75.8789    75.8789   171.6842     0.0000   116.6120   407.8171   113.8591     0.0098     0.0074     0.0483     0.0000     0.0112     0.0022     0.3786    40.0000    39.8420     0.1637     0.0000  3115.5002     0.0059     0.0350
   9160.0000  1950.0000    54.1092   341.5074  1460.7054  1469.6500  1950.0000    57.7504   413.7146   875.0353   746.8510  1950.0000    61.9614   348.1226  1044.0925  1292.9110   333.8402  1577.2997 -9607.5303 15104.6533 19758.0273   116.1412     0.0000    70.9082    70.9082   169.8130     0.0000   120.1443   407.8448   117.6440     0.0035     0.0076     0.0484     0.0000     0.0089     0.0144     0.3944    40.6250    40.3435     0.1314     0.0000  3120.0000     0.0066     0.0352
