~VERSION INFORMATION
VERS.           1.2   :CWLS Log ASCII Standard - VERSION 1.2
WRAP.           NO    :One Line per depth step
PROD.  Schlumberger   :LAS Producer
PROG.  DLIS to ASCII 2.3                               :LAS Program name and version
CREA.        2021/07/30 13:36                          :LAS Creation date {YYYY/MM/DD hh:mm}
DLIS_CREA.  2021-Jul-30 07:08                          :DLIS Creation date and time {YYYY-MMM-DD hh:mm}
SOURCE.     6d1d3df9-7549-4232-acfc-119b5b71a716       :DLIS File Name
#--------------------------------------------------
~WELL INFORMATION
#MNEM.UNIT      DATA             DESCRIPTION
#---- ------ --------------   -----------------------------
STRT .F      7447.0000       :START DEPTH     
STOP .F      9553.0000       :STOP DEPTH     
STEP .F       0.5000         :STEP       
NULL .          -999.25      :NULL VALUE
COMP .                 COMPANY:  University Of Utah                 
WELL .                    WELL:  FORGE 78B-32                       
FLD  .                   FIELD:  None                               
LOC  .                LOCATION:  Lat: 38.500171, Long: -112.88221   
CNTY .                  COUNTY:  Beaver                             
STAT .                   STATE:  Utah                               
CTRY .                 COUNTRY:                                     
SRVC .         SERVICE COMPANY:  Schlumberger                       
LATI .DEG             LATITUDE:  38 30' 0.616" N                   
LONG .DEG            LONGITUDE:  112 52' 55.956" W                 
API  .              API NUMBER:  NRC 42-00090-03                    
DATE .                LOG DATE:  30-Jul-2021
UWI  .          UNIQUE WELL ID:                                     
#-----------------------------------------------------------------------------
~PARAMETER INFORMATION
#MNEM.UNIT    VALUE                      DESCRIPTION
#---- -----   --------------------       ------------------------
CN   .        University Of Utah         :Company Name
WN   .        FORGE 78B-32               :Well Name
FN   .        None                       :Field Name
FL   .        Lat  38.500171  Long  -112.88221 :Field Location
FL1  .                                   :Field Location, Line 1
COUN .        Beaver                     :County or Parish
STAT .        Utah                       :State or Province
NATI .                                   :Nation
DATE .        30-Jul-2021                :Tools Above Rotary Table Date
APIN .        NRC 42-00090-03            :API Well Number
SECT .                                   :Section
TOWN .                                   :Township
RANG .                                   :Range
DMF  .        KB                         :Drilling Measured From (Name of Drilling Elevation Reference)
LMF  .        KB                         :Logging Measured From (Name of Logging Elevation Reference)
PDAT .        GL                         :Permanent Datum
ENGI .        CSTILES                    :Engineer s Name
WITN .        Virgil  Welch              :Witness s Name
LATI .        38� 30' 0.616  N           :Latitude
LONG .        112� 52' 55.956  W         :Longitude
LUL  .        F.Morgan                   :Logging Unit Location
LUN  .        9108                       :Logging Unit Number
RUN  .        1B                         :Run Number
SON  .                                   :Service Order Number
BHT  .DEGF     419.00000                 :Bottom Hole Temperature
BS   .IN         5.75000                 :Bit Size
MDEN .G/C3       2.71000                 :Matrix Density for Density Porosity
DFD  .LB/G       8.30000                 :Drilling Fluid Density
DFV  .S         24.00000                 :Drilling Fluid Viscosity
DFL  .C3      -999.25000                 :Drilling Fluid Loss
RMFS .OHMM       4.42000                 :Resistivity of Mud Filtrate Sample
EKB  .F       5565.50000                 :Elevation of Kelly Bushing
EGL  .F       5536.00000                 :Elevation of Ground Level
BLI  .F       9532.00000                 :Bottom Log Interval
BSAL .PPM      700.00000                 :Borehole Salinity
FLEV .F          8.00000                 :Depth of Drilling Fluid Level to LMF (Log Measured From)
MCST .DEGF      62.00000                 :Mudcake Sample Temperature
MFST .DEGF      62.00000                 :Mud Filtrate Sample Temperature
MRT  .DEGF     419.00000                 :Maximum Recorded Temperature
MST  .DEGF      62.00000                 :Mud Sample Temperature
RMCS .OHMM       6.21000                 :Resistivity of Mud Cake Sample
RMS  .OHMM       5.20000                 :Resistivity of Mud Sample
RW   .OHMM       1.00000                 :Connate Water Resistivity
TDD  .F       9500.00000                 :Driller Total Depth
TDL  .F       9532.00000                 :Logger Total Depth
TLI  .F       8530.00000                 :Top Log Interval
HIDE .                                   :Header Identifier
MATR .        LIME                       :Rock Matrix for Neutron Porosity Corrections
FNUM .           1.00000                 :F-Numerator for Formation Factor Formula
FEXP .           2.00000                 :Exponent "m" for Formation Factor Formula
DFT  .        WATER                      :Drilling Fluid Type
DFPH .          11.00000                 :Drilling Fluid pH
MCSS .        Calculated                 :Mudcake Sample Source
MFSS .        Calculated                 :Mud Filtrate Sample Source
FD   .G/C3       1.00000                 :Fluid Density
MSS  .        Flowline                   :Mud Sample Source
OS1  .                                   :Other Services Line 1
OS2  .                                   :Other Services Line 2
OS3  .                                   :Other Services Line 3
OS4  .                                   :Other Services Line 4
OS5  .                                   :Other Services Line 5
R1   .                                   :Remarks Line 1
R2   .                                   :Remarks Line 2
R3   .                                   :Remarks Line 3
R4   .                                   :Remarks Line 4
R5   .                                   :Remarks Line 5
R6   .        Tool was run as per tool sketch :Remarks Line 6
R7   .        All logging intervals as per client request :Remarks Line 7
R8   .                                   :Remarks Line 8
TCS  .        20 00 00                   :Time Circulation Stopped
TLAB .        02 17 00                   :Time Logger At Bottom
NMT  .        NOBARITE                   :HRDD Mud Type for Nuclear Devices
EPD  .C3         5536.000000             :Elevation of Permanent Datum above Mean Sea Level
APD  .F          29.500000               :Elevation of Depth Reference (LMF) above Permanent Datum
#-----------------------------------------------------------------------------
~CURVE INFORMATION
#MNEM.UNIT   API CODE                                  DESCRIPTION
#---- -----  --------                                  -----------------------
DEPT .F                                                :DEPTH (BOREHOLE) {F12.4}
AF10 .OHMM                                             :Array Induction Four Foot Resistivity A10 {F11.4}
AF20 .OHMM                                             :Array Induction Four Foot Resistivity A20 {F11.4}
AF30 .OHMM                                             :Array Induction Four Foot Resistivity A30 {F11.4}
AF60 .OHMM                                             :Array Induction Four Foot Resistivity A60 {F11.4}
AF90 .OHMM                                             :Array Induction Four Foot Resistivity A90 {F11.4}
AO10 .OHMM                                             :Array Induction One Foot Resistivity A10 {F11.4}
AO20 .OHMM                                             :Array Induction One Foot Resistivity A20 {F11.4}
AO30 .OHMM                                             :Array Induction One Foot Resistivity A30 {F11.4}
AO60 .OHMM                                             :Array Induction One Foot Resistivity A60 {F11.4}
AO90 .OHMM                                             :Array Induction One Foot Resistivity A90 {F11.4}
AT10 .OHMM                                             :Array Induction Two Foot Resistivity A10 {F11.4}
AT20 .OHMM                                             :Array Induction Two Foot Resistivity A20 {F11.4}
AT30 .OHMM                                             :Array Induction Two Foot Resistivity A30 {F11.4}
AT60 .OHMM                                             :Array Induction Two Foot Resistivity A60 {F11.4}
AT90 .OHMM                                             :Array Induction Two Foot Resistivity A90 {F11.4}
AORT .OHMM                                             :Array Induction One Foot Rt {F11.4}
AORX .OHMM                                             :Array Induction One Foot Rxo {F11.4}
CDF  .LBF                                              :Calibrated Downhole Force {F11.4}
CFTC .HZ                                               :Corrected Far Thermal Count Rate {F11.4}
CNTC .HZ                                               :Corrected Near Thermal Count Rate {F11.4}
CTEM .DEGF                                             :Cartridge Temperature {F11.4}
DCAL .IN                                               :Differential Caliper {F11.4}
DT   .US/F                                             :Delta-T (also called Slowness or Interval Transit Time) {F11.4}
DTCO .US/F                                             :Delta-T Compressional {F11.4}
DTSM .US/F                                             :Delta-T Shear {F11.4}
ED   .F                                                :East Departure {F11.4}
GR_STGC.GAPI                                           :Gamma Ray {F11.4}
GTEM .DEGF                                             :Generalized Borehole Temperature {F11.4}
HGR_STGC.GAPI                                          :High Resolution Gamma Ray {F11.4}
HNPO .CFCF                                             :High Resolution Enhanced Thermal Neutron Porosity in Selected Lithology {F11.4}
HTNP .CFCF                                             :High Resolution Thermal Neutron Porosity (Ratio Method) in Selected Lithology {F11.4}
ITT  .S                                                :Integrated Transit Time {F11.4}
ND   .F                                                :North Departure {F11.4}
NPHI .CFCF                                             :Thermal Neutron Porosity (original Ratio Method) in Selected Lithology {F11.4}
NPOR .CFCF                                             :Enhanced Thermal Neutron Porosity in Selected Lithology {F11.4}
PR   .                                                 :Poisson s Ratio {F11.4}
SP   .MV                                               :Spontaneous Potential {F11.4}
SPAR .MV                                               :SP, Armor Return Compensated {F11.4}
SPHI .CFCF                                             :Sonic Porosity {F11.4}
STIT .F                                                :Stuck Tool Indicator, Total {F11.4}
TENS .LBF                                              :Cable Tension {F11.4}
TNPH .CFCF                                             :Thermal Neutron Porosity (Ratio Method) in Selected Lithology {F11.4}
HTNP_SAN.CFCF                                          :HiRes Thermal Neutron Porosity (matrix Sandstone) {F11.4}
#-----------------------------------------------------------------------------
# 
#      DEPT        AF10       AF20       AF30       AF60       AF90       AO10       AO20       AO30       AO60       AO90       AT10       AT20       AT30       AT60       AT90       AORT       AORX       CDF        CFTC       CNTC       CTEM       DCAL        DT        DTCO       DTSM        ED      GR_STGC      GTEM     HGR_STGC     HNPO       HTNP       ITT         ND        NPHI       NPOR        PR         SP        SPAR       SPHI       STIT       TENS       TNPH     HTNP_SAN
#
~A  
# ...
   8424.5000     0.3159  1950.0000  1950.0000     6.5556    39.1672     0.2974  1950.0000     4.7742     1.6154     2.0996     0.3014  1950.0000  1950.0000     6.4991    56.1315     1.5988     0.3009 -9999.9999  2509.9241  5858.4722   137.8823     0.0000    55.6836    55.6836   107.3938     0.0000    67.2435   374.5216    67.4981     0.0470     0.0497     0.0586     0.0000     0.0193     0.0443     0.3162   -10.3125    -9.6969    -0.0036     0.0000  3931.0000     0.0463     0.0879
   8425.0000     0.3145  1950.0000  1950.0000     6.3639    37.1815     0.3035  1950.0000     6.8202     1.5473     1.9923     0.2999  1950.0000  1950.0000     6.2769    38.8939     1.5770     0.3017 -9999.9999  2283.9988  5461.4878   137.8823     0.0000    55.4297    55.4297   121.0463     0.0000    52.3534   374.5207    46.6530     0.0596     0.0565     0.0586     0.0000     0.0290     0.0637     0.3673    -9.5833    -9.3509    -0.0064     0.0000  3951.0000     0.0572     0.0965
   8425.5000     0.3146  1950.0000  1950.0000     6.2617    35.8619     0.3074  1950.0000     8.9840     1.4215     1.8217     0.3010  1950.0000  1950.0000     6.1276    26.8294     1.5808     0.3046 -9999.9999  2074.7578  5474.3599   137.8823     0.0000    55.2637    55.2637   119.4993     0.0000    44.3848   374.5372    42.9091     0.0682     0.0672     0.0585     0.0000     0.0339     0.0626     0.3640    -8.9063    -9.0881    -0.0083     0.0000  3933.0000     0.0632     0.1102
   8426.0000     0.3163  1950.0000  1950.0000     6.2682    35.5637     0.3072  1950.0000    11.7835     1.4512     1.8836     0.3043  1950.0000  1950.0000     6.0546    19.7534     1.6174     0.3092 -9999.9999  2042.6735  5288.9067   137.8823     0.0000    54.8242    54.8242   120.7577     0.0000    45.0516   374.5332    43.5924     0.0656     0.0651     0.0585     0.0000     0.0410     0.0673     0.3702    -8.7500    -8.7073    -0.0134     0.0000  3926.0002     0.0677     0.1075
   8426.5000     0.3194  1950.0000  1950.0000     6.3935    36.4112     0.3024  1950.0000    19.1469     1.6198     2.1688     0.3103  1950.0000  1950.0000     6.1320    16.2817     1.6915     0.3159 -9999.9999  1897.4766  5205.0054   137.8823     0.0000    54.0430    54.0430   121.0854     0.0000    48.2808   374.5460    48.6532     0.0759     0.0734     0.0585     0.0000     0.0432     0.0727     0.3756    -8.2813    -8.3489    -0.0226     0.0000  3972.0000     0.0729     0.1180
   8427.0000     0.3232  1950.0000  1950.0000     6.6265    38.2446     0.3035  1950.0000    37.6217     1.7771     2.4362     0.3198  1950.0000  1950.0000     6.4535    15.3763     1.8034     0.3245 -9999.9999  1803.6783  4959.8359   137.8823     0.0000    53.5742    53.5742   121.4346     0.0000    51.7936   374.5486    52.1865     0.0809     0.0783     0.0585     0.0000     0.0486     0.0842     0.3792    -7.9167    -7.9875    -0.0283     0.0000  4000.0000     0.0778     0.1242
   8427.5000     0.3265  1950.0000  1950.0000     6.9146    40.5240     0.3278  1950.0000    75.7997     1.9572     2.6944     0.3315  1950.0000  1950.0000     7.0200    16.4979     1.9444     0.3338 -9999.9999  1778.9462  5068.7007   137.8823     0.0000    54.9805    54.9805   122.7371     0.0000    51.6394   374.5585    54.1307     0.0812     0.0784     0.0584     0.0000     0.0504     0.0792     0.3745    -7.1875    -7.5306    -0.0116     0.0000  4068.0000     0.0801     0.1244
   8428.0000     0.3280  1950.0000  1950.0000     7.1541    42.3461     0.3800  1950.0000    70.5239     2.2585     3.1219     0.3411  1950.0000  1950.0000     7.6202    19.3143     2.0912     0.3404 -9999.9999  1765.5558  4994.5029   137.8823     0.0000    54.0430    54.0430   122.5331     0.0000    52.4090   374.5598    48.1905     0.0851     0.0810     0.0584     0.0000     0.0494     0.0786     0.3792    -6.6667    -7.2400    -0.0226     0.0000  4072.0000     0.0775     0.1276
   8428.5000     0.3267  1950.0000  1950.0000     7.2290    42.8343     0.4176  1950.0000    25.4751     2.5738     3.6461     0.3429  1950.0000  1950.0000     7.8341    22.6077     2.2044     0.3408 -9999.9999  1854.6866  5012.4629   137.8823     0.0000    54.0820    54.0820   120.1252     0.0000    51.0339   374.5610    54.9059     0.0778     0.0717     0.0584     0.0000     0.0482     0.0806     0.3729    -6.2500    -6.7096    -0.0222     0.0000  4087.0002     0.0780     0.1159
   8429.0000     0.3230  1950.0000  1950.0000     7.0939    41.7293     0.3802  1950.0000     9.2555     2.7061     4.0308     0.3345  1950.0000  1950.0000     7.4632    24.0922     2.2412     0.3342 -9999.9999  1816.0452  5069.7163   137.8823     0.0000    54.4727    54.4727   118.6443     0.0000    53.4942   374.5763    50.0053     0.0671     0.0772     0.0583     0.0000     0.0484     0.0783     0.3664    -6.0417    -6.3107    -0.0175     0.0000  4111.0000     0.0769     0.1228
   8429.5000     0.3183  1950.0000  1950.0000     6.8159    39.5131     0.3065  1950.0000     4.7599     2.5463     3.9846     0.3200  1950.0000  1950.0000     6.8157    23.1485     2.1816     0.3237 -9999.9999  1832.6884  5203.9199   137.8823     0.0000    56.1328    56.1328   116.2042     0.0000    54.3588   374.5846    55.5713     0.0730     0.0792     0.0583     0.0000     0.0468     0.0726     0.3478    -5.6250    -6.0204     0.0015     0.0000  4113.0000     0.0746     0.1254
   8430.0000     0.3145  1950.0000  1950.0000     6.5161    36.9461     0.2957  1950.0000     3.5849     2.2708     3.5779     0.3070  1950.0000  1950.0000     6.2773    21.3863     2.0477     0.3143 -9999.9999  1990.2319  5222.8364   137.8823     0.0000    55.3711    55.3711   111.8400     0.0000    56.9985   374.5989    57.4998     0.0679     0.0685     0.0583     0.0000     0.0448     0.0713     0.3376    -5.4167    -5.5051    -0.0071     0.0000  4155.0000     0.0720     0.1119
   8430.5000     0.3130  1950.0000  1950.0000     6.2866    34.6074     0.2730  1950.0000     3.9103     2.0477     3.0823     0.3006  1950.0000  1950.0000     6.0055    19.8364     1.8912     0.3098 -9999.9999  1957.2651  5275.7471   137.8823     0.0000    58.9648    58.9648   107.0847     0.0000    57.6321   374.6071    57.9243     0.0643     0.0704     0.0583     0.0000     0.0426     0.0709     0.2824    -5.0000    -5.0466     0.0314     0.0000  4186.0000     0.0714     0.1142
   8431.0000     0.3143  1950.0000  1950.0000     6.1548    32.7510     0.2858  1950.0000     5.6871     1.7227     2.3814     0.3025  1950.0000  1950.0000     5.9776    18.2928     1.7648     0.3117 -9999.9999  1925.3176  5256.5869   137.8823     0.0000    56.4453    56.4453   105.1923     0.0000    57.4776   374.6123    57.4721     0.0671     0.0750     0.0582     0.0000     0.0445     0.0737     0.2978    -4.2188    -4.5043     0.0049     0.0000  4149.0000     0.0725     0.1201
   8431.5000     0.3179  1950.0000  1950.0000     6.0857    31.3461     0.3072  1950.0000     8.6208     1.3597     1.7592     0.3119  1950.0000  1950.0000     6.0786    16.4140     1.7062     0.3191 -9999.9999  1974.4977  5370.2988   137.8823     0.0000    53.6426    53.6426   102.5463     0.0000    55.2642   374.6346    57.0364     0.0690     0.0710     0.0582     0.0000     0.0464     0.0718     0.3116    -3.5938    -3.6840    -0.0275     0.0000  4146.0000     0.0746     0.1149
   8432.0000     0.3224  1950.0000  1950.0000     6.0007    30.1716     0.3528  1950.0000    10.8932     1.2321     1.5576     0.3253  1950.0000  1950.0000     6.1436    14.3525     1.7401     0.3295 -9999.9999  1903.6437  5304.5420   137.8823     0.0000    54.5703    54.5703   123.5662     0.0000    51.6995   374.6393    51.2843     0.0813     0.0786     0.0582     0.0000     0.0481     0.0748     0.3789    -3.1250    -2.9412    -0.0164     0.0000  4105.0000     0.0754     0.1246
   8432.5000     0.3264  1950.0000  1950.0000     5.8162    28.9656     0.3705  1950.0000    14.3150     1.4680     1.8878     0.3377  1950.0000  1950.0000     5.9991    12.3196     1.8873     0.3389 -9999.9999  1886.0599  5302.0054   137.8823     0.0000    53.1543    53.1543   102.6898     0.0000    51.2267   374.6560    46.7779     0.0846     0.0798     0.0581     0.0000     0.0483     0.0759     0.3170    -2.3438    -2.0092    -0.0335     0.0000  4035.0000     0.0769     0.1261
