~VERSION INFORMATION
VERS.           1.2   :CWLS Log ASCII Standard - VERSION 1.2
WRAP.           NO    :One Line per depth step
PROD.  Schlumberger   :LAS Producer
PROG.  DLIS to ASCII 2.3                               :LAS Program name and version
CREA.        2021/07/30 13:36                          :LAS Creation date {YYYY/MM/DD hh:mm}
DLIS_CREA.  2021-Jul-30 07:07                          :DLIS Creation date and time {YYYY-MMM-DD hh:mm}
SOURCE.     e39621fc-7919-4a62-8a2a-6ee9c8654461       :DLIS File Name
#--------------------------------------------------
~WELL INFORMATION
#MNEM.UNIT      DATA             DESCRIPTION
#---- ------ --------------   -----------------------------
STRT .F      8527.5000       :START DEPTH     
STOP .F      9107.0000       :STOP DEPTH     
STEP .F       0.5000         :STEP       
NULL .          -999.25      :NULL VALUE
COMP .                 COMPANY:  University Of Utah                 
WELL .                    WELL:  FORGE 78B-32                       
FLD  .                   FIELD:  None                               
LOC  .                LOCATION:  Lat: 38.500171, Long: -112.88221   
CNTY .                  COUNTY:  Beaver                             
STAT .                   STATE:  Utah                               
CTRY .                 COUNTRY:                                     
SRVC .         SERVICE COMPANY:  Schlumberger                       
LATI .DEG             LATITUDE:  38 30' 0.616" N                   
LONG .DEG            LONGITUDE:  112 52' 55.956" W                 
API  .              API NUMBER:  NRC 42-00090-03                    
DATE .                LOG DATE:  30-Jul-2021
UWI  .          UNIQUE WELL ID:                                     
#-----------------------------------------------------------------------------
~PARAMETER INFORMATION
#MNEM.UNIT    VALUE                      DESCRIPTION
#---- -----   --------------------       ------------------------
CN   .        University Of Utah         :Company Name
WN   .        FORGE 78B-32               :Well Name
FN   .        None                       :Field Name
FL   .        Lat  38.500171  Long  -112.88221 :Field Location
FL1  .                                   :Field Location, Line 1
COUN .        Beaver                     :County or Parish
STAT .        Utah                       :State or Province
NATI .                                   :Nation
DATE .        30-Jul-2021                :Tools Above Rotary Table Date
APIN .        NRC 42-00090-03            :API Well Number
SECT .                                   :Section
TOWN .                                   :Township
RANG .                                   :Range
DMF  .        KB                         :Drilling Measured From (Name of Drilling Elevation Reference)
LMF  .        KB                         :Logging Measured From (Name of Logging Elevation Reference)
PDAT .        GL                         :Permanent Datum
ENGI .        CSTILES                    :Engineer s Name
WITN .        Virgil  Welch              :Witness s Name
LATI .        38� 30' 0.616  N           :Latitude
LONG .        112� 52' 55.956  W         :Longitude
LUL  .        F.Morgan                   :Logging Unit Location
LUN  .        9108                       :Logging Unit Number
RUN  .        1B                         :Run Number
SON  .                                   :Service Order Number
BHT  .DEGF     419.00000                 :Bottom Hole Temperature
BS   .IN         5.75000                 :Bit Size
MDEN .G/C3       2.71000                 :Matrix Density for Density Porosity
DFD  .LB/G       8.30000                 :Drilling Fluid Density
DFV  .S         24.00000                 :Drilling Fluid Viscosity
DFL  .C3      -999.25000                 :Drilling Fluid Loss
RMFS .OHMM       4.42000                 :Resistivity of Mud Filtrate Sample
EKB  .F       5565.50000                 :Elevation of Kelly Bushing
EGL  .F       5536.00000                 :Elevation of Ground Level
BLI  .F       9532.00000                 :Bottom Log Interval
BSAL .PPM      700.00000                 :Borehole Salinity
FLEV .F          8.00000                 :Depth of Drilling Fluid Level to LMF (Log Measured From)
MCST .DEGF      62.00000                 :Mudcake Sample Temperature
MFST .DEGF      62.00000                 :Mud Filtrate Sample Temperature
MRT  .DEGF     419.00000                 :Maximum Recorded Temperature
MST  .DEGF      62.00000                 :Mud Sample Temperature
RMCS .OHMM       6.21000                 :Resistivity of Mud Cake Sample
RMS  .OHMM       5.20000                 :Resistivity of Mud Sample
RW   .OHMM       1.00000                 :Connate Water Resistivity
TDD  .F       9500.00000                 :Driller Total Depth
TDL  .F       9532.00000                 :Logger Total Depth
TLI  .F       8530.00000                 :Top Log Interval
HIDE .                                   :Header Identifier
MATR .        LIME                       :Rock Matrix for Neutron Porosity Corrections
FNUM .           1.00000                 :F-Numerator for Formation Factor Formula
FEXP .           2.00000                 :Exponent "m" for Formation Factor Formula
DFT  .        WATER                      :Drilling Fluid Type
DFPH .          11.00000                 :Drilling Fluid pH
MCSS .        Calculated                 :Mudcake Sample Source
MFSS .        Calculated                 :Mud Filtrate Sample Source
FD   .G/C3       1.00000                 :Fluid Density
MSS  .        Flowline                   :Mud Sample Source
OS1  .                                   :Other Services Line 1
OS2  .                                   :Other Services Line 2
OS3  .                                   :Other Services Line 3
OS4  .                                   :Other Services Line 4
OS5  .                                   :Other Services Line 5
R1   .                                   :Remarks Line 1
R2   .                                   :Remarks Line 2
R3   .                                   :Remarks Line 3
R4   .                                   :Remarks Line 4
R5   .                                   :Remarks Line 5
R6   .        Tool was run as per tool sketch :Remarks Line 6
R7   .        All logging intervals as per client request :Remarks Line 7
R8   .                                   :Remarks Line 8
TCS  .        20 00 00                   :Time Circulation Stopped
TLAB .        02 17 00                   :Time Logger At Bottom
NMT  .        NOBARITE                   :HRDD Mud Type for Nuclear Devices
EPD  .C3         5536.000000             :Elevation of Permanent Datum above Mean Sea Level
APD  .F          29.500000               :Elevation of Depth Reference (LMF) above Permanent Datum
#-----------------------------------------------------------------------------
~CURVE INFORMATION
#MNEM.UNIT   API CODE                                  DESCRIPTION
#---- -----  --------                                  -----------------------
DEPT .F                                                :DEPTH (BOREHOLE) {F12.4}
AF10 .OHMM                                             :Array Induction Four Foot Resistivity A10 {F11.4}
AF20 .OHMM                                             :Array Induction Four Foot Resistivity A20 {F11.4}
AF30 .OHMM                                             :Array Induction Four Foot Resistivity A30 {F11.4}
AF60 .OHMM                                             :Array Induction Four Foot Resistivity A60 {F11.4}
AF90 .OHMM                                             :Array Induction Four Foot Resistivity A90 {F11.4}
AO10 .OHMM                                             :Array Induction One Foot Resistivity A10 {F11.4}
AO20 .OHMM                                             :Array Induction One Foot Resistivity A20 {F11.4}
AO30 .OHMM                                             :Array Induction One Foot Resistivity A30 {F11.4}
AO60 .OHMM                                             :Array Induction One Foot Resistivity A60 {F11.4}
AO90 .OHMM                                             :Array Induction One Foot Resistivity A90 {F11.4}
AT10 .OHMM                                             :Array Induction Two Foot Resistivity A10 {F11.4}
AT20 .OHMM                                             :Array Induction Two Foot Resistivity A20 {F11.4}
AT30 .OHMM                                             :Array Induction Two Foot Resistivity A30 {F11.4}
AT60 .OHMM                                             :Array Induction Two Foot Resistivity A60 {F11.4}
AT90 .OHMM                                             :Array Induction Two Foot Resistivity A90 {F11.4}
AORT .OHMM                                             :Array Induction One Foot Rt {F11.4}
AORX .OHMM                                             :Array Induction One Foot Rxo {F11.4}
CDF  .LBF                                              :Calibrated Downhole Force {F11.4}
CFTC .HZ                                               :Corrected Far Thermal Count Rate {F11.4}
CNTC .HZ                                               :Corrected Near Thermal Count Rate {F11.4}
CTEM .DEGF                                             :Cartridge Temperature {F11.4}
DCAL .IN                                               :Differential Caliper {F11.4}
DT   .US/F                                             :Delta-T (also called Slowness or Interval Transit Time) {F11.4}
DTCO .US/F                                             :Delta-T Compressional {F11.4}
DTSM .US/F                                             :Delta-T Shear {F11.4}
ED   .F                                                :East Departure {F11.4}
GR_STGC.GAPI                                           :Gamma Ray {F11.4}
GTEM .DEGF                                             :Generalized Borehole Temperature {F11.4}
HGR_STGC.GAPI                                          :High Resolution Gamma Ray {F11.4}
HNPO .CFCF                                             :High Resolution Enhanced Thermal Neutron Porosity in Selected Lithology {F11.4}
HTNP .CFCF                                             :High Resolution Thermal Neutron Porosity (Ratio Method) in Selected Lithology {F11.4}
ITT  .S                                                :Integrated Transit Time {F11.4}
ND   .F                                                :North Departure {F11.4}
NPHI .CFCF                                             :Thermal Neutron Porosity (original Ratio Method) in Selected Lithology {F11.4}
NPOR .CFCF                                             :Enhanced Thermal Neutron Porosity in Selected Lithology {F11.4}
PR   .                                                 :Poisson s Ratio {F11.4}
SP   .MV                                               :Spontaneous Potential {F11.4}
SPAR .MV                                               :SP, Armor Return Compensated {F11.4}
SPHI .CFCF                                             :Sonic Porosity {F11.4}
STIT .F                                                :Stuck Tool Indicator, Total {F11.4}
TENS .LBF                                              :Cable Tension {F11.4}
TNPH .CFCF                                             :Thermal Neutron Porosity (Ratio Method) in Selected Lithology {F11.4}
HTNP_SAN.CFCF                                          :HiRes Thermal Neutron Porosity (matrix Sandstone) {F11.4}
#-----------------------------------------------------------------------------
# 
#      DEPT        AF10       AF20       AF30       AF60       AF90       AO10       AO20       AO30       AO60       AO90       AT10       AT20       AT30       AT60       AT90       AORT       AORX       CDF        CFTC       CNTC       CTEM       DCAL        DT        DTCO       DTSM        ED      GR_STGC      GTEM     HGR_STGC     HNPO       HTNP       ITT         ND        NPHI       NPOR        PR         SP        SPAR       SPHI       STIT       TENS       TNPH     HTNP_SAN
#
~A  
# ...
   8561.5000  1950.0000    75.3068    98.4809   219.6875  1305.0514    46.8566    49.5810    45.1593    53.6063    50.5583   696.0824    62.4546    63.1935    83.2659   125.3004    47.8739    65.7306 -9391.9492  2271.6506  6234.0288   114.1647     0.0000  -999.2500  -999.2500    95.4023     0.0000    98.6859   379.2201   107.5188     0.0856     0.0942  -999.2500     0.0000     0.0971     0.0894  -999.2500    33.2031    33.5901  -999.2500     0.0000  4018.7334     0.0947     0.1440
   8562.0000  1950.0000    75.3068    98.4809   219.6875  1305.0514    46.8566    49.5810    45.1593    53.6063    50.5583   696.0824    62.4546    63.1935    83.2659   125.3004    47.8739    65.7306 -9391.9492  2250.9468  6028.4697   114.1647     0.0000  -999.2500  -999.2500    95.4023     0.0000   103.6740   379.3574   106.3345     0.0877     0.0928  -999.2500     0.0000     0.0973     0.0967  -999.2500    33.2031    33.5901  -999.2500     0.0000  4018.7334     0.0939     0.1423
   8562.5000  1950.0000    75.3068    98.4809   219.6875  1305.0514    46.8566    49.5810    45.1593    53.6063    50.5583   696.0824    62.4546    63.1935    83.2659   125.3004    47.8739    65.7306 -9391.9492  2302.9417  6149.0776   114.1647     0.0000  -999.2500  -999.2500    95.4023     0.0000    96.3478   379.4884    96.8536     0.0935     0.0906  -999.2500     0.0000     0.0963     0.0984  -999.2500    33.2031    33.5901  -999.2500     0.0000  4018.7334     0.0971     0.1396
   8563.0000  1950.0000    75.3068    98.4809   219.6875  1305.0514    46.8566    49.5810    45.1593    53.6063    50.5583   696.0824    62.4546    63.1935    83.2659   125.3004    47.8739    65.7306 -9391.9492  2251.4929  6080.4087   114.1647     0.0000  -999.2500  -999.2500    95.4023     0.0000    89.8634   379.6401    85.9080     0.1008     0.0994  -999.2500     0.0000     0.0928     0.0970  -999.2500    33.2031    33.5901  -999.2500     0.0000  4018.7334     0.0907     0.1504
   8563.5000  1950.0000    75.3068    98.4809   219.6875  1305.0514    46.8566    49.5810    45.1593    53.6063    50.5583   696.0824    62.4546    63.1935    83.2659   125.3004    47.8739    65.7306 -9391.9492  2548.3547  6424.9897   114.1647     0.0000  -999.2500  -999.2500    95.4023     0.0000    87.7228   379.7863    86.8723     0.0801     0.0804  -999.2500     0.0000     0.0855     0.0807  -999.2500    33.2031    33.5901  -999.2500     0.0000  4018.7334     0.0826     0.1268
   8564.0000  1950.0000    75.3068    98.4809   219.6875  1305.0514    46.8566    49.5810    45.1593    53.6063    50.5583   696.0824    62.4546    63.1935    83.2659   125.3004    47.8739    65.7306 -9391.9492  2776.7014  6533.1245   114.1647     0.0000  -999.2500  -999.2500    95.4023     0.0000    88.1022   379.9248    90.3472     0.0711     0.0713  -999.2500     0.0000     0.0774     0.0710  -999.2500    33.2031    33.5901  -999.2500     0.0000  4018.7334     0.0727     0.1154
   8564.5000  1950.0000    75.3068    98.4809   219.6875  1305.0514    46.8566    49.5810    45.1593    53.6063    50.5583   696.0824    62.4546    63.1935    83.2659   125.3004    47.8739    65.7306 -9391.9492  2840.4668  6663.8701   114.1647     0.0000  -999.2500  -999.2500    95.4023     0.0000    92.2069   380.0865    87.0992     0.0677     0.0713  -999.2500     0.0000     0.0738     0.0635  -999.2500    33.2031    33.5901  -999.2500     0.0000  4018.7334     0.0681     0.1154
   8565.0000  1950.0000    75.3068    98.4809   219.6875  1305.0514    46.8566    49.5810    45.1593    53.6063    50.5583   696.0824    62.4546    63.1935    83.2659   125.3004    47.8739    65.7306 -9391.9492  2840.6130  6707.8403   114.1647     0.0000  -999.2500  -999.2500    95.4023     0.0000    95.1563   380.2441    98.5412     0.0637     0.0687  -999.2500     0.0000     0.0736     0.0626  -999.2500    33.2031    33.5901  -999.2500     0.0000  4018.7334     0.0693     0.1121
   8565.5000  1950.0000    75.3068    98.4809   219.6875  1305.0514    46.8566    49.5810    45.1593    53.6063    50.5583   696.0824    62.4546    63.1935    83.2659   125.3004    47.8739    65.7306 -9391.9492  2690.8477  6307.3218   114.1647     0.0000  -999.2500  -999.2500    95.4023     0.0000   102.2394   380.4109    99.1953     0.0751     0.0713  -999.2500     0.0000     0.0729     0.0770  -999.2500    33.2031    33.5901  -999.2500     0.0000  4018.7334     0.0708     0.1154
   8566.0000  1950.0000    75.3068    98.4809   219.6875  1305.0514    46.8566    49.5810    45.1593    53.6063    50.5583   696.0824    62.4546    63.1935    83.2659   125.3004    47.8739    65.7306 -9391.9492  2735.4680  6330.1592   114.1647     0.0000  -999.2500  -999.2500    95.4023     0.0000   107.2730   380.5628   108.8352     0.0726     0.0689  -999.2500     0.0000     0.0757     0.0766  -999.2500    33.2031    33.5901  -999.2500     0.0000  4018.7334     0.0739     0.1123
   8566.5000  1950.0000    75.3068    98.4809   219.6875  1305.0514    46.8566    49.5810    45.1593    53.6063    50.5583   696.0824    62.4546    63.1935    83.2659   125.3004    47.8739    65.7306 -9391.9492  2584.8708  6423.3521   114.1647     0.0000  -999.2500  -999.2500    95.4023     0.0000   106.3527   380.7312   114.4577     0.0774     0.0785  -999.2500     0.0000     0.0783     0.0715  -999.2500    33.2031    33.5901  -999.2500     0.0000  4018.7334     0.0748     0.1245
   8567.0000  1950.0000    75.3068    98.4809   219.6875  1305.0514    46.8566    49.5810    45.1593    53.6063    50.5583   696.0824    62.4546    63.1935    83.2659   125.3004    47.8739    65.7306 -9391.9492  2546.8469  6265.1182   114.1647     0.0000  -999.2500  -999.2500    95.4023     0.0000   104.6082   380.9048    96.4344     0.0722     0.0780  -999.2500     0.0000     0.0825     0.0805  -999.2500    33.2031    33.5901  -999.2500     0.0000  4018.7334     0.0789     0.1238
   8567.5000  1950.0000    75.3068    98.4809   219.6875  1305.0514    46.8566    49.5810    45.1593    53.6063    50.5583   696.0824    62.4546    63.1935    83.2659   125.3004    47.8739    65.7306 -9391.9492  2530.7813  6319.3027   114.1647     0.0000  -999.2500  -999.2500    95.4023     0.0000   102.0368   381.0690   103.5638     0.0730     0.0793  -999.2500     0.0000     0.0843     0.0831  -999.2500    33.2031    33.5901  -999.2500     0.0000  4018.7334     0.0830     0.1255
   8568.0000  1950.0000    75.3068    98.4809   219.6875  1305.0514    46.8566    49.5810    45.1593    53.6063    50.5583   696.0824    62.4546    63.1935    83.2659   125.3004    47.8739    65.7306 -9391.9492  2423.1680  6214.1455   114.1647     0.0000  -999.2500  -999.2500    95.4023     0.0000   105.5857   381.2220   106.7019     0.0881     0.0875  -999.2500     0.0000     0.0876     0.0872  -999.2500    33.2031    33.5901  -999.2500     0.0000  4018.7334     0.0844     0.1357
   8568.5000  1950.0000    75.3068    98.4809   219.6875  1305.0514    46.8566    49.5810    45.1593    53.6063    50.5583   696.0824    62.4546    63.1935    83.2659   125.3004    47.8739    65.7306 -9391.9492  2450.9937  6383.8564   114.1647     0.0000  -999.2500  -999.2500    95.4023     0.0000   100.1096   381.4247   107.8001     0.0826     0.0870  -999.2500     0.0000     0.0895     0.0816  -999.2500    33.2031    33.5901  -999.2500     0.0000  4018.7334     0.0860     0.1351
   8569.0000  1950.0000    75.3068    98.4809   219.6875  1305.0514    46.8566    49.5810    45.1593    53.6063    50.5583   696.0824    62.4546    63.1935    83.2659   125.3004    47.8739    65.7306 -9391.9492  2434.4033  6269.0063   114.1647     0.0000  -999.2500  -999.2500    95.4023     0.0000    91.1994   381.6255    86.6661     0.0867     0.0852  -999.2500     0.0000     0.0893     0.0860  -999.2500    33.2031    33.5901  -999.2500     0.0000  4018.7334     0.0865     0.1328
   8569.5000  1950.0000    75.3068    98.4809   219.6875  1305.0514    46.8566    49.5810    45.1593    53.6063    50.5583   696.0824    62.4546    63.1935    83.2659   125.3004    47.8739    65.7306 -9391.9492  2393.2813  6125.1470   114.1647     0.0000  -999.2500  -999.2500    95.4023     0.0000    88.1037   381.8336    79.6440     0.0836     0.0867  -999.2500     0.0000     0.0912     0.0931  -999.2500    33.2031    33.5901  -999.2500     0.0000  4018.7334     0.0888     0.1347
