~VERSION INFORMATION
VERS.           1.2   :CWLS Log ASCII Standard - VERSION 1.2
WRAP.           NO    :One Line per depth step
PROD.  Schlumberger   :LAS Producer
PROG.  DLIS to ASCII 2.3                               :LAS Program name and version
CREA.        2021/07/30 13:36                          :LAS Creation date {YYYY/MM/DD hh:mm}
DLIS_CREA.  2021-Jul-30 07:08                          :DLIS Creation date and time {YYYY-MMM-DD hh:mm}
SOURCE.     9adb19af-6988-40d6-a86c-1e71535bb624       :DLIS File Name
#--------------------------------------------------
~WELL INFORMATION
#MNEM.UNIT      DATA             DESCRIPTION
#---- ------ --------------   -----------------------------
STRT .F        5785.0000     :START DEPTH     
STOP .F        9045.0000     :STOP DEPTH     
STEP .F           0.5000       :STEP     
NULL .          -999.25      :NULL VALUE
COMP .                 COMPANY:  University Of Utah                 
WELL .                    WELL:  FORGE 78B-32                       
FLD  .                   FIELD:  None                               
LOC  .                LOCATION:  Lat: 38.500171, Long: -112.88221   
CNTY .                  COUNTY:  Beaver                             
STAT .                   STATE:  Utah                               
CTRY .                 COUNTRY:                                     
SRVC .         SERVICE COMPANY:  Schlumberger                       
LATI .DEG             LATITUDE:  38 30' 0.616" N                   
LONG .DEG            LONGITUDE:  112 52' 55.956" W                 
API  .              API NUMBER:  NRC 42-00090-03                    
DATE .                LOG DATE:  30-Jul-2021
UWI  .          UNIQUE WELL ID:                                     
#-----------------------------------------------------------------------------
~PARAMETER INFORMATION
#MNEM.UNIT    VALUE                      DESCRIPTION
#---- -----   --------------------       ------------------------
CN   .        University Of Utah         :Company Name
WN   .        FORGE 78B-32               :Well Name
FN   .        None                       :Field Name
FL   .        Lat  38.500171  Long  -112.88221 :Field Location
FL1  .                                   :Field Location, Line 1
COUN .        Beaver                     :County or Parish
STAT .        Utah                       :State or Province
NATI .                                   :Nation
DATE .        30-Jul-2021                :Tools Above Rotary Table Date
APIN .        NRC 42-00090-03            :API Well Number
SECT .                                   :Section
TOWN .                                   :Township
RANG .                                   :Range
DMF  .        KB                         :Drilling Measured From (Name of Drilling Elevation Reference)
LMF  .        KB                         :Logging Measured From (Name of Logging Elevation Reference)
PDAT .        GL                         :Permanent Datum
ENGI .        CSTILES                    :Engineer s Name
WITN .        Virgil  Welch              :Witness s Name
LATI .        38� 30' 0.616  N           :Latitude
LONG .        112� 52' 55.956  W         :Longitude
LUL  .        F.Morgan                   :Logging Unit Location
LUN  .        9108                       :Logging Unit Number
RUN  .        1B                         :Run Number
SON  .                                   :Service Order Number
BHT  .DEGF     419.00000                 :Bottom Hole Temperature
BS   .IN         5.75000                 :Bit Size
MDEN .G/C3       2.71000                 :Matrix Density for Density Porosity
DFD  .LB/G       8.30000                 :Drilling Fluid Density
DFV  .S         24.00000                 :Drilling Fluid Viscosity
DFL  .C3      -999.25000                 :Drilling Fluid Loss
RMFS .OHMM       4.42000                 :Resistivity of Mud Filtrate Sample
EKB  .F       5565.50000                 :Elevation of Kelly Bushing
EGL  .F       5536.00000                 :Elevation of Ground Level
BLI  .F       9532.00000                 :Bottom Log Interval
BSAL .PPM      700.00000                 :Borehole Salinity
FLEV .F          8.00000                 :Depth of Drilling Fluid Level to LMF (Log Measured From)
MCST .DEGF      62.00000                 :Mudcake Sample Temperature
MFST .DEGF      62.00000                 :Mud Filtrate Sample Temperature
MRT  .DEGF     419.00000                 :Maximum Recorded Temperature
MST  .DEGF      62.00000                 :Mud Sample Temperature
RMCS .OHMM       6.21000                 :Resistivity of Mud Cake Sample
RMS  .OHMM       5.20000                 :Resistivity of Mud Sample
RW   .OHMM       1.00000                 :Connate Water Resistivity
TDD  .F       9500.00000                 :Driller Total Depth
TDL  .F       9532.00000                 :Logger Total Depth
TLI  .F       8530.00000                 :Top Log Interval
HIDE .                                   :Header Identifier
MATR .        LIME                       :Rock Matrix for Neutron Porosity Corrections
FNUM .           1.00000                 :F-Numerator for Formation Factor Formula
FEXP .           2.00000                 :Exponent "m" for Formation Factor Formula
DFT  .        WATER                      :Drilling Fluid Type
DFPH .          11.00000                 :Drilling Fluid pH
MCSS .        Calculated                 :Mudcake Sample Source
MFSS .        Calculated                 :Mud Filtrate Sample Source
FD   .G/C3       1.00000                 :Fluid Density
MSS  .        Flowline                   :Mud Sample Source
OS1  .                                   :Other Services Line 1
OS2  .                                   :Other Services Line 2
OS3  .                                   :Other Services Line 3
OS4  .                                   :Other Services Line 4
OS5  .                                   :Other Services Line 5
R1   .                                   :Remarks Line 1
R2   .                                   :Remarks Line 2
R3   .                                   :Remarks Line 3
R4   .                                   :Remarks Line 4
R5   .                                   :Remarks Line 5
R6   .        Tool was run as per tool sketch :Remarks Line 6
R7   .        All logging intervals as per client request :Remarks Line 7
R8   .                                   :Remarks Line 8
TCS  .        20 00 00                   :Time Circulation Stopped
TLAB .        02 17 00                   :Time Logger At Bottom
NMT  .        NOBARITE                   :HRDD Mud Type for Nuclear Devices
EPD  .C3         5536.000000             :Elevation of Permanent Datum above Mean Sea Level
APD  .F          29.500000               :Elevation of Depth Reference (LMF) above Permanent Datum
#-----------------------------------------------------------------------------
~CURVE INFORMATION
#MNEM.UNIT   API CODE                                  DESCRIPTION
#---- -----  --------                                  -----------------------
DEPT .F                                                :DEPTH (BOREHOLE) {F12.4}
AF10 .OHMM                                             :Array Induction Four Foot Resistivity A10 {F11.4}
AF20 .OHMM                                             :Array Induction Four Foot Resistivity A20 {F11.4}
AF30 .OHMM                                             :Array Induction Four Foot Resistivity A30 {F11.4}
AF60 .OHMM                                             :Array Induction Four Foot Resistivity A60 {F11.4}
AF90 .OHMM                                             :Array Induction Four Foot Resistivity A90 {F11.4}
AO10 .OHMM                                             :Array Induction One Foot Resistivity A10 {F11.4}
AO20 .OHMM                                             :Array Induction One Foot Resistivity A20 {F11.4}
AO30 .OHMM                                             :Array Induction One Foot Resistivity A30 {F11.4}
AO60 .OHMM                                             :Array Induction One Foot Resistivity A60 {F11.4}
AO90 .OHMM                                             :Array Induction One Foot Resistivity A90 {F11.4}
AT10 .OHMM                                             :Array Induction Two Foot Resistivity A10 {F11.4}
AT20 .OHMM                                             :Array Induction Two Foot Resistivity A20 {F11.4}
AT30 .OHMM                                             :Array Induction Two Foot Resistivity A30 {F11.4}
AT60 .OHMM                                             :Array Induction Two Foot Resistivity A60 {F11.4}
AT90 .OHMM                                             :Array Induction Two Foot Resistivity A90 {F11.4}
AORT .OHMM                                             :Array Induction One Foot Rt {F11.4}
AORX .OHMM                                             :Array Induction One Foot Rxo {F11.4}
CDF  .LBF                                              :Calibrated Downhole Force {F11.4}
CFTC .HZ                                               :Corrected Far Thermal Count Rate {F11.4}
CNTC .HZ                                               :Corrected Near Thermal Count Rate {F11.4}
CTEM .DEGF                                             :Cartridge Temperature {F11.4}
DCAL .IN                                               :Differential Caliper {F11.4}
DT   .US/F                                             :Delta-T (also called Slowness or Interval Transit Time) {F11.4}
DTCO .US/F                                             :Delta-T Compressional {F11.4}
DTSM .US/F                                             :Delta-T Shear {F11.4}
ED   .F                                                :East Departure {F11.4}
GR_STGC.GAPI                                           :Gamma Ray {F11.4}
GTEM .DEGF                                             :Generalized Borehole Temperature {F11.4}
HGR_STGC.GAPI                                          :High Resolution Gamma Ray {F11.4}
HNPO .CFCF                                             :High Resolution Enhanced Thermal Neutron Porosity in Selected Lithology {F11.4}
HTNP .CFCF                                             :High Resolution Thermal Neutron Porosity (Ratio Method) in Selected Lithology {F11.4}
ITT  .S                                                :Integrated Transit Time {F11.4}
ND   .F                                                :North Departure {F11.4}
NPHI .CFCF                                             :Thermal Neutron Porosity (original Ratio Method) in Selected Lithology {F11.4}
NPOR .CFCF                                             :Enhanced Thermal Neutron Porosity in Selected Lithology {F11.4}
PR   .                                                 :Poisson s Ratio {F11.4}
SP   .MV                                               :Spontaneous Potential {F11.4}
SPAR .MV                                               :SP, Armor Return Compensated {F11.4}
SPHI .CFCF                                             :Sonic Porosity {F11.4}
STIT .F                                                :Stuck Tool Indicator, Total {F11.4}
TENS .LBF                                              :Cable Tension {F11.4}
TNPH .CFCF                                             :Thermal Neutron Porosity (Ratio Method) in Selected Lithology {F11.4}
HTNP_SAN.CFCF                                          :HiRes Thermal Neutron Porosity (matrix Sandstone) {F11.4}
#-----------------------------------------------------------------------------
# 
#      DEPT        AF10       AF20       AF30       AF60       AF90       AO10       AO20       AO30       AO60       AO90       AT10       AT20       AT30       AT60       AT90       AORT       AORX       CDF        CFTC       CNTC       CTEM       DCAL        DT        DTCO       DTSM        ED      GR_STGC      GTEM     HGR_STGC     HNPO       HTNP       ITT         ND        NPHI       NPOR        PR         SP        SPAR       SPHI       STIT       TENS       TNPH     HTNP_SAN
#
~A  
# ...
   7519.0000     0.1940     2.4561  1950.0000     7.1774    46.0579     0.1793     0.4093     1.5763     0.9554     1.2027     0.1949     0.7387  1950.0000     6.4768   127.1992     0.8241     0.1989 -9999.9999  3652.6106  6088.2290   100.3294     0.0000   111.1719   111.1719   113.1261     0.0000    99.8905   345.0257    99.1611     0.0117     0.0099     0.1438     0.0000    -0.0012     0.0433     0.0601    -4.3750    -3.7409     0.3102     0.0000  2816.0000     0.0283     0.0380
   7519.5000     0.1931     3.1542  1950.0000     7.3848    42.1266     0.1948     0.5685     2.3217     0.8505     1.0279     0.1955     0.9070  1950.0000     8.8112   165.4760     0.7362     0.1979 -6152.6382  2984.8584  6758.0425   100.3294     0.0000    65.4688    65.4688    95.1598     0.0000   102.0783   345.0006   100.9081     0.0423     0.0369     0.1438     0.0000    -0.0004     0.0222     0.0506    -2.5000    -2.4953     0.0904     0.0000  2818.0000     0.0252     0.0716
   7520.0000     0.1937     4.7227  1950.0000     7.7388    39.6321     0.2067     0.8768     3.7816     0.8619     1.0108     0.1974     1.1972  1950.0000    11.5203   609.7224     0.6732     0.1980 10255.6777  3842.3491  7007.2075   100.3294     0.0000    68.1250    68.1250    93.5246     0.0000   102.8900   345.0462   103.9779     0.0389     0.0395     0.1439     0.0000     0.0040     0.0273  -999.2500    -1.2500    -1.3070     0.1112     0.0000  2821.5002     0.0283     0.0749
   7520.5000     0.1956     8.2469  1950.0000     7.8404    40.4377     0.2209     1.0265     3.4688     0.7048     0.7983     0.1988     1.5895  1950.0000     6.9571   433.2224     0.6302     0.1983 10255.4648  3842.3491  7390.0420   100.3294     0.0000    68.1250    68.1250    93.5246     0.0000   105.1485   345.0599   101.8844     0.0273     0.0231     0.1439     0.0000     0.0036     0.0220  -999.2500     0.0000    -0.2197     0.1112     0.0000  2824.0000     0.0276     0.0542
   7521.0000     0.1986    16.7903  1950.0000     7.9114    42.5962     0.2038     0.7225     1.0781     0.5496     0.6153     0.1993     2.0155  1950.0000     6.5813   707.8557     0.6035     0.1983 -2049.8127  3397.1318  7600.6392   100.3294     0.0000    74.9219    74.9219    93.5726     0.0000   105.2530   345.0508   108.4131     0.0356     0.0379     0.1439     0.0000     0.0048     0.0203  -999.2500     1.8750     1.6066     0.1578     0.0000  2830.0002     0.0294     0.0728
   7521.5000     0.2032    40.3000  1950.0000     7.7923    43.4263     0.1823     0.8160     1.2592     0.6031     0.7015     0.1999     2.4915  1950.0000     8.8932   900.0137     0.5907     0.1990 -9999.9999  3776.1633  7160.3701   100.3294     0.0000    83.4375    83.4375    94.3866     0.0000   107.2909   345.0645   105.4616     0.0363     0.0314     0.1440     0.0000     0.0016     0.0339  -999.2500     3.4375     2.3741     0.2055     0.0000  2836.0000     0.0284     0.0646
   7522.0000     0.2097   118.4510  1950.0000     7.5630    42.3138     0.1881     0.9007     0.8365     0.7618     0.7264     0.2025     3.2117  1950.0000     7.1695   733.9871     0.5891     0.2018 -9999.9999  4106.2012  7121.5894   100.3294     0.0000    83.4375    83.4375    94.3866     0.0000   108.1044   345.0508   108.1331     0.0199     0.0173     0.1440     0.0000    -0.0028     0.0281  -999.2500     4.3750     2.9351     0.2055     0.0000  2834.0000     0.0236     0.0471
   7522.5000     0.2182   453.2381  1950.0000     7.1508    41.3630     0.1970     1.8280     1.4596     0.5700     0.6705     0.2084     4.5826  1950.0000     8.0885  1205.7981     0.5982     0.2076  6154.3457  3792.8972  7524.0586   100.3294     0.0000    74.8633    74.8633    93.4357     0.0000   109.9015   345.0554   108.6796     0.0211     0.0245     0.1441     0.0000    -0.0051     0.0091  -999.2500     4.3750     3.4661     0.1575     0.0000  2844.0000     0.0195     0.0560
   7523.0000     0.2283  1689.4343  1950.0000     6.7534    41.4865     0.2173    12.8142     3.6773     0.6143     0.7326     0.2169     7.5131  1950.0000     8.4718  1136.0630     0.6211     0.2161 10256.1758  3990.5308  7026.3198   100.3294     0.0000    73.6523    73.6523    93.4357     0.0000   111.9428   345.1465   110.8535     0.0249     0.0290     0.1441     0.0000    -0.0034     0.0271  -999.2500     4.3750     3.5648     0.1498     0.0000  2846.0000     0.0234     0.0616
   7523.5000     0.2389  1950.0000  1950.0000     6.4609    41.6634     0.2473    15.8328     2.7817     0.5404     0.6298     0.2264    14.2487  1950.0000     6.6151   253.0627     0.6656     0.2260  6154.2031  3710.4592  6796.1406   100.3294     0.0000    77.5586    77.5586    93.1183     0.0000   113.2018   345.1055   111.9425     0.0165     0.0163     0.1441     0.0000    -0.0043     0.0404  -999.2500     3.7500     3.4285     0.1737     0.0000  2846.0000     0.0256     0.0458
   7524.0000     0.2488  1950.0000  1950.0000     6.2480    42.4972     0.2700    51.5739     3.2574     0.5852     0.6829     0.2344    31.8985  1950.0000     6.7523   248.2780     0.7441     0.2355 -9999.9999  3792.8770  7332.6787   100.3294     0.0000    74.4922    74.4922    93.1200     0.0000   113.6975   345.1306   114.4611     0.0291     0.0229     0.1442     0.0000     0.0002     0.0206     0.0558     3.1250     3.0682     0.1552     0.0000  2854.0000     0.0246     0.0540
   7524.5000     0.2574  1950.0000  1950.0000     6.1394    43.8313     0.2400  1950.0000     4.4485     0.8384     1.0158     0.2404    83.3244  1950.0000     6.4242   548.8783     0.8724     0.2438 -9999.9999  3891.8213  7887.8169   100.3294     0.0000    63.8477    63.8477    93.1200     0.0000   111.8273   345.1511   113.1035     0.0245     0.0302     0.1442     0.0000     0.0006     0.0037     0.0564     1.8750     1.7373     0.0768     0.0000  2861.0000     0.0235     0.0631
   7525.0000     0.2644  1950.0000  1950.0000     6.1445    45.5303     0.2433  1950.0000     9.0510     1.4819     2.0348     0.2455   303.8497  1950.0000     6.0884   217.8160     1.0626     0.2511 -9999.9999  3710.2407  6873.1216   100.3294     0.0000    60.7813    60.7813    94.4431     0.0000   108.9380   345.1739   109.7875     0.0383     0.0279     0.1442     0.0000    -0.0014     0.0285     0.1465     0.6250     0.9958     0.0492     0.0000  2858.5002     0.0237     0.0603
   7525.5000     0.2705  1950.0000  1950.0000     6.2566    47.3944     0.2468  1950.0000    26.8336     2.2706     4.0894     0.2518  1950.0000  1950.0000     6.1440   159.6683     1.3138     0.2587 -9999.9999  3660.9507  6643.0537   100.3294     0.0000    61.0547    61.0547    92.0751     0.0000   104.9096   345.2013   106.8122     0.0207     0.0204     0.1443     0.0000    -0.0083     0.0300     0.1076     0.0000     0.1095     0.0517     0.0000  2864.0000     0.0212     0.0509
   7526.0000     0.2761  1950.0000  1950.0000     6.4564    49.2095     0.2623  1950.0000   114.9243     2.3334     5.0994     0.2603  1950.0000  1950.0000     6.4040   203.7153     1.5922     0.2673 -9999.9999  4007.2759  6471.0732   100.3294     0.0000    61.6016    61.6016    92.0751     0.0000   102.9758   345.1602   100.2547     0.0152     0.0108     0.1443     0.0000    -0.0102     0.0223     0.0948    -1.8750    -0.8861     0.0568     0.0000  2857.0000     0.0157     0.0391
   7526.5000     0.2816  1950.0000  1950.0000     6.7151    50.7486     0.2822  1950.0000  1158.9159     2.0826     4.6203     0.2710  1950.0000  1950.0000     6.7078   264.6479     1.8361     0.2771 -2563.5105  3941.2937  6844.4365   100.3294     0.0000    61.8750    61.8750    91.0095     0.0000   102.2987   345.2013   102.7100     0.0081     0.0161     0.1443     0.0000    -0.0097     0.0155     0.0702    -3.1250    -3.0451     0.0593     0.0000  2845.0000     0.0174     0.0456
   7527.0000     0.2868  1950.0000  1950.0000     6.9961    51.7387     0.2987  1950.0000  1950.0000     1.9695     4.3557     0.2826  1950.0000  1950.0000     7.0256   334.8712     2.0080     0.2874     0.0000  3594.7756  6643.3799   100.3294     0.0000    61.9141    61.9141    94.1583     0.0000   101.4850   345.1876   104.6956     0.0161     0.0159     0.1444     0.0000    -0.0027     0.0296     0.1191    -4.3750    -4.1529     0.0597     0.0000  2835.0000     0.0226     0.0453
