~Version
 VERS              .         2.0                           : CWLS LOG ASCII STANDARD - VERSION 2.0
 WRAP              .         NO                            : ONE LINE PER DEPTH STEP
 DLM               .         SPACE                         : DELIMITING CHARACTER(SPACE TAB OR COMMA)
~Well Information
#_______________________________________________________________________________
#
#PARAMETER_NAME    .UNIT     VALUE                         : DESCRIPTION
#_______________________________________________________________________________
STRT               .ft       7493                          : First reference value
STOP               .ft       9543.25                       : Last reference value
STEP               .ft       0.25                          : Step increment
NULL               .         -9999                         : Missing value
COMP               .         University Of Utah            : Company
WELL               .         FORGE 78B-32                  : Well name
FLD                .         None                          : Field
LOC                .                                       : Location
CNTY               .         Beaver                        : County
STAT               .         Utah                          : State
CTRY               .         USA                           : Country
SRVC               .         Schlumberger                  : Service Company
DATE               .         19-Jul-2021                   : Date
API                .         NRC 42-00090-03               : API number
APD                .ft       29.5                          : Elevation of Depth Reference (LMF) Above Permanent Datum
BHS                .         OPEN                          : Borehole Status (Open or Cased Hole)
BHT                .degF     320.87                        : Bottom Hole Temperature
BLI                .ft       -999.25                       : Bottom Log Interval
BS                 .in       8.75                          : Bit Size
CBDR               .ft       2989                          : Casing Bottom of Driller
CBLO               .ft       2988                          : Logger Casing Shoe Depth
CSIZ               .in       11.75                         : Current Casing Size
CWEI               .lbm/ft   54                            : Casing Weight
DCS                .         19-Jul-2021                   : Date Circulation Stopped
DFD                .lbm/gal  8.3                           : Drilling Fluid Density
DFT                .         WATER                         : Drilling Fluid Type
DLAB               .         19-Jul-2021                   : Date Logger At Bottom
EDF                .ft       5536                          : Elevation of Drill Floor
EGL                .ft       5536                          : Elevation of Ground Level
EKB                .ft       5565.5                        : Elevation of Kelly Bushing
EPD                .ft       5536                          : Elevation of Permanent Datum (PDAT) above Mean Sea Level
LMF                .         KB                            : Logging Measured From (Name of Logging Elevation Reference)
LUL                .         F.Morgan                      : Logging Unit Location
LUN                .         9108                          : Logging Unit Number
LATI               .         38.500171 degrees             : Latitude
LONG               .         -112.88221 degrees            : Longitude
MCST               .degF     68                            : Mudcake Sample Temperature
MFST               .degF     68                            : Mud Filtrate Sample Temperature
MRT                .degF     321.43                        : Maximum Recorded Temperature
MST                .degF     68                            : Mud Sample Temperature
ORIGINALWELLNAME   .         FORGE 78B-32                  : 
PDAT               .         GL                            : Permanent Datum
PRODUCER-CODE      .         440                           : 
PRODUCER-NAME      .         Schlumberger                  : 
RMB                .ohm.m    0.04564156                    : Resistivity of Mud at Bottom Hole Temperature
RMCS               .ohm.m    -999.25                       : Resistivity of Mud Cake Sample
RMFS               .ohm.m    0.15                          : Resistivity of Mud Filtrate Sample
RMS                .ohm.m    0.2                           : Resistivity of Mud Sample
RUN                .         1A                            : Run Number
TCS                .         03_00_00                      : Time Circulation Stopped
TDD                .ft       8540                          : Driller Total Depth
TDL                .ft       8540                          : Logger Total Depth
TLAB               .         07_53_00                      : Time Logger At Bottom
TLI                .ft       -999.25                       : Top Log Interval
~Parameter Information Block
#_______________________________________________________________________________
#
#PARAMETER_NAME    .UNIT     VALUE                         : DESCRIPTION
#_______________________________________________________________________________
SET                .         QSLT                          : 
TLFamily_AT10      .         Resistivity - Induction Array 10: 
TLFamily_AT20      .         Resistivity - Induction Array 20: 
TLFamily_AT30      .         Resistivity - Induction Array 30: 
TLFamily_AT60      .         Resistivity - Induction Array 60: 
TLFamily_AT90      .         Resistivity - Induction Array 90: 
TLFamily_BS        .         Bit Size                      : 
TLFamily_DTCO_FINAL .         Compressional Slowness        : 
TLFamily_DTSH_FINAL .         Shear Slowness                : 
TLFamily_GR_STGC   .         Gamma Ray                     : 
TLFamily_HDAR      .         Borehole Diameter             : 
TLFamily_PR        .         Poisson Ratio (Dynamic)       : 
TLFamily_SPHI      .         Total Porosity                : 
TLFamily_TDEP      .         Measured Depth                : 
TLFamily_TENS      .         Tension                       : 
TLFamily_TNPH      .         Thermal Neutron Porosity      : 
TLFamily_VPVS      .         VpVs (Compressional To Shear) Ratio: 
~Curve Information
#_______________________________________________________________________________
#
#LOGNAME           .UNIT     LOG_ID                        : DESCRIPTION
#_______________________________________________________________________________
TDEP               .ft                                     : Measured Depth 
AT10               .ohm.m                                  : Array Induction Two Foot Resistivity A10 
AT20               .ohm.m                                  : Array Induction Two Foot Resistivity A20 
AT30               .ohm.m                                  : Array Induction Two Foot Resistivity A30 
AT60               .ohm.m                                  : Array Induction Two Foot Resistivity A60 
AT90               .ohm.m                                  : Array Induction Two Foot Resistivity A90 
BS                 .in                                     : Bit Size 
DTCO_FINAL         .us/ft                                  : Compressional Slowness 
DTSH_FINAL         .us/ft                                  : Shear Slowness 
GR_STGC            .gAPI                                   : Gamma Ray 
HDAR               .in                                     : Hole Diameter from Area 
PR                 .unitless                               : Possion's Ratio 
SPHI               .ft3/ft3                                : Total porosity from Sonic 
TENS               .lbf                                    : Cable Tension 
TNPH               .ft3/ft3                                : Thermal Neutron Porosity (Ratio Method) in Selected Lithology 
VPVS               .unitless                               : VpVs Ratio 
~Ascii
# ...
9390.5     1950       78.34765   1517.724   1950       673.176    5.75       54.19743   82.90046   48.36843   5.75       0.1267766  0.04733166 4672.077   -0.001705718 1.529601  
9390.75    1950       58.83438   962.0345   1097.242   401.3976   5.75       54.13434   83.51847   48.94263   5.75       0.1377422  0.04688578 4653.789   -0.000869106 1.5428    
9391       1950       45.72505   890.8792   951.0375   385.9151   5.75       54.06297   84.10447   49.51682   5.75       0.1479191  0.04638141 4635.5     -0.0000325 1.555676  
9391.25    1950       36.75448   802.3787   790.4491   446.6762   5.75       54.02684   84.61855   54.35229   5.75       0.1559036  0.0461261  4610.036   0.002794896 1.566231  
9391.5     1950       30.54244   679.4811   612.7488   503.5536   5.75       54.03868   85.1179    59.18777   5.75       0.1623974  0.04620979 4584.571   0.005622287 1.575129  
9391.75    1950       26.23409   541.3477   439.3487   518.0374   5.75       54.08722   85.74155   63.26448   5.75       0.1695318  0.04655281 4579.017   0.01281826 1.585246  
9392       1950       23.56441   437.602    324.9005   507.9029   5.75       54.14821   86.63327   67.34119   5.75       0.1794403  0.04698381 4573.462   0.02001423 1.599929  
9392.25    1950       21.324     352.7805   242.0767   462.0893   5.75       54.1966    87.85656   72.40408   5.75       0.1928506  0.04732581 4599.91    0.02706112 1.621071  
9392.5     1950       20.3636    282.4303   182.6943   381.9633   5.75       54.22075   89.33866   77.46696   5.75       0.2084315  0.04749646 4626.357   0.03410801 1.647684  
9392.75    1950       20.08494   218.6276   140.1173   299.7418   5.75       54.24448   90.86843   81.54629   5.75       0.2231721  0.04766417 4641.717   0.03408401 1.675165  
9393       1950       20.74784   176.9204   109.6699   242.1575   5.75       54.33714   92.16753   85.62561   5.75       0.2336387  0.048319   4657.077   0.03406001 1.696216  
9393.25    1950       22.62257   148.9387   87.38232   187.4565   5.75       54.58371   93.00579   90.77127   5.75       0.2373001  0.05006158 4670.539   0.03169721 1.703911  
9393.5     1950       25.49828   123.6787   69.7905    145.7715   5.75       55.01707   93.30666   95.91692   5.75       0.2335146  0.05312415 4684       0.0293344  1.695958  
9393.75    1950       29.83898   109.741    56.3042    117.2361   5.75       55.57605   93.17137   98.58034   5.75       0.2238391  0.05707456 4660.423   0.02853107 1.676466  
9394       1950       36.44285   110.6842   49.14927   99.453     5.75       56.13151   92.80724   101.2437   5.75       0.2115989  0.06100006 4636.846   0.02772773 1.653389  
9394.25    1950       39.71632   122.2232   71.89241   107.7479   5.75       56.56189   92.41463   103.6759   5.75       0.2005131  0.06404165 4614.316   0.02509314 1.633867  
9394.5     1950       46.22888   153.8127   93.40677   144.4602   5.75       56.80988   92.08483   106.1081   5.75       0.1927641  0.06579417 4591.786   0.02245856 1.62093   
9394.75    1950       55.89943   125.4401   86.52706   179.0133   5.75       56.87402   91.77501   105.8397   5.75       0.1882561  0.06624746 4574.036   0.01796256 1.613654  
9395       1950       73.64462   160.702    72.12141   157.4782   5.75       56.752     91.35957   105.5712   5.75       0.1858246  0.06538513 4556.286   0.01346656 1.609804  
9395.25    1950       97.67519   165.9933   67.9171    125.5248   5.75       56.43027   90.73663   102.1908   5.75       0.1846379  0.06311143 4567.258   0.0106929  1.607942  
9395.5     1945.762   115.8304   148.2133   68.33447   113.843    5.75       55.93156   89.92431   98.81044   5.75       0.1845186  0.05958703 4578.23    0.007919241 1.607756  
9395.75    1917.027   124.1969   106.4343   73.12953   120.0134   5.75       55.40303   89.07601   94.36517   5.75       0.1845355  0.05585178 4607.008   0.007594107 1.607782  
9396       1873.145   120.1422   81.76598   58.34224   82.97346   5.75       55.09774   88.40964   89.91991   5.75       0.1824853  0.05369425 4635.786   0.007268974 1.604596  
9396.25    1940.401   136.3522   125.6641   86.67582   100.6587   5.75       55.21887   88.079     86.9843    5.75       0.1762305  0.05455031 4663.036   0.008535719 1.595089  
9396.5     1950       142.9243   205.4185   163.6185   185.5962   5.75       55.75125   88.10656   84.04869   5.75       0.1661124  0.05831273 4690.286   0.009802463 1.580351  
9396.75    1950       101.6898   254.1157   253.0641   279.9558   5.75       56.45652   88.40022   84.74507   5.75       0.1555912  0.06329694 4669.566   0.01133583 1.565811  
9397       1821.055   71.59621   208.475    141.0978   177.2077   5.75       57.05622   88.83317   85.44146   5.75       0.1488925  0.06753513 4648.846   0.0128692  1.556941  
9397.25    1694.462   51.81345   211.0269   146.3598   188.4508   5.75       57.40985   89.31306   87.19162   5.75       0.1479449  0.07003431 4631.566   0.014386   1.555709  
9397.5     1656.172   39.35108   188.4407   162.3896   203.5065   5.75       57.53979   89.7915    88.94177   5.75       0.1516155  0.07095256 4614.286   0.01590281 1.560511  
9397.75    1623.789   30.6262    163.3363   166.0261   232.6393   5.75       57.53078   90.25395   93.04455   5.75       0.1577955  0.07088894 4569.951   0.01863153 1.568794  
9398       1138.838   32.18643   244.6584   152.1897   273.5975   5.75       57.44449   90.71791   97.14732   5.75       0.1653188  0.07027907 4525.616   0.02136024 1.579227  
9398.25    1867.612   30.16457   298.2486   128.4303   271.6899   5.75       57.30153   91.22626   99.53496   5.75       0.1741797  0.06926873 4543.094   0.02441014 1.592039  
9398.5     1950       30.19623   320.4052   104.5694   248.9255   5.75       57.0918    91.80132   101.9226   5.75       0.1846489  0.0677866  4560.571   0.02746003 1.60796   
9398.75    1950       31.71736   341.294    84.28027   218.0227   5.75       56.81108   92.40442   102.6749   5.75       0.1961541  0.06580266 4586.286   0.02932232 1.626521  
9399       1950       33.49762   348.1879   69.22948   187.112    5.75       56.46519   92.94839   103.4272   5.75       0.2075521  0.06335821 4612       0.0311846  1.646119  
9399.25    1950       35.99075   334.2673   59.06975   157.4046   5.75       56.07325   93.35719   102.7821   5.75       0.2178236  0.06058836 4645.893   0.03054738 1.664915  
9399.5     1860.13    41.14615   297.8145   40.87798   128.4695   5.75       55.64922   93.61676   102.137    5.75       0.2267786  0.05759163 4679.786   0.02991016 1.682266  
9399.75    1851.571   46.6491    243.7814   45.26408   108.3387   5.75       55.2085    93.75532   101.3939   5.75       0.2345929  0.05447703 4684.624   0.02871061 1.698204  
9400       1874.906   60.48663   231.0779   46.23758   107.4886   5.75       54.79007   93.8027    100.6508   5.75       0.2410769  0.05151993 4689.461   0.02751105 1.712038  
9400.25    1912.112   85.07323   194.1164   45.47728   109.5594   5.75       54.44926   93.77135   98.98631   5.75       0.2456634  0.04911141 4656.838   0.02669498 1.722178  
9400.5     1950       121.2671   155.515    45.95705   93.87227   5.75       54.22158   93.65766   97.32185   5.75       0.2479345  0.04750234 4624.214   0.0258789  1.727313  
9400.75    1950       163.8532   147.3524   37.50021   74.48763   5.75       54.09739   93.44814   89.71207   5.75       0.2479751  0.04662463 4597.684   0.02328886 1.727406  
9401       1849.149   129.0267   126.655    35.81709   63.9558    5.75       54.04023   93.10419   82.10229   5.75       0.2459704  0.04622068 4571.154   0.02069882 1.722868  
9401.25    1741.212   146.776    102.7145   39.71595   61.80326   5.75       54.02321   92.55962   74.2907    5.75       0.2416691  0.04610044 4566.041   0.01478444 1.713331  
9401.5     1695.904   183.3402   99.51965   40.55697   56.30785   5.75       54.04687   91.74676   66.4791    5.75       0.2342749  0.04626764 4560.929   0.008870061 1.697541  
9401.75    1648.944   232.8422   85.99542   41.04889   51.87318   5.75       54.13253   90.65147   58.66822   5.75       0.2228927  0.04687298 4581.929   0.004688699 1.674621  
