~Version
 VERS              .         2.0                           : CWLS LOG ASCII STANDARD - VERSION 2.0
 WRAP              .         NO                            : ONE LINE PER DEPTH STEP
 DLM               .         SPACE                         : DELIMITING CHARACTER(SPACE TAB OR COMMA)
~Well Information
#_______________________________________________________________________________
#
#PARAMETER_NAME    .UNIT     VALUE                         : DESCRIPTION
#_______________________________________________________________________________
STRT               .ft       7493                          : First reference value
STOP               .ft       9543.25                       : Last reference value
STEP               .ft       0.25                          : Step increment
NULL               .         -9999                         : Missing value
COMP               .         University Of Utah            : Company
WELL               .         FORGE 78B-32                  : Well name
FLD                .         None                          : Field
LOC                .                                       : Location
CNTY               .         Beaver                        : County
STAT               .         Utah                          : State
CTRY               .         USA                           : Country
SRVC               .         Schlumberger                  : Service Company
DATE               .         19-Jul-2021                   : Date
API                .         NRC 42-00090-03               : API number
APD                .ft       29.5                          : Elevation of Depth Reference (LMF) Above Permanent Datum
BHS                .         OPEN                          : Borehole Status (Open or Cased Hole)
BHT                .degF     320.87                        : Bottom Hole Temperature
BLI                .ft       -999.25                       : Bottom Log Interval
BS                 .in       8.75                          : Bit Size
CBDR               .ft       2989                          : Casing Bottom of Driller
CBLO               .ft       2988                          : Logger Casing Shoe Depth
CSIZ               .in       11.75                         : Current Casing Size
CWEI               .lbm/ft   54                            : Casing Weight
DCS                .         19-Jul-2021                   : Date Circulation Stopped
DFD                .lbm/gal  8.3                           : Drilling Fluid Density
DFT                .         WATER                         : Drilling Fluid Type
DLAB               .         19-Jul-2021                   : Date Logger At Bottom
EDF                .ft       5536                          : Elevation of Drill Floor
EGL                .ft       5536                          : Elevation of Ground Level
EKB                .ft       5565.5                        : Elevation of Kelly Bushing
EPD                .ft       5536                          : Elevation of Permanent Datum (PDAT) above Mean Sea Level
LMF                .         KB                            : Logging Measured From (Name of Logging Elevation Reference)
LUL                .         F.Morgan                      : Logging Unit Location
LUN                .         9108                          : Logging Unit Number
LATI               .         38.500171 degrees             : Latitude
LONG               .         -112.88221 degrees            : Longitude
MCST               .degF     68                            : Mudcake Sample Temperature
MFST               .degF     68                            : Mud Filtrate Sample Temperature
MRT                .degF     321.43                        : Maximum Recorded Temperature
MST                .degF     68                            : Mud Sample Temperature
ORIGINALWELLNAME   .         FORGE 78B-32                  : 
PDAT               .         GL                            : Permanent Datum
PRODUCER-CODE      .         440                           : 
PRODUCER-NAME      .         Schlumberger                  : 
RMB                .ohm.m    0.04564156                    : Resistivity of Mud at Bottom Hole Temperature
RMCS               .ohm.m    -999.25                       : Resistivity of Mud Cake Sample
RMFS               .ohm.m    0.15                          : Resistivity of Mud Filtrate Sample
RMS                .ohm.m    0.2                           : Resistivity of Mud Sample
RUN                .         1A                            : Run Number
TCS                .         03_00_00                      : Time Circulation Stopped
TDD                .ft       8540                          : Driller Total Depth
TDL                .ft       8540                          : Logger Total Depth
TLAB               .         07_53_00                      : Time Logger At Bottom
TLI                .ft       -999.25                       : Top Log Interval
~Parameter Information Block
#_______________________________________________________________________________
#
#PARAMETER_NAME    .UNIT     VALUE                         : DESCRIPTION
#_______________________________________________________________________________
SET                .         QSLT                          : 
TLFamily_AT10      .         Resistivity - Induction Array 10: 
TLFamily_AT20      .         Resistivity - Induction Array 20: 
TLFamily_AT30      .         Resistivity - Induction Array 30: 
TLFamily_AT60      .         Resistivity - Induction Array 60: 
TLFamily_AT90      .         Resistivity - Induction Array 90: 
TLFamily_BS        .         Bit Size                      : 
TLFamily_DTCO_FINAL .         Compressional Slowness        : 
TLFamily_DTSH_FINAL .         Shear Slowness                : 
TLFamily_GR_STGC   .         Gamma Ray                     : 
TLFamily_HDAR      .         Borehole Diameter             : 
TLFamily_PR        .         Poisson Ratio (Dynamic)       : 
TLFamily_SPHI      .         Total Porosity                : 
TLFamily_TDEP      .         Measured Depth                : 
TLFamily_TENS      .         Tension                       : 
TLFamily_TNPH      .         Thermal Neutron Porosity      : 
TLFamily_VPVS      .         VpVs (Compressional To Shear) Ratio: 
~Curve Information
#_______________________________________________________________________________
#
#LOGNAME           .UNIT     LOG_ID                        : DESCRIPTION
#_______________________________________________________________________________
TDEP               .ft                                     : Measured Depth 
AT10               .ohm.m                                  : Array Induction Two Foot Resistivity A10 
AT20               .ohm.m                                  : Array Induction Two Foot Resistivity A20 
AT30               .ohm.m                                  : Array Induction Two Foot Resistivity A30 
AT60               .ohm.m                                  : Array Induction Two Foot Resistivity A60 
AT90               .ohm.m                                  : Array Induction Two Foot Resistivity A90 
BS                 .in                                     : Bit Size 
DTCO_FINAL         .us/ft                                  : Compressional Slowness 
DTSH_FINAL         .us/ft                                  : Shear Slowness 
GR_STGC            .gAPI                                   : Gamma Ray 
HDAR               .in                                     : Hole Diameter from Area 
PR                 .unitless                               : Possion's Ratio 
SPHI               .ft3/ft3                                : Total porosity from Sonic 
TENS               .lbf                                    : Cable Tension 
TNPH               .ft3/ft3                                : Thermal Neutron Porosity (Ratio Method) in Selected Lithology 
VPVS               .unitless                               : VpVs Ratio 
~Ascii
# ...
8988       1950       64.95509   69.42574   85.97506   35.65557   5.75       54.1885    93.65837   121.1743   5.75       0.2484025  0.04726852 4304.4     0.03550497 1.728381  
8988.25    1950       64.42328   70.18217   78.89032   35.28667   5.75       54.08027   93.88829   112.983    5.75       0.2517395  0.04650364 4329.733   0.03497707 1.736091  
8988.5     1950       40.66281   69.7067    162.9916   27.58467   5.75       53.98242   94.1162    104.7916   5.75       0.2548603  0.04581217 4355.067   0.03444918 1.74346   
8988.75    1950       36.44749   103.4419   149.0964   50.56881   5.75       53.93686   94.29144   106.9008   5.75       0.2568259  0.04549017 4383.471   0.03279326 1.748182  
8989       1950       38.3315    98.31301   148.3853   55.80816   5.75       53.96332   94.35227   109.01     5.75       0.2569375  0.04567716 4411.875   0.03113734 1.748452  
8989.25    1950       32.97419   98.96558   141.6667   54.22671   5.75       54.05785   94.26353   112.8782   5.75       0.2549829  0.04634523 4380.304   0.02910749 1.743753  
8989.5     1950       39.9145    98.90937   128.6334   69.94871   5.75       54.20735   94.03801   116.7464   5.75       0.2511786  0.04740178 4348.733   0.02707764 1.734783  
8989.75    1950       32.9632    93.84759   109.4063   77.97375   5.75       54.39469   93.72461   117.3603   5.75       0.2460499  0.04872574 4318.21    0.02459068 1.723047  
8990       1950       26.62891   87.22994   92.67262   79.88364   5.75       54.58879   93.37782   117.9742   5.75       0.2404002  0.05009746 4287.688   0.02210373 1.710568  
8990.25    1950       21.08325   79.14017   81.19082   78.42092   5.75       54.7476    93.03301   114.2963   5.75       0.2351199  0.05121977 4300.21    0.02042708 1.699308  
8990.5     1950       16.01583   68.04581   68.49353   73.06618   5.75       54.84458   92.69497   110.6184   5.75       0.2306862  0.05190514 4312.733   0.01875043 1.690139  
8990.75    1920.978   12.06468   54.22014   60.20129   62.57608   5.75       54.87854   92.33808   108.8703   5.75       0.2269415  0.05214513 4343.367   0.01755847 1.68259   
8991       1676.797   9.230892   48.99799   87.6262    53.09733   5.75       54.85994   91.92297   107.1222   5.75       0.2233922  0.05201373 4374       0.01636651 1.675593  
8991.25    1509.356   7.155477   69.353     147.1593   79.87292   5.75       54.78861   91.41416   111.5711   5.75       0.219708   0.0515096  4399.633   0.015386   1.668489  
8991.5     1380.183   6.137691   27.13116   20.89384   36.16613   5.75       54.65737   90.79433   116.02     5.75       0.2158178  0.0505821  4425.267   0.01440549 1.661155  
8991.75    1250.374   5.368294   20.20591   25.2711    28.35738   5.75       54.47449   90.06947   127.6053   5.75       0.2116183  0.04928972 4414.033   0.01303426 1.653425  
8992       1132.379   3.919985   14.59461   21.75301   21.09231   5.75       54.28274   89.27887   139.1906   5.75       0.2067519  0.04793457 4402.8     0.01166302 1.644701  
8992.25    1033.841   4.274814   18.62334   38.49164   34.8295    5.75       54.1385    88.4874    151.6843   5.75       0.2008621  0.04691522 4368.713   0.01019476 1.634463  
8992.5     959.7461   4.440976   27.62635   56.61809   47.83422   5.75       54.06865   87.76532   164.1779   5.75       0.1941603  0.04642158 4334.625   0.008726508 1.62322   
8992.75    909.4352   4.676988   45.74384   50.99776   59.6729    5.75       54.04818   87.14855   170.0238   5.75       0.1874822  0.04627692 4333.513   0.007998693 1.612423  
8993       1950       5.109906   42.04237   54.78686   54.9386    5.75       54.02864   86.60737   175.8697   5.75       0.1814428  0.0461388  4332.4     0.007270877 1.60299   
8993.25    249.2221   5.78226    39.31802   65.04089   58.09007   5.75       53.99251   86.06204   175.7914   5.75       0.1754757  0.04588348 4337.733   0.006789429 1.593963  
8993.5     1950       6.334575   53.16532   83.94507   73.11465   5.75       53.97997   85.43011   175.713    5.75       0.1677091  0.04579481 4343.067   0.006307981 1.582626  
8993.75    1925.363   8.304311   73.44954   96.26038   86.43932   5.75       54.07541   84.67715   166.7561   5.75       0.1556639  0.04646932 4384.033   0.005799365 1.565909  
8994       1362.728   10.25921   82.24367   137.1485   108.6144   5.75       54.33962   83.8402    157.7993   5.75       0.1378171  0.04833653 4425       0.005290749 1.542893  
8994.25    1790.051   12.93071   253.2272   673.6827   349.5857   5.75       54.76442   83.01108   144.7632   5.75       0.1146744  0.05133865 4419.733   0.005150511 1.515785  
8994.5     1672.849   15.89632   134.0679   277.682    161.7941   5.75       55.24266   82.29156   131.727    5.75       0.08983465 0.05471848 4414.467   0.005010272 1.489638  
8994.75    895.2747   18.91744   79.18752   133.4319   85.13766   5.75       55.62894   81.76109   117.5859   5.75       0.06903568 0.05744834 4377.983   0.005124037 1.469758  
8995       699.3777   21.35713   60.18819   75.05994   74.10981   5.75       55.83335   81.46135   103.4448   5.75       0.05701498 0.05889297 4341.5     0.005237801 1.459009  
8995.25    659.8494   23.00051   90.00278   197.3617   1950       5.75       55.88128   81.41894   96.66348   5.75       0.05470249 0.05923163 4326.717   0.005910699 1.456999  
8995.5     615.3697   30.38479   29.16531   72.61341   40.03989   5.75       55.87413   81.66473   89.88213   5.75       0.05994749 0.05918111 4311.934   0.006583597 1.461584  
8995.75    578.1453   36.46885   34.2928    44.29077   40.45306   5.75       55.89894   82.21423   94.06909   5.75       0.07013313 0.0593565  4324.842   0.00703609 1.470765  
8996       565.2735   15.84542   17.59737   21.75658   23.07439   5.75       55.95559   82.98833   98.25606   5.75       0.08320042 0.05975679 4337.75    0.007488583 1.483111  
8996.25    468.1172   26.13351   37.03635   60.83619   69.16502   5.75       55.9602    83.77246   102.6765   5.75       0.09710282 0.05978938 4359.742   0.00731406 1.497001  
8996.5     209.5036   29.45761   56.80635   64.04438   58.26648   5.75       55.81078   84.29504   107.0969   5.75       0.109748   0.05873343 4381.733   0.007139536 1.510372  
8996.75    1950       85.74776   64.91109   52.18164   55.92831   5.75       55.46404   84.38774   111.3425   5.75       0.1197483  0.05628299 4380.148   0.007003002 1.521486  
8997       1336.992   48.3787    70.03223   56.95102   66.23138   5.75       54.96383   84.08913   115.5881   5.75       0.1270307  0.05274788 4378.563   0.006866467 1.5299    
8997.25    988.1271   72.24934   134.2083   89.39137   103.2911   5.75       54.40772   83.58507   113.4612   5.75       0.1323887  0.0488178  4351.515   0.006541882 1.536272  
8997.5     1537.032   88.01817   501.0136   101.3478   147.8354   5.75       53.87893   83.07092   111.3343   5.75       0.1369366  0.04508074 4324.466   0.006217297 1.541807  
8997.75    1803.619   89.82282   981.1687   70.54201   118.0594   5.75       53.43137   82.65733   112.8762   5.75       0.1411013  0.04191781 4303.358   0.005759935 1.546981  
8998       1250.897   88.22696   854.5528   50.13223   161.6794   5.75       53.08937   82.36417   114.418    5.75       0.1446136  0.03950083 4282.25    0.005302572 1.551425  
8998.25    1265.509   83.72489   196.5094   61.43172   93.27094   5.75       52.86168   82.17194   112.5887   5.75       0.1469874  0.03789172 4295.425   0.005287135 1.554471  
8998.5     1453.32    73.33344   194.2557   49.86882   91.35515   5.75       52.7328    82.06254   110.7595   5.75       0.1483193  0.03698089 4308.6     0.005271697 1.556195  
8998.75    1745.585   61.33613   188.6612   91.45217   118.2372   5.75       52.6715    82.04736   108.3374   5.75       0.1494883  0.03654771 4350.167   0.005686649 1.557718  
8999       1747.593   50.42439   179.8764   57.64057   90.87927   5.75       52.64198   82.16862   105.9154   5.75       0.1519062  0.03633905 4391.733   0.006101601 1.560895  
8999.25    1722.795   55.19373   205.1522   66.57872   100.0066   5.75       52.619     82.49045   101.3006   5.75       0.1569849  0.0361767  4387.96    0.006870753 1.567693  
