~VERSION INFORMATION
VERS.           1.2   :CWLS Log ASCII Standard - VERSION 1.2
WRAP.           NO    :One Line per depth step
PROD.  Schlumberger   :LAS Producer
PROG.  DLIS to ASCII 2.3                               :LAS Program name and version
CREA.        2021/07/30 13:36                          :LAS Creation date {YYYY/MM/DD hh:mm}
DLIS_CREA.  2021-Jul-30 07:07                          :DLIS Creation date and time {YYYY-MMM-DD hh:mm}
SOURCE.     dc707e3c-4962-4d77-8314-dc20fe7b42b8       :DLIS File Name
#--------------------------------------------------
~WELL INFORMATION
#MNEM.UNIT      DATA             DESCRIPTION
#---- ------ --------------   -----------------------------
STRT .F        8616.5000     :START DEPTH     
STOP .F        9518.5000     :STOP DEPTH     
STEP .F           0.5000       :STEP     
NULL .          -999.25      :NULL VALUE
COMP .                 COMPANY:  University Of Utah                 
WELL .                    WELL:  FORGE 78B-32                       
FLD  .                   FIELD:  None                               
LOC  .                LOCATION:  Lat: 38.500171, Long: -112.88221   
CNTY .                  COUNTY:  Beaver                             
STAT .                   STATE:  Utah                               
CTRY .                 COUNTRY:                                     
SRVC .         SERVICE COMPANY:  Schlumberger                       
LATI .DEG             LATITUDE:  38 30' 0.616" N                   
LONG .DEG            LONGITUDE:  112 52' 55.956" W                 
API  .              API NUMBER:  NRC 42-00090-03                    
DATE .                LOG DATE:  30-Jul-2021
UWI  .          UNIQUE WELL ID:                                     
#-----------------------------------------------------------------------------
~PARAMETER INFORMATION
#MNEM.UNIT    VALUE                      DESCRIPTION
#---- -----   --------------------       ------------------------
CN   .        University Of Utah         :Company Name
WN   .        FORGE 78B-32               :Well Name
FN   .        None                       :Field Name
FL   .        Lat  38.500171  Long  -112.88221 :Field Location
FL1  .                                   :Field Location, Line 1
COUN .        Beaver                     :County or Parish
STAT .        Utah                       :State or Province
NATI .                                   :Nation
DATE .        30-Jul-2021                :Tools Above Rotary Table Date
APIN .        NRC 42-00090-03            :API Well Number
SECT .                                   :Section
TOWN .                                   :Township
RANG .                                   :Range
DMF  .        KB                         :Drilling Measured From (Name of Drilling Elevation Reference)
LMF  .        KB                         :Logging Measured From (Name of Logging Elevation Reference)
PDAT .        GL                         :Permanent Datum
ENGI .        CSTILES                    :Engineer s Name
WITN .        Virgil  Welch              :Witness s Name
LATI .        38� 30' 0.616  N           :Latitude
LONG .        112� 52' 55.956  W         :Longitude
LUL  .        F.Morgan                   :Logging Unit Location
LUN  .        9108                       :Logging Unit Number
RUN  .        1B                         :Run Number
SON  .                                   :Service Order Number
BHT  .DEGF     419.00000                 :Bottom Hole Temperature
BS   .IN         5.75000                 :Bit Size
MDEN .G/C3       2.71000                 :Matrix Density for Density Porosity
DFD  .LB/G       8.30000                 :Drilling Fluid Density
DFV  .S         24.00000                 :Drilling Fluid Viscosity
DFL  .C3      -999.25000                 :Drilling Fluid Loss
RMFS .OHMM       4.42000                 :Resistivity of Mud Filtrate Sample
EKB  .F       5565.50000                 :Elevation of Kelly Bushing
EGL  .F       5536.00000                 :Elevation of Ground Level
BLI  .F       9532.00000                 :Bottom Log Interval
BSAL .PPM      700.00000                 :Borehole Salinity
FLEV .F          8.00000                 :Depth of Drilling Fluid Level to LMF (Log Measured From)
MCST .DEGF      62.00000                 :Mudcake Sample Temperature
MFST .DEGF      62.00000                 :Mud Filtrate Sample Temperature
MRT  .DEGF     419.00000                 :Maximum Recorded Temperature
MST  .DEGF      62.00000                 :Mud Sample Temperature
RMCS .OHMM       6.21000                 :Resistivity of Mud Cake Sample
RMS  .OHMM       5.20000                 :Resistivity of Mud Sample
RW   .OHMM       1.00000                 :Connate Water Resistivity
TDD  .F       9500.00000                 :Driller Total Depth
TDL  .F       9532.00000                 :Logger Total Depth
TLI  .F       8530.00000                 :Top Log Interval
HIDE .                                   :Header Identifier
MATR .        LIME                       :Rock Matrix for Neutron Porosity Corrections
FNUM .           1.00000                 :F-Numerator for Formation Factor Formula
FEXP .           2.00000                 :Exponent "m" for Formation Factor Formula
DFT  .        WATER                      :Drilling Fluid Type
DFPH .          11.00000                 :Drilling Fluid pH
MCSS .        Calculated                 :Mudcake Sample Source
MFSS .        Calculated                 :Mud Filtrate Sample Source
FD   .G/C3       1.00000                 :Fluid Density
MSS  .        Flowline                   :Mud Sample Source
OS1  .                                   :Other Services Line 1
OS2  .                                   :Other Services Line 2
OS3  .                                   :Other Services Line 3
OS4  .                                   :Other Services Line 4
OS5  .                                   :Other Services Line 5
R1   .                                   :Remarks Line 1
R2   .                                   :Remarks Line 2
R3   .                                   :Remarks Line 3
R4   .                                   :Remarks Line 4
R5   .                                   :Remarks Line 5
R6   .        Tool was run as per tool sketch :Remarks Line 6
R7   .        All logging intervals as per client request :Remarks Line 7
R8   .                                   :Remarks Line 8
TCS  .        20 00 00                   :Time Circulation Stopped
TLAB .        02 17 00                   :Time Logger At Bottom
NMT  .        NOBARITE                   :HRDD Mud Type for Nuclear Devices
EPD  .C3         5536.000000             :Elevation of Permanent Datum above Mean Sea Level
APD  .F          29.500000               :Elevation of Depth Reference (LMF) above Permanent Datum
#-----------------------------------------------------------------------------
~CURVE INFORMATION
#MNEM.UNIT   API CODE                                  DESCRIPTION
#---- -----  --------                                  -----------------------
DEPT .F                                                :DEPTH (BOREHOLE) {F12.4}
AF10 .OHMM                                             :Array Induction Four Foot Resistivity A10 {F11.4}
AF20 .OHMM                                             :Array Induction Four Foot Resistivity A20 {F11.4}
AF30 .OHMM                                             :Array Induction Four Foot Resistivity A30 {F11.4}
AF60 .OHMM                                             :Array Induction Four Foot Resistivity A60 {F11.4}
AF90 .OHMM                                             :Array Induction Four Foot Resistivity A90 {F11.4}
AO10 .OHMM                                             :Array Induction One Foot Resistivity A10 {F11.4}
AO20 .OHMM                                             :Array Induction One Foot Resistivity A20 {F11.4}
AO30 .OHMM                                             :Array Induction One Foot Resistivity A30 {F11.4}
AO60 .OHMM                                             :Array Induction One Foot Resistivity A60 {F11.4}
AO90 .OHMM                                             :Array Induction One Foot Resistivity A90 {F11.4}
AT10 .OHMM                                             :Array Induction Two Foot Resistivity A10 {F11.4}
AT20 .OHMM                                             :Array Induction Two Foot Resistivity A20 {F11.4}
AT30 .OHMM                                             :Array Induction Two Foot Resistivity A30 {F11.4}
AT60 .OHMM                                             :Array Induction Two Foot Resistivity A60 {F11.4}
AT90 .OHMM                                             :Array Induction Two Foot Resistivity A90 {F11.4}
AORT .OHMM                                             :Array Induction One Foot Rt {F11.4}
AORX .OHMM                                             :Array Induction One Foot Rxo {F11.4}
CDF  .LBF                                              :Calibrated Downhole Force {F11.4}
CFTC .HZ                                               :Corrected Far Thermal Count Rate {F11.4}
CNTC .HZ                                               :Corrected Near Thermal Count Rate {F11.4}
CTEM .DEGF                                             :Cartridge Temperature {F11.4}
DCAL .IN                                               :Differential Caliper {F11.4}
DT   .US/F                                             :Delta-T (also called Slowness or Interval Transit Time) {F11.4}
DTCO .US/F                                             :Delta-T Compressional {F11.4}
DTSM .US/F                                             :Delta-T Shear {F11.4}
ED   .F                                                :East Departure {F11.4}
GR_STGC.GAPI                                           :Gamma Ray {F11.4}
GTEM .DEGF                                             :Generalized Borehole Temperature {F11.4}
HGR_STGC.GAPI                                          :High Resolution Gamma Ray {F11.4}
HNPO .CFCF                                             :High Resolution Enhanced Thermal Neutron Porosity in Selected Lithology {F11.4}
HTNP .CFCF                                             :High Resolution Thermal Neutron Porosity (Ratio Method) in Selected Lithology {F11.4}
ITT  .S                                                :Integrated Transit Time {F11.4}
ND   .F                                                :North Departure {F11.4}
NPHI .CFCF                                             :Thermal Neutron Porosity (original Ratio Method) in Selected Lithology {F11.4}
NPOR .CFCF                                             :Enhanced Thermal Neutron Porosity in Selected Lithology {F11.4}
PR   .                                                 :Poisson s Ratio {F11.4}
SP   .MV                                               :Spontaneous Potential {F11.4}
SPAR .MV                                               :SP, Armor Return Compensated {F11.4}
SPHI .CFCF                                             :Sonic Porosity {F11.4}
STIT .F                                                :Stuck Tool Indicator, Total {F11.4}
TENS .LBF                                              :Cable Tension {F11.4}
TNPH .CFCF                                             :Thermal Neutron Porosity (Ratio Method) in Selected Lithology {F11.4}
HTNP_SAN.CFCF                                          :HiRes Thermal Neutron Porosity (matrix Sandstone) {F11.4}
#-----------------------------------------------------------------------------
# 
#      DEPT        AF10       AF20       AF30       AF60       AF90       AO10       AO20       AO30       AO60       AO90       AT10       AT20       AT30       AT60       AT90       AORT       AORX       CDF        CFTC       CNTC       CTEM       DCAL        DT        DTCO       DTSM        ED      GR_STGC      GTEM     HGR_STGC     HNPO       HTNP       ITT         ND        NPHI       NPOR        PR         SP        SPAR       SPHI       STIT       TENS       TNPH     HTNP_SAN
#
~A  
# ...
   9092.5000    65.5713    94.8832  1950.0000  1950.0000   364.0170    62.8591    92.2012   181.9732    76.2191    77.3885    66.2232    93.7335  1950.0000  1721.8036   563.5399    76.2191    59.7966 -9727.3691  9283.7559 15545.1279   116.1412     0.0000    92.8906    92.8906    89.8025     0.0000   177.5863   405.4342   178.5106     0.0411     0.0332     0.0413     0.0000     0.0306     0.0396  -999.2500    38.7500    38.2220     0.2482     0.0000  3063.0000     0.0293     0.0670
   9093.0000    70.7932    92.4473  1950.0000  1950.0000   315.7934    71.2748   135.5009   193.8530    97.1420    99.7352    73.2945    92.8245  1950.0000  1937.9756   930.7098    97.1420    66.1970 -9764.2344  9276.0576 16195.8730   116.1412     0.0000    85.6250    85.6250    90.3007     0.0000   181.1192   405.4803   182.6456     0.0322     0.0337     0.0413     0.0000     0.0331     0.0297  -999.2500    38.1250    38.0641     0.2162     0.0000  3075.0000     0.0318     0.0675
   9093.5000    76.7407    90.4400  1950.0000  1950.0000   314.9855    87.5110   109.0302   631.8313   117.9965   121.3028    82.3257    85.8136  1950.0000  1892.6722   721.0660   117.9965    77.7099 -9738.5674  9514.7061 16148.9658   116.1412     0.0000    96.4258    96.4258    90.3007     0.0000   181.9320   405.4664   181.5991     0.0298     0.0318     0.0414     0.0000     0.0339     0.0246  -999.2500    38.1250    37.7348     0.2620     0.0000  3076.0000     0.0301     0.0652
   9094.0000    83.9449    90.5033  1950.0000  1950.0000   347.0817    85.9388    62.4916   597.4933   120.3446   124.0323    93.4512    77.9052  1950.0000  1731.1865   647.4722   120.3446    80.3897 -9635.1875  9152.3770 15698.2822   116.1412     0.0000   118.0273   118.0273    90.3007     0.0000   182.3098   405.4895   182.0405     0.0300     0.0316     0.0414     0.0000     0.0304     0.0317  -999.2500    37.5000    37.5558     0.3285     0.0000  3092.0000     0.0295     0.0648
   9094.5000    93.6192    94.5944  1950.0000  1950.0000   380.5211    82.5155    47.7431   764.5776   158.3807   163.7013   107.4066    74.4784  1950.0000  1457.5161   493.2945   158.3807    82.5155 -9630.8506  9630.0420 15124.6973   116.1412     0.0000   128.8281   128.8281    90.9287     0.0000   183.6695   405.5218   182.5792     0.0286     0.0254     0.0415     0.0000     0.0309     0.0492  -999.2500    37.5000    37.3754     0.3533     0.0000  3099.0000     0.0331     0.0571
   9095.0000   107.9472   104.5902  1950.0000  1950.0000   414.1387    83.3120    49.4583   650.0796   228.1855   233.3886   126.1969    78.3157  1950.0000  1129.7540   691.5294   228.1855    90.9057 -9650.8301  9366.7568 16119.2969   116.1412     0.0000   130.6055   130.6055   114.9130     0.0000   187.2098   405.5218   185.5750     0.0326     0.0324     0.0416     0.0000     0.0332     0.0351  -999.2500    36.8750    37.2002     0.3570     0.0000  3097.0000     0.0312     0.0659
   9095.5000   130.6752   121.6336  1950.0000  1950.0000   448.9598    90.2531    78.3952   361.9998   230.6971   233.3847   153.9922    90.8406  1950.0000   857.0891   701.7646   230.6971   104.9167 -9686.6641  9889.9746 18111.3457   116.1412     0.0000   134.1602   134.1602   114.9130     0.0000   191.2932   405.5862   191.5697     0.0306     0.0374     0.0416     0.0000     0.0358     0.0131  -999.2500    36.8750    37.0172     0.3641     0.0000  3093.0000     0.0316     0.0723
   9096.0000   168.4358   143.3951  1950.0000  1950.0000   410.8169    97.8993   140.6309   765.0673   213.6633   214.9371   198.5052   110.1814  1950.0000   910.0739  1025.1191   213.6633   114.5518 -9690.6455  9926.8584 16920.9023   116.1412     0.0000   100.1563   100.1563   114.3482     0.0000   195.6144   405.5724   195.6446     0.0297     0.0323     0.0417     0.0000     0.0377     0.0346  -999.2500    36.8750    36.8700     0.2755     0.0000  3087.0000     0.0345     0.0657
   9096.5000   233.4425   159.6483  1950.0000  1950.0000   676.1740   120.9967   257.8358  1950.0000   112.4536   111.8543   273.9965   123.5828  1950.0000  1076.9667   897.8030   112.4536   122.9751 -9627.6514  9234.8311 16770.1953   116.1412     0.0000    92.9688    92.9688   124.9758     0.0000   199.9533   405.5356   199.0615     0.0363     0.0347     0.0417     0.0000     0.0346     0.0347     0.2369    36.2500    36.7435     0.2485     0.0000  3086.0000     0.0336     0.0688
   9097.0000   348.0828   158.1499  1950.0000  1950.0000   926.4720   166.3550   193.5012  1950.0000    91.0571    90.5894   405.7036   114.0899  1950.0000   488.6793   442.8770    91.0571   164.0285 -9622.6748  9959.8379 16713.7480   116.1412     0.0000    78.9063    78.9063   134.9350     0.0000   202.9400   405.6001   202.4164     0.0329     0.0326     0.0418     0.0000     0.0356     0.0265     0.2402    36.2500    36.5958     0.1814     0.0000  3095.0000     0.0329     0.0661
   9097.5000   548.8759   142.1600  1950.0000  1950.0000  1096.0712   246.8015   103.9206   749.5275    89.8674    88.8626   631.0378    91.4054  1950.0000   757.3388   995.6102    89.8674   227.0497 -9640.9473  8971.0664 15717.2715   116.1412     0.0000    81.5430    81.5430   134.9350     0.0000   203.3934   405.6369   204.5986     0.0401     0.0364     0.0418     0.0000     0.0379     0.0332     0.2124    36.2500    36.5161     0.1958     0.0000  3100.0000     0.0344     0.0710
   9098.0000   873.3598   125.1391  1950.0000  1950.0000  1348.4827   512.3462    58.1619   287.8459   125.4585   118.2602   988.9493    73.2789  1950.0000   776.5598  1042.0045   125.4585   333.9525 -9715.4600  7783.4067 15029.1191   116.1412     0.0000    82.9102    82.9102   134.5731     0.0000   203.4620   405.6646   202.1943     0.0449     0.0466     0.0419     0.0000     0.0488     0.0502     0.1941    36.2500    36.4592     0.2029     0.0000  3101.0000     0.0490     0.0840
   9098.5000  1297.7008   114.4743  1950.0000  1832.7383  1622.5656  1886.2786    36.6855   129.8228   129.4390   123.4749  1482.9752    64.0991  1857.7347   910.4196  1099.2290   128.9844   471.4505 -9717.1660  6266.5537 13889.4189   116.1412     0.0000    87.0020    87.0020   135.3407     0.0000   199.9223   405.6968   203.5245     0.0499     0.0436     0.0419     0.0000     0.0581     0.0717     0.1479    36.2500    36.4229     0.2227     0.0000  3093.0000     0.0606     0.0801
   9099.0000  1691.5751   110.6245  1950.0000  1564.5735  1746.5424  1119.6633    33.0021    61.1097    83.7251    79.2253  1950.0000    62.8085  1646.8446   875.7908   923.3234    83.7251   658.8404 -9655.1660  6447.5103 14148.4316   116.1412     0.0000    88.8184    88.8184   135.3407     0.0000   197.5912   405.6992   193.9857     0.0667     0.0660     0.0419     0.0000     0.0599     0.0678     0.1218    36.2500    36.3085     0.2309     0.0000  3076.0000     0.0648     0.1087
   9099.5000  1950.0000   110.3934  1943.8022  1220.5538  1690.5227  1278.2659    26.4058    36.1795    28.3190    27.1464  1950.0000    68.0704  1333.8571   633.5665   610.1770    29.5245   905.1743 -9636.5391  6942.6133 13975.1621   116.1412     0.0000    90.9766    90.9766   132.8135     0.0000   195.0817   405.7245   193.9935     0.0572     0.0561     0.0420     0.0000     0.0573     0.0668     0.0580    36.2500    36.3025     0.2403     0.0000  3080.0000     0.0598     0.0960
   9100.0000  1950.0000   107.9850  1845.7280   882.9187  1468.3806  1950.0000    64.1045    86.5481    41.9730    39.8411  1950.0000    76.6770  1154.8483   500.9539   468.7192    41.9730  1221.1057 -9635.4727  6975.1841 14607.7773   116.1412     0.0000    92.2266    92.2266   126.9020     0.0000   195.6320   405.7383   195.0890     0.0552     0.0569     0.0420     0.0000     0.0537     0.0523  -999.2500    36.2500    36.3059     0.2455     0.0000  3082.4998     0.0533     0.0971
   9100.5000  1950.0000    98.4970  1659.6694   619.8713  1184.9828  1950.0000   121.6678   149.8833    27.7447    26.7459  1950.0000    78.9017  1596.0234   594.4711   536.1899    27.7447  1499.0846 -9727.4756  7577.3164 15334.3906   116.1412     0.0000    92.2266    92.2266   124.3748     0.0000   196.9425   405.7844   196.7214     0.0460     0.0510     0.0421     0.0000     0.0480     0.0359  -999.2500    36.8750    36.2270     0.2455     0.0000  3079.0000     0.0454     0.0895
