~VERSION INFORMATION
VERS.           1.2   :CWLS Log ASCII Standard - VERSION 1.2
WRAP.           NO    :One Line per depth step
PROD.  Schlumberger   :LAS Producer
PROG.  DLIS to ASCII 2.3                               :LAS Program name and version
CREA.        2021/07/30 13:36                          :LAS Creation date {YYYY/MM/DD hh:mm}
DLIS_CREA.  2021-Jul-30 07:08                          :DLIS Creation date and time {YYYY-MMM-DD hh:mm}
SOURCE.     6d1d3df9-7549-4232-acfc-119b5b71a716       :DLIS File Name
#--------------------------------------------------
~WELL INFORMATION
#MNEM.UNIT      DATA             DESCRIPTION
#---- ------ --------------   -----------------------------
STRT .F      7447.0000       :START DEPTH     
STOP .F      9553.0000       :STOP DEPTH     
STEP .F       0.5000         :STEP       
NULL .          -999.25      :NULL VALUE
COMP .                 COMPANY:  University Of Utah                 
WELL .                    WELL:  FORGE 78B-32                       
FLD  .                   FIELD:  None                               
LOC  .                LOCATION:  Lat: 38.500171, Long: -112.88221   
CNTY .                  COUNTY:  Beaver                             
STAT .                   STATE:  Utah                               
CTRY .                 COUNTRY:                                     
SRVC .         SERVICE COMPANY:  Schlumberger                       
LATI .DEG             LATITUDE:  38 30' 0.616" N                   
LONG .DEG            LONGITUDE:  112 52' 55.956" W                 
API  .              API NUMBER:  NRC 42-00090-03                    
DATE .                LOG DATE:  30-Jul-2021
UWI  .          UNIQUE WELL ID:                                     
#-----------------------------------------------------------------------------
~PARAMETER INFORMATION
#MNEM.UNIT    VALUE                      DESCRIPTION
#---- -----   --------------------       ------------------------
CN   .        University Of Utah         :Company Name
WN   .        FORGE 78B-32               :Well Name
FN   .        None                       :Field Name
FL   .        Lat  38.500171  Long  -112.88221 :Field Location
FL1  .                                   :Field Location, Line 1
COUN .        Beaver                     :County or Parish
STAT .        Utah                       :State or Province
NATI .                                   :Nation
DATE .        30-Jul-2021                :Tools Above Rotary Table Date
APIN .        NRC 42-00090-03            :API Well Number
SECT .                                   :Section
TOWN .                                   :Township
RANG .                                   :Range
DMF  .        KB                         :Drilling Measured From (Name of Drilling Elevation Reference)
LMF  .        KB                         :Logging Measured From (Name of Logging Elevation Reference)
PDAT .        GL                         :Permanent Datum
ENGI .        CSTILES                    :Engineer s Name
WITN .        Virgil  Welch              :Witness s Name
LATI .        38� 30' 0.616  N           :Latitude
LONG .        112� 52' 55.956  W         :Longitude
LUL  .        F.Morgan                   :Logging Unit Location
LUN  .        9108                       :Logging Unit Number
RUN  .        1B                         :Run Number
SON  .                                   :Service Order Number
BHT  .DEGF     419.00000                 :Bottom Hole Temperature
BS   .IN         5.75000                 :Bit Size
MDEN .G/C3       2.71000                 :Matrix Density for Density Porosity
DFD  .LB/G       8.30000                 :Drilling Fluid Density
DFV  .S         24.00000                 :Drilling Fluid Viscosity
DFL  .C3      -999.25000                 :Drilling Fluid Loss
RMFS .OHMM       4.42000                 :Resistivity of Mud Filtrate Sample
EKB  .F       5565.50000                 :Elevation of Kelly Bushing
EGL  .F       5536.00000                 :Elevation of Ground Level
BLI  .F       9532.00000                 :Bottom Log Interval
BSAL .PPM      700.00000                 :Borehole Salinity
FLEV .F          8.00000                 :Depth of Drilling Fluid Level to LMF (Log Measured From)
MCST .DEGF      62.00000                 :Mudcake Sample Temperature
MFST .DEGF      62.00000                 :Mud Filtrate Sample Temperature
MRT  .DEGF     419.00000                 :Maximum Recorded Temperature
MST  .DEGF      62.00000                 :Mud Sample Temperature
RMCS .OHMM       6.21000                 :Resistivity of Mud Cake Sample
RMS  .OHMM       5.20000                 :Resistivity of Mud Sample
RW   .OHMM       1.00000                 :Connate Water Resistivity
TDD  .F       9500.00000                 :Driller Total Depth
TDL  .F       9532.00000                 :Logger Total Depth
TLI  .F       8530.00000                 :Top Log Interval
HIDE .                                   :Header Identifier
MATR .        LIME                       :Rock Matrix for Neutron Porosity Corrections
FNUM .           1.00000                 :F-Numerator for Formation Factor Formula
FEXP .           2.00000                 :Exponent "m" for Formation Factor Formula
DFT  .        WATER                      :Drilling Fluid Type
DFPH .          11.00000                 :Drilling Fluid pH
MCSS .        Calculated                 :Mudcake Sample Source
MFSS .        Calculated                 :Mud Filtrate Sample Source
FD   .G/C3       1.00000                 :Fluid Density
MSS  .        Flowline                   :Mud Sample Source
OS1  .                                   :Other Services Line 1
OS2  .                                   :Other Services Line 2
OS3  .                                   :Other Services Line 3
OS4  .                                   :Other Services Line 4
OS5  .                                   :Other Services Line 5
R1   .                                   :Remarks Line 1
R2   .                                   :Remarks Line 2
R3   .                                   :Remarks Line 3
R4   .                                   :Remarks Line 4
R5   .                                   :Remarks Line 5
R6   .        Tool was run as per tool sketch :Remarks Line 6
R7   .        All logging intervals as per client request :Remarks Line 7
R8   .                                   :Remarks Line 8
TCS  .        20 00 00                   :Time Circulation Stopped
TLAB .        02 17 00                   :Time Logger At Bottom
NMT  .        NOBARITE                   :HRDD Mud Type for Nuclear Devices
EPD  .C3         5536.000000             :Elevation of Permanent Datum above Mean Sea Level
APD  .F          29.500000               :Elevation of Depth Reference (LMF) above Permanent Datum
#-----------------------------------------------------------------------------
~CURVE INFORMATION
#MNEM.UNIT   API CODE                                  DESCRIPTION
#---- -----  --------                                  -----------------------
DEPT .F                                                :DEPTH (BOREHOLE) {F12.4}
AF10 .OHMM                                             :Array Induction Four Foot Resistivity A10 {F11.4}
AF20 .OHMM                                             :Array Induction Four Foot Resistivity A20 {F11.4}
AF30 .OHMM                                             :Array Induction Four Foot Resistivity A30 {F11.4}
AF60 .OHMM                                             :Array Induction Four Foot Resistivity A60 {F11.4}
AF90 .OHMM                                             :Array Induction Four Foot Resistivity A90 {F11.4}
AO10 .OHMM                                             :Array Induction One Foot Resistivity A10 {F11.4}
AO20 .OHMM                                             :Array Induction One Foot Resistivity A20 {F11.4}
AO30 .OHMM                                             :Array Induction One Foot Resistivity A30 {F11.4}
AO60 .OHMM                                             :Array Induction One Foot Resistivity A60 {F11.4}
AO90 .OHMM                                             :Array Induction One Foot Resistivity A90 {F11.4}
AT10 .OHMM                                             :Array Induction Two Foot Resistivity A10 {F11.4}
AT20 .OHMM                                             :Array Induction Two Foot Resistivity A20 {F11.4}
AT30 .OHMM                                             :Array Induction Two Foot Resistivity A30 {F11.4}
AT60 .OHMM                                             :Array Induction Two Foot Resistivity A60 {F11.4}
AT90 .OHMM                                             :Array Induction Two Foot Resistivity A90 {F11.4}
AORT .OHMM                                             :Array Induction One Foot Rt {F11.4}
AORX .OHMM                                             :Array Induction One Foot Rxo {F11.4}
CDF  .LBF                                              :Calibrated Downhole Force {F11.4}
CFTC .HZ                                               :Corrected Far Thermal Count Rate {F11.4}
CNTC .HZ                                               :Corrected Near Thermal Count Rate {F11.4}
CTEM .DEGF                                             :Cartridge Temperature {F11.4}
DCAL .IN                                               :Differential Caliper {F11.4}
DT   .US/F                                             :Delta-T (also called Slowness or Interval Transit Time) {F11.4}
DTCO .US/F                                             :Delta-T Compressional {F11.4}
DTSM .US/F                                             :Delta-T Shear {F11.4}
ED   .F                                                :East Departure {F11.4}
GR_STGC.GAPI                                           :Gamma Ray {F11.4}
GTEM .DEGF                                             :Generalized Borehole Temperature {F11.4}
HGR_STGC.GAPI                                          :High Resolution Gamma Ray {F11.4}
HNPO .CFCF                                             :High Resolution Enhanced Thermal Neutron Porosity in Selected Lithology {F11.4}
HTNP .CFCF                                             :High Resolution Thermal Neutron Porosity (Ratio Method) in Selected Lithology {F11.4}
ITT  .S                                                :Integrated Transit Time {F11.4}
ND   .F                                                :North Departure {F11.4}
NPHI .CFCF                                             :Thermal Neutron Porosity (original Ratio Method) in Selected Lithology {F11.4}
NPOR .CFCF                                             :Enhanced Thermal Neutron Porosity in Selected Lithology {F11.4}
PR   .                                                 :Poisson s Ratio {F11.4}
SP   .MV                                               :Spontaneous Potential {F11.4}
SPAR .MV                                               :SP, Armor Return Compensated {F11.4}
SPHI .CFCF                                             :Sonic Porosity {F11.4}
STIT .F                                                :Stuck Tool Indicator, Total {F11.4}
TENS .LBF                                              :Cable Tension {F11.4}
TNPH .CFCF                                             :Thermal Neutron Porosity (Ratio Method) in Selected Lithology {F11.4}
HTNP_SAN.CFCF                                          :HiRes Thermal Neutron Porosity (matrix Sandstone) {F11.4}
#-----------------------------------------------------------------------------
# 
#      DEPT        AF10       AF20       AF30       AF60       AF90       AO10       AO20       AO30       AO60       AO90       AT10       AT20       AT30       AT60       AT90       AORT       AORX       CDF        CFTC       CNTC       CTEM       DCAL        DT        DTCO       DTSM        ED      GR_STGC      GTEM     HGR_STGC     HNPO       HTNP       ITT         ND        NPHI       NPOR        PR         SP        SPAR       SPHI       STIT       TENS       TNPH     HTNP_SAN
#
~A  
# ...
   8849.5000  1950.0000    57.0289  1594.5022  1114.4418  1770.8889  1950.0000    58.4119   165.3426   118.1735   111.2902  1950.0000    65.9372   709.0864   558.7263   422.4302   105.7175  1941.4620 -9359.2891 10490.2725 16317.9248   129.9765     0.0000    53.2617    53.2617    94.6138     0.0000   127.1486   401.0738   120.2733     0.0180     0.0217     0.0361     0.0000     0.0254     0.0234     0.2680     2.5000     2.5661    -0.0321     0.0000  4298.6665     0.0225     0.0525
   8850.0000  1950.0000    51.9991  1758.4153   894.6389  1604.5583  1950.0000    57.1965   251.0276   107.0392   102.1184  1950.0000    58.3075   971.2152   571.7865   517.2217    98.7372  1897.9266 -9318.2627 10231.6328 16457.7852   129.9765     0.0000    52.6758    52.6758    93.7158     0.0000   108.4622   401.0833   120.9869     0.0261     0.0240     0.0361     0.0000     0.0285     0.0217     0.2691     2.8906     2.6661    -0.0394     0.0000  4331.0000     0.0253     0.0554
   8850.5000  1950.0000    48.2721  1748.8156   629.4994  1257.0044  1950.0000    50.1899   331.2212    65.9962    64.1589  1950.0000    52.8561  1038.1224   444.5724   419.3598    71.5146  1842.5869 -9363.1816  9291.6807 15969.6357   129.9765     0.0000    52.4805    52.4805    92.9843     0.0000    86.9463   401.0861    84.2814     0.0373     0.0326     0.0361     0.0000     0.0319     0.0282     0.2663     2.7734     2.7468    -0.0419     0.0000  4258.3330     0.0288     0.0661
   8851.0000  1950.0000    45.9905  1576.4027   424.3735   871.2683  1950.0000    48.7163   395.3413   116.7301   114.8560  1950.0000    49.2310   976.6489   320.7148   304.3387   103.3665  1744.5634 -9302.3125  9060.7949 15689.6807   129.9765     0.0000    52.1387    52.1387    92.7350     0.0000    66.3061   401.1017    55.8106     0.0314     0.0320     0.0360     0.0000     0.0338     0.0332     0.2689     2.6172     2.8216    -0.0463     0.0000  4166.3335     0.0328     0.0654
   8851.5000  1950.0000    45.0530  1323.4084   298.0580   576.2123  1950.0000    43.6702   341.3957   155.5504   141.9814  1950.0000    47.1553   796.5178   228.9201   201.1390   120.2456  1742.3225 -9331.0664  8894.7939 15170.0859   129.9765     0.0000    51.9141    51.9141    92.2717     0.0000    55.0366   401.1122    59.0663     0.0328     0.0320     0.0360     0.0000     0.0345     0.0372     0.2684     3.0469     2.9625    -0.0492     0.0000  4214.6665     0.0332     0.0654
   8852.0000  1950.0000    45.2627  1083.9366   222.9718   390.3318  1950.0000    41.8289   258.7051   237.0813   199.9247  1950.0000    46.1458   571.6798   169.7290   133.8931   121.9443  1699.0210 -9306.7900  8714.4727 15295.1582   129.9765     0.0000    52.0020    52.0020    92.2339     0.0000    51.7724   401.1232    50.4728     0.0333     0.0345     0.0360     0.0000     0.0349     0.0333     0.2670     3.1250     3.0648    -0.0481     0.0000  4272.3335     0.0336     0.0685
   8852.5000  1950.0000    47.0421   903.1641   173.3873   279.0374  1950.0000    38.6055   182.6163   232.3334   201.1852  1950.0000    50.5478   438.4308   136.7923   103.4193   124.1503  1591.8993 -9330.9775  8625.7607 15118.9238   129.9765     0.0000    51.9727    51.9727    92.6052     0.0000    50.2951   401.1284    46.0478     0.0384     0.0336     0.0360     0.0000     0.0359     0.0354     0.2701     3.2031     3.1486    -0.0484     0.0000  4367.3335     0.0344     0.0674
   8853.0000  1950.0000    49.9376   764.3486   143.8173   206.3758  1950.0000    48.9774   156.7764   166.0746   150.9619  1950.0000    49.6261   343.2814   114.5753    83.0967   110.8077  1345.9106 -9333.9854  8601.0615 15063.7773   129.9765     0.0000    51.8555    51.8555    92.7897     0.0000    52.0635   401.1416    54.6343     0.0386     0.0345     0.0359     0.0000     0.0364     0.0376     0.2729     3.2422     3.2149    -0.0500     0.0000  4270.0000     0.0352     0.0686
   8853.5000  1950.0000    54.0224   717.0522   145.5542   176.8846  1950.0000    63.1598   117.7210    94.3525    88.7051  1950.0000    62.6141   242.6441    82.1366    60.2251    83.1101   925.5974 -9365.0264  8583.5371 15313.9063   129.9765     0.0000    52.1777    52.1777    92.7655     0.0000    58.4239   401.1564    55.7782     0.0366     0.0364     0.0359     0.0000     0.0361     0.0337     0.2686     3.1250     3.2452    -0.0458     0.0000  4221.0000     0.0345     0.0710
   8854.0000  1950.0000    64.6759   829.5972   167.1797   181.7262  1710.9783    68.8538    99.1245    65.5267    62.5261  1950.0000    72.7872   327.8944   113.0014    69.8276    61.8004   603.8568 -9349.3467  8831.5342 15331.8682   129.9765     0.0000    52.5488    52.5488    92.8180     0.0000    63.1641   401.1695    65.0618     0.0328     0.0333     0.0359     0.0000     0.0370     0.0343     0.2641     3.1250     3.2983    -0.0410     0.0000  4231.3335     0.0349     0.0670
   8854.5000  1950.0000    74.4272   974.8773   182.8657   180.5640   949.4990    81.3777   123.7885    58.9427    57.6224  1950.0000    92.3504   413.4691   167.5159    84.7599    58.1161   380.7799 -9364.6377  8587.6592 15444.8486   129.9765     0.0000    52.3242    52.3242    92.6526     0.0000    64.3455   401.1837    68.8548     0.0335     0.0363     0.0359     0.0000     0.0367     0.0343     0.2659     3.1250     3.3594    -0.0439     0.0000  4288.3335     0.0353     0.0709
   8855.0000  1950.0000    82.5792  1188.5739   253.9366   209.4040  1258.7942   184.3424   252.1637   125.3904   119.8118  1950.0000   150.7431   502.7266   211.3915   110.4929   112.0631   246.3583 -9343.0537  8648.4736 15303.1943   129.9765     0.0000    52.2266    52.2266    92.7741     0.0000    60.2249   401.1993    59.5271     0.0366     0.0357     0.0358     0.0000     0.0366     0.0368     0.2680     3.3594     3.4138    -0.0452     0.0000  4409.0000     0.0351     0.0700
   8855.5000  1950.0000    86.2432  1446.1339   366.9868   255.9240   279.5510   186.4897   701.7700   383.6215   355.8252  1950.0000   165.0952  1237.1814   550.8302   162.0485   272.3924   224.2440 -9394.7256  8944.7490 15480.2607   129.9765     0.0000    52.4121    52.4121    92.6374     0.0000    53.9629   401.2239    52.4974     0.0297     0.0324     0.0358     0.0000     0.0356     0.0367     0.2646     3.7500     3.4557    -0.0428     0.0000  4351.3335     0.0351     0.0659
   8856.0000  1950.0000    84.1877  1687.3152   536.8685   347.8090   115.6840   106.4649   412.7656   580.4640   560.6194  1950.0000   136.1272   675.8470   398.0485   173.8363   459.2960   181.0000 -9321.9668  8892.7754 15539.7725   129.9765     0.0000    52.2266    52.2266    92.4741     0.0000    50.4095   401.2371    50.0689     0.0341     0.0349     0.0358     0.0000     0.0344     0.0349     0.2658     3.7500     3.4663    -0.0452     0.0000  4261.6665     0.0325     0.0690
   8856.5000  1950.0000    78.5149  1860.2460   823.0547   473.1786    92.4045    82.8533   297.0118  1498.8909  1480.0082  1908.7943   100.8268   797.4103   598.4597   154.2828  1030.9991   151.2835 -9377.3457  9481.8350 16177.8857   129.9765     0.0000    51.9922    51.9922    92.2691     0.0000    52.3058   401.2472    48.7630     0.0300     0.0304     0.0358     0.0000     0.0339     0.0263     0.2674     3.2422     3.4912    -0.0482     0.0000  4261.6665     0.0312     0.0634
   8857.0000  1950.0000    72.1558  1950.0000  1206.4159   681.4028   138.6793    67.0029   636.4729  1950.0000  1950.0000  1578.4933    76.1279   815.4433   992.2596   196.7883  1823.2589   133.3275 -9337.5742  9408.1055 16072.9697   129.8529     0.0000    51.7188    51.7188    91.7871     0.0000    50.8353   401.2720    58.1864     0.0309     0.0302     0.0357     0.0000     0.0334     0.0280     0.2674     3.7083     3.5253    -0.0517     0.0000  4258.6670     0.0306     0.0632
   8857.5000  1941.3600    66.8989  1950.0000  1606.5770   966.3423   255.3123    64.0547   968.8747  1950.0000  1950.0000  1248.8777    74.6398  1125.0396  1442.6599   295.0614  1950.0000   120.7466 -9366.4199  9178.2471 15786.6543   129.9765     0.0000    51.9824    51.9824    91.3749     0.0000    50.4650   401.2782    45.6573     0.0288     0.0331     0.0357     0.0000     0.0333     0.0345     0.2608     3.7132     3.5390    -0.0483     0.0000  4309.5000     0.0320     0.0668
