~VERSION INFORMATION
VERS.           1.2   :CWLS Log ASCII Standard - VERSION 1.2
WRAP.           NO    :One Line per depth step
PROD.  Schlumberger   :LAS Producer
PROG.  DLIS to ASCII 2.3                               :LAS Program name and version
CREA.        2021/07/30 13:36                          :LAS Creation date {YYYY/MM/DD hh:mm}
DLIS_CREA.  2021-Jul-30 07:08                          :DLIS Creation date and time {YYYY-MMM-DD hh:mm}
SOURCE.     9adb19af-6988-40d6-a86c-1e71535bb624       :DLIS File Name
#--------------------------------------------------
~WELL INFORMATION
#MNEM.UNIT      DATA             DESCRIPTION
#---- ------ --------------   -----------------------------
STRT .F        5785.0000     :START DEPTH     
STOP .F        9045.0000     :STOP DEPTH     
STEP .F           0.5000       :STEP     
NULL .          -999.25      :NULL VALUE
COMP .                 COMPANY:  University Of Utah                 
WELL .                    WELL:  FORGE 78B-32                       
FLD  .                   FIELD:  None                               
LOC  .                LOCATION:  Lat: 38.500171, Long: -112.88221   
CNTY .                  COUNTY:  Beaver                             
STAT .                   STATE:  Utah                               
CTRY .                 COUNTRY:                                     
SRVC .         SERVICE COMPANY:  Schlumberger                       
LATI .DEG             LATITUDE:  38 30' 0.616" N                   
LONG .DEG            LONGITUDE:  112 52' 55.956" W                 
API  .              API NUMBER:  NRC 42-00090-03                    
DATE .                LOG DATE:  30-Jul-2021
UWI  .          UNIQUE WELL ID:                                     
#-----------------------------------------------------------------------------
~PARAMETER INFORMATION
#MNEM.UNIT    VALUE                      DESCRIPTION
#---- -----   --------------------       ------------------------
CN   .        University Of Utah         :Company Name
WN   .        FORGE 78B-32               :Well Name
FN   .        None                       :Field Name
FL   .        Lat  38.500171  Long  -112.88221 :Field Location
FL1  .                                   :Field Location, Line 1
COUN .        Beaver                     :County or Parish
STAT .        Utah                       :State or Province
NATI .                                   :Nation
DATE .        30-Jul-2021                :Tools Above Rotary Table Date
APIN .        NRC 42-00090-03            :API Well Number
SECT .                                   :Section
TOWN .                                   :Township
RANG .                                   :Range
DMF  .        KB                         :Drilling Measured From (Name of Drilling Elevation Reference)
LMF  .        KB                         :Logging Measured From (Name of Logging Elevation Reference)
PDAT .        GL                         :Permanent Datum
ENGI .        CSTILES                    :Engineer s Name
WITN .        Virgil  Welch              :Witness s Name
LATI .        38� 30' 0.616  N           :Latitude
LONG .        112� 52' 55.956  W         :Longitude
LUL  .        F.Morgan                   :Logging Unit Location
LUN  .        9108                       :Logging Unit Number
RUN  .        1B                         :Run Number
SON  .                                   :Service Order Number
BHT  .DEGF     419.00000                 :Bottom Hole Temperature
BS   .IN         5.75000                 :Bit Size
MDEN .G/C3       2.71000                 :Matrix Density for Density Porosity
DFD  .LB/G       8.30000                 :Drilling Fluid Density
DFV  .S         24.00000                 :Drilling Fluid Viscosity
DFL  .C3      -999.25000                 :Drilling Fluid Loss
RMFS .OHMM       4.42000                 :Resistivity of Mud Filtrate Sample
EKB  .F       5565.50000                 :Elevation of Kelly Bushing
EGL  .F       5536.00000                 :Elevation of Ground Level
BLI  .F       9532.00000                 :Bottom Log Interval
BSAL .PPM      700.00000                 :Borehole Salinity
FLEV .F          8.00000                 :Depth of Drilling Fluid Level to LMF (Log Measured From)
MCST .DEGF      62.00000                 :Mudcake Sample Temperature
MFST .DEGF      62.00000                 :Mud Filtrate Sample Temperature
MRT  .DEGF     419.00000                 :Maximum Recorded Temperature
MST  .DEGF      62.00000                 :Mud Sample Temperature
RMCS .OHMM       6.21000                 :Resistivity of Mud Cake Sample
RMS  .OHMM       5.20000                 :Resistivity of Mud Sample
RW   .OHMM       1.00000                 :Connate Water Resistivity
TDD  .F       9500.00000                 :Driller Total Depth
TDL  .F       9532.00000                 :Logger Total Depth
TLI  .F       8530.00000                 :Top Log Interval
HIDE .                                   :Header Identifier
MATR .        LIME                       :Rock Matrix for Neutron Porosity Corrections
FNUM .           1.00000                 :F-Numerator for Formation Factor Formula
FEXP .           2.00000                 :Exponent "m" for Formation Factor Formula
DFT  .        WATER                      :Drilling Fluid Type
DFPH .          11.00000                 :Drilling Fluid pH
MCSS .        Calculated                 :Mudcake Sample Source
MFSS .        Calculated                 :Mud Filtrate Sample Source
FD   .G/C3       1.00000                 :Fluid Density
MSS  .        Flowline                   :Mud Sample Source
OS1  .                                   :Other Services Line 1
OS2  .                                   :Other Services Line 2
OS3  .                                   :Other Services Line 3
OS4  .                                   :Other Services Line 4
OS5  .                                   :Other Services Line 5
R1   .                                   :Remarks Line 1
R2   .                                   :Remarks Line 2
R3   .                                   :Remarks Line 3
R4   .                                   :Remarks Line 4
R5   .                                   :Remarks Line 5
R6   .        Tool was run as per tool sketch :Remarks Line 6
R7   .        All logging intervals as per client request :Remarks Line 7
R8   .                                   :Remarks Line 8
TCS  .        20 00 00                   :Time Circulation Stopped
TLAB .        02 17 00                   :Time Logger At Bottom
NMT  .        NOBARITE                   :HRDD Mud Type for Nuclear Devices
EPD  .C3         5536.000000             :Elevation of Permanent Datum above Mean Sea Level
APD  .F          29.500000               :Elevation of Depth Reference (LMF) above Permanent Datum
#-----------------------------------------------------------------------------
~CURVE INFORMATION
#MNEM.UNIT   API CODE                                  DESCRIPTION
#---- -----  --------                                  -----------------------
DEPT .F                                                :DEPTH (BOREHOLE) {F12.4}
AF10 .OHMM                                             :Array Induction Four Foot Resistivity A10 {F11.4}
AF20 .OHMM                                             :Array Induction Four Foot Resistivity A20 {F11.4}
AF30 .OHMM                                             :Array Induction Four Foot Resistivity A30 {F11.4}
AF60 .OHMM                                             :Array Induction Four Foot Resistivity A60 {F11.4}
AF90 .OHMM                                             :Array Induction Four Foot Resistivity A90 {F11.4}
AO10 .OHMM                                             :Array Induction One Foot Resistivity A10 {F11.4}
AO20 .OHMM                                             :Array Induction One Foot Resistivity A20 {F11.4}
AO30 .OHMM                                             :Array Induction One Foot Resistivity A30 {F11.4}
AO60 .OHMM                                             :Array Induction One Foot Resistivity A60 {F11.4}
AO90 .OHMM                                             :Array Induction One Foot Resistivity A90 {F11.4}
AT10 .OHMM                                             :Array Induction Two Foot Resistivity A10 {F11.4}
AT20 .OHMM                                             :Array Induction Two Foot Resistivity A20 {F11.4}
AT30 .OHMM                                             :Array Induction Two Foot Resistivity A30 {F11.4}
AT60 .OHMM                                             :Array Induction Two Foot Resistivity A60 {F11.4}
AT90 .OHMM                                             :Array Induction Two Foot Resistivity A90 {F11.4}
AORT .OHMM                                             :Array Induction One Foot Rt {F11.4}
AORX .OHMM                                             :Array Induction One Foot Rxo {F11.4}
CDF  .LBF                                              :Calibrated Downhole Force {F11.4}
CFTC .HZ                                               :Corrected Far Thermal Count Rate {F11.4}
CNTC .HZ                                               :Corrected Near Thermal Count Rate {F11.4}
CTEM .DEGF                                             :Cartridge Temperature {F11.4}
DCAL .IN                                               :Differential Caliper {F11.4}
DT   .US/F                                             :Delta-T (also called Slowness or Interval Transit Time) {F11.4}
DTCO .US/F                                             :Delta-T Compressional {F11.4}
DTSM .US/F                                             :Delta-T Shear {F11.4}
ED   .F                                                :East Departure {F11.4}
GR_STGC.GAPI                                           :Gamma Ray {F11.4}
GTEM .DEGF                                             :Generalized Borehole Temperature {F11.4}
HGR_STGC.GAPI                                          :High Resolution Gamma Ray {F11.4}
HNPO .CFCF                                             :High Resolution Enhanced Thermal Neutron Porosity in Selected Lithology {F11.4}
HTNP .CFCF                                             :High Resolution Thermal Neutron Porosity (Ratio Method) in Selected Lithology {F11.4}
ITT  .S                                                :Integrated Transit Time {F11.4}
ND   .F                                                :North Departure {F11.4}
NPHI .CFCF                                             :Thermal Neutron Porosity (original Ratio Method) in Selected Lithology {F11.4}
NPOR .CFCF                                             :Enhanced Thermal Neutron Porosity in Selected Lithology {F11.4}
PR   .                                                 :Poisson s Ratio {F11.4}
SP   .MV                                               :Spontaneous Potential {F11.4}
SPAR .MV                                               :SP, Armor Return Compensated {F11.4}
SPHI .CFCF                                             :Sonic Porosity {F11.4}
STIT .F                                                :Stuck Tool Indicator, Total {F11.4}
TENS .LBF                                              :Cable Tension {F11.4}
TNPH .CFCF                                             :Thermal Neutron Porosity (Ratio Method) in Selected Lithology {F11.4}
HTNP_SAN.CFCF                                          :HiRes Thermal Neutron Porosity (matrix Sandstone) {F11.4}
#-----------------------------------------------------------------------------
# 
#      DEPT        AF10       AF20       AF30       AF60       AF90       AO10       AO20       AO30       AO60       AO90       AT10       AT20       AT30       AT60       AT90       AORT       AORX       CDF        CFTC       CNTC       CTEM       DCAL        DT        DTCO       DTSM        ED      GR_STGC      GTEM     HGR_STGC     HNPO       HTNP       ITT         ND        NPHI       NPOR        PR         SP        SPAR       SPHI       STIT       TENS       TNPH     HTNP_SAN
#
~A  
# ...
   7952.5000     0.2738  1950.0000  1950.0000     7.3722    35.7434     0.2703  1950.0000  1950.0000     2.9333    13.0960     0.2804  1950.0000  1950.0000     7.6237   167.4106     2.8883     0.2780 -9999.9999  3496.0430  6777.3960   100.3294     0.0000    89.3750    89.3750    90.4639     0.0000    85.7578   357.4805    85.5866     0.0240     0.0255     0.1743     0.0000    -0.0002     0.0273  -999.2500     2.5000     2.5889     0.2334     0.0000  2936.0000     0.0270     0.0573
   7953.0000     0.2731  1950.0000  1950.0000     7.2724    34.6003     0.2664  1950.0000  1950.0000     2.9132    13.4389     0.2769  1950.0000  1950.0000     7.5000   283.1480     2.9604     0.2749 -2050.0979  3446.4014  6758.2510   100.3294     0.0000    78.7500    78.7500    90.3030     0.0000    83.2126   357.5536    81.5146     0.0273     0.0279     0.1743     0.0000     0.0021     0.0260  -999.2500     2.5000     2.7182     0.1806     0.0000  2935.0000     0.0282     0.0603
   7953.5000     0.2726  1950.0000  1950.0000     7.1028    33.7969     0.2681  1950.0000  1950.0000     2.9767    15.5370     0.2749  1950.0000  1950.0000     7.2810   381.4963     3.0263     0.2730 10256.5303  3298.1538  6604.7651   100.3294     0.0000    78.7500    78.7500    94.7844     0.0000    84.0287   357.5628    82.5377     0.0321     0.0312     0.1744     0.0000     0.0040     0.0359  -999.2500     3.1250     2.7655     0.1806     0.0000  2924.0002     0.0319     0.0644
   7954.0000     0.2724  1950.0000  1950.0000     6.9110    33.4407     0.2735  1950.0000  1950.0000     3.0962    18.7996     0.2740  1950.0000  1950.0000     7.0359   342.2026     3.0913     0.2721 10255.1084  3248.7134  6643.3799   100.3294     0.0000    78.7500    78.7500    94.7844     0.0000    86.6592   357.5445    84.3673     0.0327     0.0318     0.1744     0.0000     0.0049     0.0471  -999.2500     3.1250     2.7132     0.1806     0.0000  2927.0002     0.0366     0.0651
   7954.5000     0.2725  1950.0000  1950.0000     6.7373    33.5537     0.2762  1950.0000  1950.0000     3.1836    19.8470     0.2735  1950.0000  1950.0000     6.8204   245.2862     3.1530     0.2719     1.2444  3430.0798  6911.4805   100.3294     0.0000    78.7500    78.7500    90.6320     0.0000    88.7636   357.5536    88.4919     0.0360     0.0333     0.1744     0.0000     0.0076     0.0496  -999.2500     2.8125     2.3327     0.1806     0.0000  2925.0002     0.0374     0.0670
   7955.0000     0.2726  1950.0000  1950.0000     6.6057    34.0635     0.2731  1950.0000  1950.0000     3.2485    17.7247     0.2729  1950.0000  1950.0000     6.6681   168.5382     3.2012     0.2719 -9999.9999  3726.6941  8021.8335   100.3294     0.0000    78.7500    78.7500    90.2609     0.0000    89.2218   357.5171    89.2207     0.0453     0.0325     0.1745     0.0000     0.0090     0.0230  -999.2500     2.5000     2.0479     0.1806     0.0000  2919.0000     0.0337     0.0660
   7955.5000     0.2728  1950.0000  1950.0000     6.5228    34.8242     0.2683  1950.0000  1950.0000     3.3771    15.2676     0.2724  1950.0000  1950.0000     6.5883   117.4201     3.2225     0.2723 -9999.9999  3974.3145  8442.5293   100.3294     0.0000    78.7500    78.7500    90.2609     0.0000    87.9498   357.5468    89.2229     0.0346     0.0387     0.1745     0.0000     0.0062     0.0137  -999.2500     2.5000     1.6446     0.1806     0.0000  2920.0000     0.0286     0.0739
   7956.0000     0.2732  1950.0000  1950.0000     6.4830    35.6626     0.2673  1950.0000  1950.0000     3.4744    12.9415     0.2725  1950.0000  1950.0000     6.5563    81.6614     3.2076     0.2732  6154.0610  4287.6001  7964.4761   100.3294     0.0000    78.7500    78.7500    94.2933     0.0000    86.8639   357.5948    86.8631     0.0331     0.0283     0.1746     0.0000    -0.0004     0.0254  -999.2500     1.8750     1.1331     0.1806     0.0000  2924.0002     0.0250     0.0607
   7956.5000     0.2738  1950.0000  1950.0000     6.4757    36.4353     0.2717  1950.0000  1950.0000     3.3045    10.5657     0.2736  1950.0000  1950.0000     6.5299    57.9940     3.1589     0.2750 10255.8203  4386.5444  7772.9458   100.3294     0.0000    78.7500    78.7500    94.2933     0.0000    85.3375   357.6451    85.5915     0.0206     0.0190     0.1746     0.0000    -0.0063     0.0256  -999.2500     1.2500     0.1018     0.1806     0.0000  2927.0002     0.0215     0.0492
   7957.0000     0.2747  1950.0000  1950.0000     6.4926    37.0654     0.2779  1950.0000  1950.0000     3.0174     9.1391     0.2759  1950.0000  1950.0000     6.4895    43.8894     3.0895     0.2775 10255.8203  4328.7290  7696.3652   100.3294     0.0000    92.0313    92.0313    92.7359     0.0000    84.3196   357.6131    85.0843     0.0226     0.0187     0.1746     0.0000    -0.0037     0.0182  -999.2500     0.3125    -0.5601     0.2447     0.0000  2930.0000     0.0204     0.0487
   7957.5000     0.2760  1950.0000  1950.0000     6.5320    37.5327     0.2817  1950.0000  1950.0000     2.8857     9.0190     0.2789  1950.0000  1950.0000     6.4620    36.5844     3.0143     0.2805 -9999.9999  3875.3308  7791.9204   100.3294     0.0000   105.3125   105.3125    94.9218     0.0000    82.1447   357.5811    82.5364     0.0124     0.0276     0.1747     0.0000    -0.0033     0.0165  -999.2500    -1.2500    -1.2491     0.2927     0.0000  2932.0000     0.0239     0.0599
   7958.0000     0.2774  1950.0000  1950.0000     6.5949    37.8386     0.2838  1950.0000  1950.0000     2.8952     9.5945     0.2823  1950.0000  1950.0000     6.4971    34.1542     2.9399     0.2839 -9999.9999  3792.9141  6815.6865   100.3294     0.0000   105.3125   105.3125    94.9218     0.0000    80.7661   357.6085    79.0676     0.0171     0.0211     0.1747     0.0000    -0.0046     0.0407  -999.2500    -2.5000    -2.6237     0.2927     0.0000  2937.0000     0.0228     0.0517
   7958.5000     0.2790  1950.0000  1950.0000     6.6802    37.9929     0.2869  1950.0000  1950.0000     2.9414    10.1245     0.2859  1950.0000  1950.0000     6.6141    35.0262     2.8631     0.2871 -2050.3105  4370.0537  7428.4053   100.3294     0.0000   105.3125   105.3125    95.4220     0.0000    80.4608   357.6176    80.6944     0.0205     0.0137     0.1748     0.0000    -0.0063     0.0199  -999.2500    -3.1250    -3.2498     0.2927     0.0000  2941.0000     0.0212     0.0427
   7959.0000     0.2803  1950.0000  1950.0000     6.7817    38.0309     0.2909  1950.0000  1950.0000     2.9619    10.2263     0.2894  1950.0000  1950.0000     6.7733    37.3814     2.7770     0.2901 10255.8203  3941.2937  7524.0586   100.3294     0.0000   108.2617   108.2617    93.2182     0.0000    82.3796   357.6725    81.3144     0.0205     0.0215     0.1749     0.0000    -0.0084     0.0131  -999.2500    -4.3750    -3.7863     0.3017     0.0000  2959.0000     0.0167     0.0522
   7959.5000     0.2813  1950.0000  1950.0000     6.8926    38.0285     0.2956  1950.0000  1950.0000     2.8270     9.1867     0.2922  1950.0000  1950.0000     6.9068    38.6522     2.6818     0.2923 10254.7529  4386.3291  7332.6064   100.3294     0.0000   114.1602   114.1602    93.2182     0.0000    84.5196   357.6223    83.3001     0.0189     0.0169     0.1749     0.0000    -0.0070     0.0240  -999.2500    -5.0000    -4.1995     0.3184     0.0000  2961.0000     0.0186     0.0465
   7960.0000     0.2818  1950.0000  1950.0000     7.0133    38.0806     0.3003  1950.0000  1950.0000     2.5501     7.5454     0.2938  1950.0000  1950.0000     6.9893    37.8008     2.5879     0.2934     1.0665  4386.5444  7810.8530   100.3294     0.0000   117.1094   117.1094    92.4869     0.0000    86.3842   357.6360    85.5875     0.0101     0.0158     0.1750     0.0000    -0.0080     0.0192  -999.2500    -5.6250    -4.7552     0.3261     0.0000  2965.0000     0.0203     0.0453
   7960.5000     0.2820  1950.0000  1950.0000     7.1534    38.2381     0.3002  1950.0000  1950.0000     2.3416     6.5800     0.2940  1950.0000  1950.0000     7.0788    36.8715     2.5106     0.2935 -9999.9999  4106.2012  7600.6392   100.3294     0.0000    72.5000    72.5000    91.8489     0.0000    85.8231   357.6542    87.1808     0.0319     0.0258     0.1750     0.0000    -0.0076     0.0206  -999.2500    -5.6250    -4.8541     0.1422     0.0000  2963.0000     0.0158     0.0576
