~Version
 VERS              .         2.0                           : CWLS LOG ASCII STANDARD - VERSION 2.0
 WRAP              .         NO                            : ONE LINE PER DEPTH STEP
 DLM               .         SPACE                         : DELIMITING CHARACTER(SPACE TAB OR COMMA)
~Well Information
#_______________________________________________________________________________
#
#PARAMETER_NAME    .UNIT     VALUE                         : DESCRIPTION
#_______________________________________________________________________________
STRT               .ft       7493                          : First reference value
STOP               .ft       9543.25                       : Last reference value
STEP               .ft       0.25                          : Step increment
NULL               .         -9999                         : Missing value
COMP               .         University Of Utah            : Company
WELL               .         FORGE 78B-32                  : Well name
FLD                .         None                          : Field
LOC                .                                       : Location
CNTY               .         Beaver                        : County
STAT               .         Utah                          : State
CTRY               .         USA                           : Country
SRVC               .         Schlumberger                  : Service Company
DATE               .         19-Jul-2021                   : Date
API                .         NRC 42-00090-03               : API number
APD                .ft       29.5                          : Elevation of Depth Reference (LMF) Above Permanent Datum
BHS                .         OPEN                          : Borehole Status (Open or Cased Hole)
BHT                .degF     320.87                        : Bottom Hole Temperature
BLI                .ft       -999.25                       : Bottom Log Interval
BS                 .in       8.75                          : Bit Size
CBDR               .ft       2989                          : Casing Bottom of Driller
CBLO               .ft       2988                          : Logger Casing Shoe Depth
CSIZ               .in       11.75                         : Current Casing Size
CWEI               .lbm/ft   54                            : Casing Weight
DCS                .         19-Jul-2021                   : Date Circulation Stopped
DFD                .lbm/gal  8.3                           : Drilling Fluid Density
DFT                .         WATER                         : Drilling Fluid Type
DLAB               .         19-Jul-2021                   : Date Logger At Bottom
EDF                .ft       5536                          : Elevation of Drill Floor
EGL                .ft       5536                          : Elevation of Ground Level
EKB                .ft       5565.5                        : Elevation of Kelly Bushing
EPD                .ft       5536                          : Elevation of Permanent Datum (PDAT) above Mean Sea Level
LMF                .         KB                            : Logging Measured From (Name of Logging Elevation Reference)
LUL                .         F.Morgan                      : Logging Unit Location
LUN                .         9108                          : Logging Unit Number
LATI               .         38.500171 degrees             : Latitude
LONG               .         -112.88221 degrees            : Longitude
MCST               .degF     68                            : Mudcake Sample Temperature
MFST               .degF     68                            : Mud Filtrate Sample Temperature
MRT                .degF     321.43                        : Maximum Recorded Temperature
MST                .degF     68                            : Mud Sample Temperature
ORIGINALWELLNAME   .         FORGE 78B-32                  : 
PDAT               .         GL                            : Permanent Datum
PRODUCER-CODE      .         440                           : 
PRODUCER-NAME      .         Schlumberger                  : 
RMB                .ohm.m    0.04564156                    : Resistivity of Mud at Bottom Hole Temperature
RMCS               .ohm.m    -999.25                       : Resistivity of Mud Cake Sample
RMFS               .ohm.m    0.15                          : Resistivity of Mud Filtrate Sample
RMS                .ohm.m    0.2                           : Resistivity of Mud Sample
RUN                .         1A                            : Run Number
TCS                .         03_00_00                      : Time Circulation Stopped
TDD                .ft       8540                          : Driller Total Depth
TDL                .ft       8540                          : Logger Total Depth
TLAB               .         07_53_00                      : Time Logger At Bottom
TLI                .ft       -999.25                       : Top Log Interval
~Parameter Information Block
#_______________________________________________________________________________
#
#PARAMETER_NAME    .UNIT     VALUE                         : DESCRIPTION
#_______________________________________________________________________________
SET                .         QSLT                          : 
TLFamily_AT10      .         Resistivity - Induction Array 10: 
TLFamily_AT20      .         Resistivity - Induction Array 20: 
TLFamily_AT30      .         Resistivity - Induction Array 30: 
TLFamily_AT60      .         Resistivity - Induction Array 60: 
TLFamily_AT90      .         Resistivity - Induction Array 90: 
TLFamily_BS        .         Bit Size                      : 
TLFamily_DTCO_FINAL .         Compressional Slowness        : 
TLFamily_DTSH_FINAL .         Shear Slowness                : 
TLFamily_GR_STGC   .         Gamma Ray                     : 
TLFamily_HDAR      .         Borehole Diameter             : 
TLFamily_PR        .         Poisson Ratio (Dynamic)       : 
TLFamily_SPHI      .         Total Porosity                : 
TLFamily_TDEP      .         Measured Depth                : 
TLFamily_TENS      .         Tension                       : 
TLFamily_TNPH      .         Thermal Neutron Porosity      : 
TLFamily_VPVS      .         VpVs (Compressional To Shear) Ratio: 
~Curve Information
#_______________________________________________________________________________
#
#LOGNAME           .UNIT     LOG_ID                        : DESCRIPTION
#_______________________________________________________________________________
TDEP               .ft                                     : Measured Depth 
AT10               .ohm.m                                  : Array Induction Two Foot Resistivity A10 
AT20               .ohm.m                                  : Array Induction Two Foot Resistivity A20 
AT30               .ohm.m                                  : Array Induction Two Foot Resistivity A30 
AT60               .ohm.m                                  : Array Induction Two Foot Resistivity A60 
AT90               .ohm.m                                  : Array Induction Two Foot Resistivity A90 
BS                 .in                                     : Bit Size 
DTCO_FINAL         .us/ft                                  : Compressional Slowness 
DTSH_FINAL         .us/ft                                  : Shear Slowness 
GR_STGC            .gAPI                                   : Gamma Ray 
HDAR               .in                                     : Hole Diameter from Area 
PR                 .unitless                               : Possion's Ratio 
SPHI               .ft3/ft3                                : Total porosity from Sonic 
TENS               .lbf                                    : Cable Tension 
TNPH               .ft3/ft3                                : Thermal Neutron Porosity (Ratio Method) in Selected Lithology 
VPVS               .unitless                               : VpVs Ratio 
~Ascii
# ...
7631       0.2711664  1950       1950       5.4494     19.85971   10.625     56.43537   94.25214   56.32742   10.625     0.2205456  0.06314748 3760       0.04073225 1.67009   
7631.25    0.2690408  1950       1950       5.490532   20.61968   10.625     56.42972   94.25715   58.4925    10.625     0.220679   0.06310755 3756.833   0.04243772 1.670346  
7631.5     0.2670606  1950       1950       5.566477   22.0121    10.625     56.37961   94.2464    60.65758   10.625     0.2213521  0.06275344 3753.667   0.0441432  1.67164   
7631.75    0.2653986  1950       1950       5.67142    24.05842   10.625     56.29891   94.20383   62.7776    10.625     0.2222015  0.06218312 3764.708   0.04243246 1.67328   
7632       0.2642128  1950       1950       5.79685    26.77021   10.625     56.21168   94.14466   64.89763   10.625     0.222997   0.06156665 3775.75    0.04072173 1.674824  
7632.25    0.2636346  1950       1950       5.933024   30.12929   10.625     56.13768   94.1041    68.60329   10.625     0.2237587  0.06104368 3781.542   0.04023398 1.676309  
7632.5     0.2637644  1950       1950       6.070099   34.0626    10.625     56.08191   94.11134   72.30896   10.625     0.2246753  0.06064951 3787.333   0.03974622 1.678105  
7632.75    0.264669   1950       1950       6.198574   38.27809   10.625     56.03369   94.16891   74.86496   10.625     0.225928   0.06030877 3793.167   0.04116865 1.680577  
7633       0.2663712  1950       1950       6.309466   42.24086   10.625     55.97929   94.25016   77.42095   10.625     0.2274782  0.05992429 3799       0.04259107 1.683661  
7633.25    0.2688379  1950       1950       6.394759   45.27279   10.625     55.91392   94.31593   78.75122   10.625     0.2290434  0.05946232 3807.5     0.04354803 1.686806  
7633.5     0.2719744  1950       1950       6.448304   46.76527   10.625     55.84433   94.33508   80.0815    10.625     0.2302499  0.05897056 3816       0.044505   1.689251  
7633.75    0.2756309  1950       1950       6.4668     46.48374   10.625     55.78195   94.30128   78.86655   10.625     0.2308796  0.05852969 3810.333   0.04338879 1.690534  
7634       0.2796178  1950       1950       6.450841   44.79113   10.625     55.73343   94.23869   77.65159   10.625     0.2310504  0.05818675 3804.667   0.04227258 1.690883  
7634.25    0.2837244  1950       1950       6.406079   42.24525   10.625     55.70058   94.19193   76.19724   10.625     0.2311275  0.05795461 3804.708   0.04082503 1.69104   
7634.5     0.2877338  1950       1950       6.343776   39.48005   10.625     55.68371   94.20309   74.7429    10.625     0.2314757  0.05783539 3804.75    0.03937749 1.691753  
7634.75    0.2914332  1950       1950       6.279454   37.03579   10.625     55.68671   94.28717   72.89722   10.625     0.2321664  0.05785664 3808.208   0.04138545 1.693172  
7635       0.2946265  1950       1950       6.229663   35.27534   10.625     55.71546   94.42159   71.05154   10.625     0.2329124  0.05805977 3811.667   0.04339341 1.694711  
7635.25    0.2971482  1950       1950       6.208646   34.39427   10.625     55.77058   94.56216   70.36099   10.625     0.2333207  0.05844936 3800.833   0.04537643 1.695556  
7635.5     0.298877   1950       1950       6.226248   34.54453   10.625     55.8429    94.6754    69.67046   10.625     0.2332397  0.05896042 3790       0.04735946 1.695388  
7635.75    0.2997474  1950       1950       6.286918   35.88174   10.625     55.9155    94.7592    69.47708   10.625     0.2329003  0.05947348 3795.167   0.04598367 1.694686  
7636       0.2997612  1950       1950       6.388807   38.61192   10.625     55.97375   94.83363   69.28371   10.625     0.2326902  0.05988519 3800.334   0.04460788 1.694252  
7636.25    0.2989934  1950       1950       6.522898   43.08231   10.625     56.01324   94.91315   70.78445   10.625     0.2327993  0.06016427 3793.667   0.04696831 1.694477  
7636.5     0.2975811  1950       1950       6.673258   49.84069   10.625     56.03956   94.9929    72.28519   10.625     0.2331025  0.06035026 3787       0.04932875 1.695104  
7636.75    0.2956959  1950       1950       6.819702   59.6605    10.625     56.06095   95.06017   73.06405   10.625     0.2333694  0.06050142 3779.625   0.04829556 1.695657  
7637       0.2935121  1950       1950       6.942896   73.61891   10.625     56.08112   95.10644   73.84291   10.625     0.2334733  0.06064393 3772.25    0.04726239 1.695873  
7637.25    0.2911793  1950       1950       7.029903   93.07523   10.625     56.09784   95.12407   73.60062   10.625     0.2333811  0.06076209 3763.625   0.04917365 1.695682  
7637.5     0.2887985  1950       1950       7.077434   120.0329   10.625     56.10309   95.10107   73.35833   10.625     0.2331067  0.06079921 3755       0.05108491 1.695113  
7637.75    0.2864082  1950       1950       7.091271   156.4032   10.625     56.08792   95.02583   72.28474   10.625     0.2326796  0.06069205 3747.333   0.048299   1.69423   
7638       0.2839925  1950       1950       7.082678   203.6351   10.625     56.04573   94.88892   71.21114   10.625     0.2321132  0.06039385 3739.667   0.04551309 1.693062  
7638.25    0.2815048  1950       1950       7.063779   261.8568   10.625     55.97627   94.67587   70.05351   10.625     0.2312824  0.05990296 3735.5     0.04615887 1.691357  
7638.5     0.2789062  1950       1950       7.043623   329.3683   10.625     55.88669   94.36809   68.89589   10.625     0.2299105  0.05926991 3731.333   0.04680464 1.688561  
7638.75    0.2762097  1950       1950       7.025939   405.8639   10.625     55.78974   93.97149   69.00323   10.625     0.2278405  0.05858475 3736.5     0.04128312 1.684386  
7639       0.273508   1950       1950       7.009155   487.6609   10.625     55.70233   93.54221   69.11059   10.625     0.2252937  0.05796701 3741.667   0.03576161 1.679323  
7639.25    0.2709684  1950       1950       6.988733   566.4816   10.625     55.64244   93.17432   69.19873   10.625     0.2228402  0.05754375 3726.333   0.03321446 1.674519  
7639.5     0.2688059  1950       1950       6.960686   631.127    10.625     55.62249   92.95621   69.28688   10.625     0.2211228  0.05740276 3711       0.03066732 1.671198  
7639.75    0.2672428  1950       1950       6.924359   672.1514   10.625     55.64104   92.93038   71.05505   10.625     0.220591   0.05753383 3716       0.03177964 1.670177  
7640       0.2664691  1950       1950       6.883066   697.4175   10.625     55.68129   93.08213   72.82322   10.625     0.2213807  0.05781833 3721       0.03289197 1.671695  
7640.25    0.2666105  1950       1950       6.842726   719.9907   10.625     55.72148   93.35299   73.9716    10.625     0.2232674  0.05810231 3723       0.03620505 1.67535   
7640.5     0.2677069  1950       1950       6.809594   742.8781   10.625     55.7514    93.66684   75.11999   10.625     0.2256772  0.05831381 3725       0.03951813 1.68008   
7640.75    0.2696919  1950       1950       6.787858   764.8988   10.625     55.7789    93.95576   76.21419   10.625     0.2278631  0.05850815 3727.167   0.04132886 1.684432  
7641       0.2723727  1950       1950       6.777515   784.6315   10.625     55.82071   94.17722   77.3084    10.625     0.2292077  0.0588036  3729.333   0.0431396  1.687138  
7641.25    0.2754302  1950       1950       6.772937   793.4233   10.625     55.88804   94.31633   77.44142   10.625     0.2294334  0.05927942 3740.5     0.04351244 1.687594  
7641.5     0.2784514  1950       1950       6.762889   768.7242   10.625     55.97745   94.37756   77.57444   10.625     0.22864    0.05991129 3751.667   0.04388528 1.685992  
7641.75    0.2809909  1950       1950       6.732883   689.6229   10.625     56.07175   94.37676   77.98256   10.625     0.2272187  0.06057772 3747.5     0.0434223  1.683143  
7642       0.2826401  1950       1950       6.66968    562.8248   10.625     56.14933   94.33235   78.39069   10.625     0.2256498  0.06112603 3743.334   0.04295932 1.680026  
7642.25    0.283089   1950       1950       6.566106   424.8802   10.625     56.1937    94.2617    77.93288   10.625     0.2243377  0.0614396  3751.792   0.04233838 1.677442  
