~VERSION INFORMATION
VERS.           1.2   :CWLS Log ASCII Standard - VERSION 1.2
WRAP.           NO    :One Line per depth step
PROD.  Schlumberger   :LAS Producer
PROG.  DLIS to ASCII 2.3                               :LAS Program name and version
CREA.        2021/07/30 13:36                          :LAS Creation date {YYYY/MM/DD hh:mm}
DLIS_CREA.  2021-Jul-30 07:07                          :DLIS Creation date and time {YYYY-MMM-DD hh:mm}
SOURCE.     dc707e3c-4962-4d77-8314-dc20fe7b42b8       :DLIS File Name
#--------------------------------------------------
~WELL INFORMATION
#MNEM.UNIT      DATA             DESCRIPTION
#---- ------ --------------   -----------------------------
STRT .F        8616.5000     :START DEPTH     
STOP .F        9518.5000     :STOP DEPTH     
STEP .F           0.5000       :STEP     
NULL .          -999.25      :NULL VALUE
COMP .                 COMPANY:  University Of Utah                 
WELL .                    WELL:  FORGE 78B-32                       
FLD  .                   FIELD:  None                               
LOC  .                LOCATION:  Lat: 38.500171, Long: -112.88221   
CNTY .                  COUNTY:  Beaver                             
STAT .                   STATE:  Utah                               
CTRY .                 COUNTRY:                                     
SRVC .         SERVICE COMPANY:  Schlumberger                       
LATI .DEG             LATITUDE:  38 30' 0.616" N                   
LONG .DEG            LONGITUDE:  112 52' 55.956" W                 
API  .              API NUMBER:  NRC 42-00090-03                    
DATE .                LOG DATE:  30-Jul-2021
UWI  .          UNIQUE WELL ID:                                     
#-----------------------------------------------------------------------------
~PARAMETER INFORMATION
#MNEM.UNIT    VALUE                      DESCRIPTION
#---- -----   --------------------       ------------------------
CN   .        University Of Utah         :Company Name
WN   .        FORGE 78B-32               :Well Name
FN   .        None                       :Field Name
FL   .        Lat  38.500171  Long  -112.88221 :Field Location
FL1  .                                   :Field Location, Line 1
COUN .        Beaver                     :County or Parish
STAT .        Utah                       :State or Province
NATI .                                   :Nation
DATE .        30-Jul-2021                :Tools Above Rotary Table Date
APIN .        NRC 42-00090-03            :API Well Number
SECT .                                   :Section
TOWN .                                   :Township
RANG .                                   :Range
DMF  .        KB                         :Drilling Measured From (Name of Drilling Elevation Reference)
LMF  .        KB                         :Logging Measured From (Name of Logging Elevation Reference)
PDAT .        GL                         :Permanent Datum
ENGI .        CSTILES                    :Engineer s Name
WITN .        Virgil  Welch              :Witness s Name
LATI .        38� 30' 0.616  N           :Latitude
LONG .        112� 52' 55.956  W         :Longitude
LUL  .        F.Morgan                   :Logging Unit Location
LUN  .        9108                       :Logging Unit Number
RUN  .        1B                         :Run Number
SON  .                                   :Service Order Number
BHT  .DEGF     419.00000                 :Bottom Hole Temperature
BS   .IN         5.75000                 :Bit Size
MDEN .G/C3       2.71000                 :Matrix Density for Density Porosity
DFD  .LB/G       8.30000                 :Drilling Fluid Density
DFV  .S         24.00000                 :Drilling Fluid Viscosity
DFL  .C3      -999.25000                 :Drilling Fluid Loss
RMFS .OHMM       4.42000                 :Resistivity of Mud Filtrate Sample
EKB  .F       5565.50000                 :Elevation of Kelly Bushing
EGL  .F       5536.00000                 :Elevation of Ground Level
BLI  .F       9532.00000                 :Bottom Log Interval
BSAL .PPM      700.00000                 :Borehole Salinity
FLEV .F          8.00000                 :Depth of Drilling Fluid Level to LMF (Log Measured From)
MCST .DEGF      62.00000                 :Mudcake Sample Temperature
MFST .DEGF      62.00000                 :Mud Filtrate Sample Temperature
MRT  .DEGF     419.00000                 :Maximum Recorded Temperature
MST  .DEGF      62.00000                 :Mud Sample Temperature
RMCS .OHMM       6.21000                 :Resistivity of Mud Cake Sample
RMS  .OHMM       5.20000                 :Resistivity of Mud Sample
RW   .OHMM       1.00000                 :Connate Water Resistivity
TDD  .F       9500.00000                 :Driller Total Depth
TDL  .F       9532.00000                 :Logger Total Depth
TLI  .F       8530.00000                 :Top Log Interval
HIDE .                                   :Header Identifier
MATR .        LIME                       :Rock Matrix for Neutron Porosity Corrections
FNUM .           1.00000                 :F-Numerator for Formation Factor Formula
FEXP .           2.00000                 :Exponent "m" for Formation Factor Formula
DFT  .        WATER                      :Drilling Fluid Type
DFPH .          11.00000                 :Drilling Fluid pH
MCSS .        Calculated                 :Mudcake Sample Source
MFSS .        Calculated                 :Mud Filtrate Sample Source
FD   .G/C3       1.00000                 :Fluid Density
MSS  .        Flowline                   :Mud Sample Source
OS1  .                                   :Other Services Line 1
OS2  .                                   :Other Services Line 2
OS3  .                                   :Other Services Line 3
OS4  .                                   :Other Services Line 4
OS5  .                                   :Other Services Line 5
R1   .                                   :Remarks Line 1
R2   .                                   :Remarks Line 2
R3   .                                   :Remarks Line 3
R4   .                                   :Remarks Line 4
R5   .                                   :Remarks Line 5
R6   .        Tool was run as per tool sketch :Remarks Line 6
R7   .        All logging intervals as per client request :Remarks Line 7
R8   .                                   :Remarks Line 8
TCS  .        20 00 00                   :Time Circulation Stopped
TLAB .        02 17 00                   :Time Logger At Bottom
NMT  .        NOBARITE                   :HRDD Mud Type for Nuclear Devices
EPD  .C3         5536.000000             :Elevation of Permanent Datum above Mean Sea Level
APD  .F          29.500000               :Elevation of Depth Reference (LMF) above Permanent Datum
#-----------------------------------------------------------------------------
~CURVE INFORMATION
#MNEM.UNIT   API CODE                                  DESCRIPTION
#---- -----  --------                                  -----------------------
DEPT .F                                                :DEPTH (BOREHOLE) {F12.4}
AF10 .OHMM                                             :Array Induction Four Foot Resistivity A10 {F11.4}
AF20 .OHMM                                             :Array Induction Four Foot Resistivity A20 {F11.4}
AF30 .OHMM                                             :Array Induction Four Foot Resistivity A30 {F11.4}
AF60 .OHMM                                             :Array Induction Four Foot Resistivity A60 {F11.4}
AF90 .OHMM                                             :Array Induction Four Foot Resistivity A90 {F11.4}
AO10 .OHMM                                             :Array Induction One Foot Resistivity A10 {F11.4}
AO20 .OHMM                                             :Array Induction One Foot Resistivity A20 {F11.4}
AO30 .OHMM                                             :Array Induction One Foot Resistivity A30 {F11.4}
AO60 .OHMM                                             :Array Induction One Foot Resistivity A60 {F11.4}
AO90 .OHMM                                             :Array Induction One Foot Resistivity A90 {F11.4}
AT10 .OHMM                                             :Array Induction Two Foot Resistivity A10 {F11.4}
AT20 .OHMM                                             :Array Induction Two Foot Resistivity A20 {F11.4}
AT30 .OHMM                                             :Array Induction Two Foot Resistivity A30 {F11.4}
AT60 .OHMM                                             :Array Induction Two Foot Resistivity A60 {F11.4}
AT90 .OHMM                                             :Array Induction Two Foot Resistivity A90 {F11.4}
AORT .OHMM                                             :Array Induction One Foot Rt {F11.4}
AORX .OHMM                                             :Array Induction One Foot Rxo {F11.4}
CDF  .LBF                                              :Calibrated Downhole Force {F11.4}
CFTC .HZ                                               :Corrected Far Thermal Count Rate {F11.4}
CNTC .HZ                                               :Corrected Near Thermal Count Rate {F11.4}
CTEM .DEGF                                             :Cartridge Temperature {F11.4}
DCAL .IN                                               :Differential Caliper {F11.4}
DT   .US/F                                             :Delta-T (also called Slowness or Interval Transit Time) {F11.4}
DTCO .US/F                                             :Delta-T Compressional {F11.4}
DTSM .US/F                                             :Delta-T Shear {F11.4}
ED   .F                                                :East Departure {F11.4}
GR_STGC.GAPI                                           :Gamma Ray {F11.4}
GTEM .DEGF                                             :Generalized Borehole Temperature {F11.4}
HGR_STGC.GAPI                                          :High Resolution Gamma Ray {F11.4}
HNPO .CFCF                                             :High Resolution Enhanced Thermal Neutron Porosity in Selected Lithology {F11.4}
HTNP .CFCF                                             :High Resolution Thermal Neutron Porosity (Ratio Method) in Selected Lithology {F11.4}
ITT  .S                                                :Integrated Transit Time {F11.4}
ND   .F                                                :North Departure {F11.4}
NPHI .CFCF                                             :Thermal Neutron Porosity (original Ratio Method) in Selected Lithology {F11.4}
NPOR .CFCF                                             :Enhanced Thermal Neutron Porosity in Selected Lithology {F11.4}
PR   .                                                 :Poisson s Ratio {F11.4}
SP   .MV                                               :Spontaneous Potential {F11.4}
SPAR .MV                                               :SP, Armor Return Compensated {F11.4}
SPHI .CFCF                                             :Sonic Porosity {F11.4}
STIT .F                                                :Stuck Tool Indicator, Total {F11.4}
TENS .LBF                                              :Cable Tension {F11.4}
TNPH .CFCF                                             :Thermal Neutron Porosity (Ratio Method) in Selected Lithology {F11.4}
HTNP_SAN.CFCF                                          :HiRes Thermal Neutron Porosity (matrix Sandstone) {F11.4}
#-----------------------------------------------------------------------------
# 
#      DEPT        AF10       AF20       AF30       AF60       AF90       AO10       AO20       AO30       AO60       AO90       AT10       AT20       AT30       AT60       AT90       AORT       AORX       CDF        CFTC       CNTC       CTEM       DCAL        DT        DTCO       DTSM        ED      GR_STGC      GTEM     HGR_STGC     HNPO       HTNP       ITT         ND        NPHI       NPOR        PR         SP        SPAR       SPHI       STIT       TENS       TNPH     HTNP_SAN
#
~A  
# ...
   8795.0000  1950.0000    71.3881   423.1999  1950.0000  1840.7679  1950.0000    75.4907   486.3727  1198.1852  1119.7146  1950.0000    90.4906   459.4699  1562.9695  1950.0000   668.4607  1758.0970 -9627.4541 14132.6582 19354.6426   116.1412     0.0000    90.6543    90.6543    91.0539     0.0000   200.7658   394.6382   200.2039     0.0041     0.0085     0.0127     0.0000     0.0104    -0.0016  -999.2500    23.1250    23.1563     0.2389     0.0000  3193.3333     0.0062     0.0364
   8795.5000  1950.0000    68.8093   426.4943  1950.0000  1734.8499  1950.0000   103.1842   682.3382  1239.5984  1076.0728  1950.0000    89.1574   459.0348  1500.4827  1950.0000   598.7505  1696.5642 -9684.3525 14642.9395 18207.1641   116.1412     0.0000    69.1309    69.1309    91.0606     0.0000   201.1742   394.6704   201.8268     0.0006     0.0052     0.0127     0.0000     0.0096     0.0084     0.2561    23.1250    22.9611     0.1187     0.0000  3202.5000     0.0060     0.0324
   8796.0000  1950.0000    66.5509   420.7233  1929.3701  1606.4393  1950.0000   117.9757   623.0318   409.1875   370.9304  1950.0000    84.9529   418.9264  1306.7351  1950.0000   400.9015  1559.4061 -9654.5508 13917.8555 17459.3809   116.1412     0.0000    51.5625    51.5625    91.1810     0.0000   202.1358   394.6842   200.5131     0.0080     0.0053     0.0127     0.0000     0.0085     0.0170     0.2649    22.5000    22.8124    -0.0538     0.0000  3193.5002     0.0061     0.0325
   8796.5000  1950.0000    64.1217   406.2822  1879.3539  1465.6115  1950.0000    93.2099   486.8757   662.3914   562.0652  1950.0000    79.3924   412.3162  1392.0898  1950.0000   333.3872  1820.1584 -9624.4521 14008.4912 18350.2090   116.1412     0.0000    50.7813    50.7813    91.2345     0.0000   202.2721   394.6981   201.3125     0.0050     0.0064     0.0128     0.0000     0.0096     0.0085     0.2756    22.5000    22.6207    -0.0642     0.0000  3214.0000     0.0072     0.0339
   8797.0000  1950.0000    61.5548   396.1244  1811.5400  1355.4097  1950.0000    77.7675   434.5837   477.8498   404.3828  1950.0000    73.9278   384.0675  1354.3801  1950.0000   265.9275  1842.3352 -9621.2129 14209.8574 18522.4180   116.1412     0.0000    50.7813    50.7813    91.1916     0.0000   204.1904   394.6866   204.5938     0.0075     0.0066     0.0128     0.0000     0.0111     0.0077     0.2753    22.5000    22.4619    -0.0642     0.0000  3245.0000     0.0065     0.0341
   8797.5000  1950.0000    58.8097   386.8882  1735.6129  1288.9677  1950.0000    64.2269   479.1466   504.3855   445.8403  1950.0000    67.3123   366.6683  1318.9061  1873.4362   234.5461  1837.7852 -9666.4004 14750.6318 19754.4043   116.1412     0.0000    51.5625    51.5625    91.1117     0.0000   203.2582   394.6797   206.0168     0.0002     0.0065     0.0128     0.0000     0.0123    -0.0036     0.2644    22.5000    22.2537    -0.0538     0.0000  3240.0000     0.0072     0.0340
   8798.0000  1950.0000    56.5358   388.3028  1660.7760  1289.1387  1950.0000    59.9490   488.2589   409.3653   375.2794  1950.0000    63.5505   368.0904  1272.1990  1736.3732   218.9012  1762.7838 -9701.3975 13851.8330 19039.4219   116.1412     0.0000    51.2500    51.2500    91.0486     0.0000   200.3811   394.7578   201.6175     0.0115     0.0096     0.0128     0.0000     0.0114     0.0118     0.2681    21.8750    22.0855    -0.0579     0.0000  3218.0000     0.0092     0.0376
   8798.5000  1950.0000    54.6617   398.4952  1590.5476  1308.6617  1950.0000    62.3679   511.2329   347.0741   324.4554  1950.0000    61.6054   378.8797  1188.6254  1555.2379   208.5415  1640.0502 -9641.3379 14347.1094 18053.3945   116.1412     0.0000    56.8750    56.8750    90.9195     0.0000   194.4232   394.7717   196.3467     0.0190     0.0072     0.0129     0.0000     0.0147     0.0259     0.1786    21.8750    21.8313     0.0096     0.0000  3217.5000     0.0111     0.0348
   8799.0000  1950.0000    53.4019   423.0487  1531.5612  1319.1075  1950.0000    63.3305   591.6212   343.9733   323.7881  1950.0000    60.1512   401.0231  1076.8630  1394.9806   205.2103  1562.8365 -9633.8525 13818.4492 20964.1836   116.1412     0.0000    69.8047    69.8047    90.8114     0.0000   188.3042   394.7394   189.7233    -0.0007     0.0134     0.0129     0.0000     0.0139    -0.0101  -999.2500    21.8750    21.6580     0.1236     0.0000  3238.0000     0.0095     0.0422
   8799.5000  1950.0000    52.4587   465.2411  1505.4547  1339.8956  1950.0000    60.4201   611.6260   312.6165   293.1451  1950.0000    57.1776   425.9217   945.4403  1256.8269   213.6896  1507.6519 -9623.8740 14083.1172 18761.1777   116.1412     0.0000    70.9375    70.9375    90.9970     0.0000   182.8973   394.7854   181.5009     0.0134     0.0109     0.0129     0.0000     0.0152     0.0120  -999.2500    21.2500    21.4344     0.1316     0.0000  3224.0000     0.0099     0.0393
   8800.0000  1950.0000    51.1700   533.0801  1517.5084  1360.3157  1950.0000    58.7322   608.0815   323.0268   304.1102  1950.0000    56.8761   471.6770   893.1727  1216.0950   213.9653  1325.7771 -9660.6338 13901.3789 18436.8145   116.1412     0.0000    64.5313    64.5313    90.9970     0.0000   180.0546   394.8176   179.8757     0.0098     0.0084     0.0130     0.0000     0.0118     0.0158     0.0741    21.2500    21.2642     0.0826     0.0000  3190.0000     0.0099     0.0362
   8800.5000  1950.0000    49.7366   638.0540  1588.0021  1424.8650  1950.0000    56.0208   802.1949   394.8701   373.5245  1950.0000    54.7953   545.3113   867.2694  1220.6333   228.2464  1243.4785 -9646.4932 13851.9229 18465.0938   116.1412     0.0000    63.1250    63.1250    91.1580     0.0000   177.9348   394.8314   179.5071     0.0034     0.0083     0.0130     0.0000     0.0106     0.0056     0.0393    21.2500    20.9983     0.0705     0.0000  3175.0000     0.0070     0.0361
   8801.0000  1950.0000    48.4296   801.8059  1689.5132  1537.2223  1950.0000    54.8102   975.1058   466.6084   442.9000  1950.0000    54.3699   700.6772   963.2382  1320.9467   217.5604  1460.5138 -9644.9131 14264.5146 18091.7637   116.1412     0.0000    63.1250    63.1250    91.1619     0.0000   172.0817   394.8245   176.4471     0.0028     0.0062     0.0130     0.0000     0.0124     0.0077     0.0394    20.9375    20.8424     0.0705     0.0000  3200.5000     0.0080     0.0336
   8801.5000  1950.0000    46.7996  1024.2473  1794.3602  1664.2874  1950.0000    51.5917  1045.2628   426.4372   402.2819  1950.0000    52.4437   935.0654  1129.4735  1495.3784   234.0178  1329.7178 -9677.6875 12631.5537 17977.3301   116.1412     0.0000    63.1250    63.1250    91.2564     0.0000   163.2326   394.8360   162.4666     0.0122     0.0133     0.0131     0.0000     0.0128     0.0058     0.0412    20.6250    20.5525     0.0705     0.0000  3219.0000     0.0087     0.0421
   8802.0000  1950.0000    44.2957  1292.6278  1884.5953  1789.8344  1950.0000    48.5932  1282.9955   494.6017   462.9839  1950.0000    48.6371  1235.3900  1356.0587  1679.0281   221.0513  1337.9147 -9653.6416 12763.9805 17325.8965   116.1412     0.0000    63.1250    63.1250    91.4256     0.0000   154.8226   394.8682   154.1631     0.0067     0.0103     0.0131     0.0000     0.0165     0.0127     0.0445    20.6250    20.4231     0.0705     0.0000  3214.5000     0.0127     0.0386
   8802.5000  1950.0000    41.8320  1564.6654  1943.3074  1889.3883  1950.0000    43.8234  1506.5458   437.9400   411.2966  1950.0000    44.8156  1531.2018  1582.4495  1787.1007   190.2214  1328.8270 -9654.2256 11443.9199 16790.4941   116.1412     0.0000    68.4375    68.4375    91.7243     0.0000   151.7059   394.9418   149.5746     0.0150     0.0148     0.0131     0.0000     0.0179     0.0155  -999.2500    20.0000    20.3173     0.1136     0.0000  3189.0000     0.0144     0.0439
   8803.0000  1950.0000    39.4940  1774.7279  1950.0000  1950.0000  1950.0000    38.5568  1744.4847   374.0641   356.8134  1950.0000    41.2417  1696.8217  1688.2502  1732.2751   147.1713  1631.2747 -9693.6855 10949.6113 16425.6016   116.1412     0.0000    88.3301    88.3301    92.1984     0.0000   151.6771   394.8821   152.4247     0.0129     0.0167     0.0132     0.0000     0.0242     0.0221  -999.2500    20.0000    20.2246     0.2288     0.0000  3181.5000     0.0214     0.0463
