~VERSION INFORMATION
VERS.           1.2   :CWLS Log ASCII Standard - VERSION 1.2
WRAP.           NO    :One Line per depth step
PROD.  Schlumberger   :LAS Producer
PROG.  DLIS to ASCII 2.3                               :LAS Program name and version
CREA.        2021/07/30 13:36                          :LAS Creation date {YYYY/MM/DD hh:mm}
DLIS_CREA.  2021-Jul-30 07:08                          :DLIS Creation date and time {YYYY-MMM-DD hh:mm}
SOURCE.     6d1d3df9-7549-4232-acfc-119b5b71a716       :DLIS File Name
#--------------------------------------------------
~WELL INFORMATION
#MNEM.UNIT      DATA             DESCRIPTION
#---- ------ --------------   -----------------------------
STRT .F      7447.0000       :START DEPTH     
STOP .F      9553.0000       :STOP DEPTH     
STEP .F       0.5000         :STEP       
NULL .          -999.25      :NULL VALUE
COMP .                 COMPANY:  University Of Utah                 
WELL .                    WELL:  FORGE 78B-32                       
FLD  .                   FIELD:  None                               
LOC  .                LOCATION:  Lat: 38.500171, Long: -112.88221   
CNTY .                  COUNTY:  Beaver                             
STAT .                   STATE:  Utah                               
CTRY .                 COUNTRY:                                     
SRVC .         SERVICE COMPANY:  Schlumberger                       
LATI .DEG             LATITUDE:  38 30' 0.616" N                   
LONG .DEG            LONGITUDE:  112 52' 55.956" W                 
API  .              API NUMBER:  NRC 42-00090-03                    
DATE .                LOG DATE:  30-Jul-2021
UWI  .          UNIQUE WELL ID:                                     
#-----------------------------------------------------------------------------
~PARAMETER INFORMATION
#MNEM.UNIT    VALUE                      DESCRIPTION
#---- -----   --------------------       ------------------------
CN   .        University Of Utah         :Company Name
WN   .        FORGE 78B-32               :Well Name
FN   .        None                       :Field Name
FL   .        Lat  38.500171  Long  -112.88221 :Field Location
FL1  .                                   :Field Location, Line 1
COUN .        Beaver                     :County or Parish
STAT .        Utah                       :State or Province
NATI .                                   :Nation
DATE .        30-Jul-2021                :Tools Above Rotary Table Date
APIN .        NRC 42-00090-03            :API Well Number
SECT .                                   :Section
TOWN .                                   :Township
RANG .                                   :Range
DMF  .        KB                         :Drilling Measured From (Name of Drilling Elevation Reference)
LMF  .        KB                         :Logging Measured From (Name of Logging Elevation Reference)
PDAT .        GL                         :Permanent Datum
ENGI .        CSTILES                    :Engineer s Name
WITN .        Virgil  Welch              :Witness s Name
LATI .        38� 30' 0.616  N           :Latitude
LONG .        112� 52' 55.956  W         :Longitude
LUL  .        F.Morgan                   :Logging Unit Location
LUN  .        9108                       :Logging Unit Number
RUN  .        1B                         :Run Number
SON  .                                   :Service Order Number
BHT  .DEGF     419.00000                 :Bottom Hole Temperature
BS   .IN         5.75000                 :Bit Size
MDEN .G/C3       2.71000                 :Matrix Density for Density Porosity
DFD  .LB/G       8.30000                 :Drilling Fluid Density
DFV  .S         24.00000                 :Drilling Fluid Viscosity
DFL  .C3      -999.25000                 :Drilling Fluid Loss
RMFS .OHMM       4.42000                 :Resistivity of Mud Filtrate Sample
EKB  .F       5565.50000                 :Elevation of Kelly Bushing
EGL  .F       5536.00000                 :Elevation of Ground Level
BLI  .F       9532.00000                 :Bottom Log Interval
BSAL .PPM      700.00000                 :Borehole Salinity
FLEV .F          8.00000                 :Depth of Drilling Fluid Level to LMF (Log Measured From)
MCST .DEGF      62.00000                 :Mudcake Sample Temperature
MFST .DEGF      62.00000                 :Mud Filtrate Sample Temperature
MRT  .DEGF     419.00000                 :Maximum Recorded Temperature
MST  .DEGF      62.00000                 :Mud Sample Temperature
RMCS .OHMM       6.21000                 :Resistivity of Mud Cake Sample
RMS  .OHMM       5.20000                 :Resistivity of Mud Sample
RW   .OHMM       1.00000                 :Connate Water Resistivity
TDD  .F       9500.00000                 :Driller Total Depth
TDL  .F       9532.00000                 :Logger Total Depth
TLI  .F       8530.00000                 :Top Log Interval
HIDE .                                   :Header Identifier
MATR .        LIME                       :Rock Matrix for Neutron Porosity Corrections
FNUM .           1.00000                 :F-Numerator for Formation Factor Formula
FEXP .           2.00000                 :Exponent "m" for Formation Factor Formula
DFT  .        WATER                      :Drilling Fluid Type
DFPH .          11.00000                 :Drilling Fluid pH
MCSS .        Calculated                 :Mudcake Sample Source
MFSS .        Calculated                 :Mud Filtrate Sample Source
FD   .G/C3       1.00000                 :Fluid Density
MSS  .        Flowline                   :Mud Sample Source
OS1  .                                   :Other Services Line 1
OS2  .                                   :Other Services Line 2
OS3  .                                   :Other Services Line 3
OS4  .                                   :Other Services Line 4
OS5  .                                   :Other Services Line 5
R1   .                                   :Remarks Line 1
R2   .                                   :Remarks Line 2
R3   .                                   :Remarks Line 3
R4   .                                   :Remarks Line 4
R5   .                                   :Remarks Line 5
R6   .        Tool was run as per tool sketch :Remarks Line 6
R7   .        All logging intervals as per client request :Remarks Line 7
R8   .                                   :Remarks Line 8
TCS  .        20 00 00                   :Time Circulation Stopped
TLAB .        02 17 00                   :Time Logger At Bottom
NMT  .        NOBARITE                   :HRDD Mud Type for Nuclear Devices
EPD  .C3         5536.000000             :Elevation of Permanent Datum above Mean Sea Level
APD  .F          29.500000               :Elevation of Depth Reference (LMF) above Permanent Datum
#-----------------------------------------------------------------------------
~CURVE INFORMATION
#MNEM.UNIT   API CODE                                  DESCRIPTION
#---- -----  --------                                  -----------------------
DEPT .F                                                :DEPTH (BOREHOLE) {F12.4}
AF10 .OHMM                                             :Array Induction Four Foot Resistivity A10 {F11.4}
AF20 .OHMM                                             :Array Induction Four Foot Resistivity A20 {F11.4}
AF30 .OHMM                                             :Array Induction Four Foot Resistivity A30 {F11.4}
AF60 .OHMM                                             :Array Induction Four Foot Resistivity A60 {F11.4}
AF90 .OHMM                                             :Array Induction Four Foot Resistivity A90 {F11.4}
AO10 .OHMM                                             :Array Induction One Foot Resistivity A10 {F11.4}
AO20 .OHMM                                             :Array Induction One Foot Resistivity A20 {F11.4}
AO30 .OHMM                                             :Array Induction One Foot Resistivity A30 {F11.4}
AO60 .OHMM                                             :Array Induction One Foot Resistivity A60 {F11.4}
AO90 .OHMM                                             :Array Induction One Foot Resistivity A90 {F11.4}
AT10 .OHMM                                             :Array Induction Two Foot Resistivity A10 {F11.4}
AT20 .OHMM                                             :Array Induction Two Foot Resistivity A20 {F11.4}
AT30 .OHMM                                             :Array Induction Two Foot Resistivity A30 {F11.4}
AT60 .OHMM                                             :Array Induction Two Foot Resistivity A60 {F11.4}
AT90 .OHMM                                             :Array Induction Two Foot Resistivity A90 {F11.4}
AORT .OHMM                                             :Array Induction One Foot Rt {F11.4}
AORX .OHMM                                             :Array Induction One Foot Rxo {F11.4}
CDF  .LBF                                              :Calibrated Downhole Force {F11.4}
CFTC .HZ                                               :Corrected Far Thermal Count Rate {F11.4}
CNTC .HZ                                               :Corrected Near Thermal Count Rate {F11.4}
CTEM .DEGF                                             :Cartridge Temperature {F11.4}
DCAL .IN                                               :Differential Caliper {F11.4}
DT   .US/F                                             :Delta-T (also called Slowness or Interval Transit Time) {F11.4}
DTCO .US/F                                             :Delta-T Compressional {F11.4}
DTSM .US/F                                             :Delta-T Shear {F11.4}
ED   .F                                                :East Departure {F11.4}
GR_STGC.GAPI                                           :Gamma Ray {F11.4}
GTEM .DEGF                                             :Generalized Borehole Temperature {F11.4}
HGR_STGC.GAPI                                          :High Resolution Gamma Ray {F11.4}
HNPO .CFCF                                             :High Resolution Enhanced Thermal Neutron Porosity in Selected Lithology {F11.4}
HTNP .CFCF                                             :High Resolution Thermal Neutron Porosity (Ratio Method) in Selected Lithology {F11.4}
ITT  .S                                                :Integrated Transit Time {F11.4}
ND   .F                                                :North Departure {F11.4}
NPHI .CFCF                                             :Thermal Neutron Porosity (original Ratio Method) in Selected Lithology {F11.4}
NPOR .CFCF                                             :Enhanced Thermal Neutron Porosity in Selected Lithology {F11.4}
PR   .                                                 :Poisson s Ratio {F11.4}
SP   .MV                                               :Spontaneous Potential {F11.4}
SPAR .MV                                               :SP, Armor Return Compensated {F11.4}
SPHI .CFCF                                             :Sonic Porosity {F11.4}
STIT .F                                                :Stuck Tool Indicator, Total {F11.4}
TENS .LBF                                              :Cable Tension {F11.4}
TNPH .CFCF                                             :Thermal Neutron Porosity (Ratio Method) in Selected Lithology {F11.4}
HTNP_SAN.CFCF                                          :HiRes Thermal Neutron Porosity (matrix Sandstone) {F11.4}
#-----------------------------------------------------------------------------
# 
#      DEPT        AF10       AF20       AF30       AF60       AF90       AO10       AO20       AO30       AO60       AO90       AT10       AT20       AT30       AT60       AT90       AORT       AORX       CDF        CFTC       CNTC       CTEM       DCAL        DT        DTCO       DTSM        ED      GR_STGC      GTEM     HGR_STGC     HNPO       HTNP       ITT         ND        NPHI       NPOR        PR         SP        SPAR       SPHI       STIT       TENS       TNPH     HTNP_SAN
#
~A  
# ...
   9266.0000  1950.0000    50.8009   431.4278   994.7952   546.9969   640.8936    43.0930    49.0159    50.2256    48.4651  1013.0243    44.8754   122.6377   133.5320   141.6292    45.1850   152.6081 -5941.0464 12238.1328 18654.8867   122.0706     0.0000    53.7598    53.7598    92.0881     0.0000   138.0114   414.6233   141.8637     0.0152     0.0186     0.0133     0.0000     0.0195     0.0141     0.2415    37.6786    37.2140    -0.0260     0.0000  4504.5005     0.0169     0.0486
   9266.5000  1950.0000    51.8076   611.9808  1034.2429   564.8088  1950.0000    59.6637    91.7225    58.0216    56.2598  1950.0000    49.6238   189.7727   173.4143   178.5042    45.5745   191.4993 -6008.0000 11692.1592 17381.9316   122.0706     0.0000    53.7793    53.7793    92.1233     0.0000   129.4602   414.6448   143.4904     0.0241     0.0189     0.0133     0.0000     0.0211     0.0331     0.2415    37.5000    37.0309    -0.0258     0.0000  4455.3335     0.0202     0.0490
   9267.0000  1950.0000    51.1066   859.2496   862.6316   491.7335   676.4487    76.0347   125.5504    46.7873    46.0055  1950.0000    62.3963   328.5236   319.8799   150.1966    33.9641   278.8777 -5944.1152 12251.8174 18206.0449   122.0706     0.0000    53.3105    53.3105    91.8562     0.0000   106.2546   414.6435   101.8253     0.0182     0.0173     0.0132     0.0000     0.0212     0.0229     0.2460    36.9196    36.8057    -0.0315     0.0000  4470.0000     0.0199     0.0471
   9267.5000  1950.0000    51.3192  1013.6144   608.5166   376.2891   401.9554    60.4615    71.8004    30.2433    30.0399  1950.0000    61.2326   497.6626   152.0698   103.4555    23.7678   367.1755 -5957.4512 12437.1914 19006.2441   122.0706     0.0000    53.1738    53.1738    92.1605     0.0000    80.2707   414.6665    71.7877     0.0235     0.0206     0.0132     0.0000     0.0223     0.0133     0.2505    36.5833    36.5913    -0.0332     0.0000  4558.3335     0.0186     0.0511
   9268.0000  1950.0000    50.0224   969.2049   417.7508   277.6745   299.3088    57.9850    98.5967    21.9273    21.8755  1658.2023    54.4158   625.6995   187.7994   187.1364    18.8728   507.6094 -5923.6836 12334.2725 19051.5996   122.0706     0.0000    53.6816    53.6816    89.5691     0.0000    66.7996   414.6949    65.7755     0.0243     0.0213     0.0132     0.0000     0.0227     0.0155     0.2197    36.2500    36.4228    -0.0270     0.0000  4681.0000     0.0188     0.0520
   9268.5000  1950.0000    48.2410   844.1475   308.2455   229.8051   552.6243    22.5063    43.4084    16.4508    16.4127  1941.6967    42.4028   410.6218   128.5270   138.5389    16.4759   667.0385 -5908.2734 12621.6689 19055.4609   122.0706     0.0000    53.2031    53.2031    89.3158     0.0000    64.8131   414.6817    62.5190     0.0181     0.0191     0.0131     0.0000     0.0228     0.0110     0.2250    36.6667    36.2711    -0.0329     0.0000  4595.3330     0.0180     0.0493
   9269.0000  1950.0000    44.1676   725.7828   246.8525   192.3080   874.2666    38.7214    97.1424    26.4687    26.1971  1950.0000    50.9548   662.3245   164.5556   181.5253    20.5333   865.5468 -5966.4282 12063.3477 18469.4590   122.0706     0.0000    52.2363    52.2363    91.2106     0.0000    67.0772   414.7157    66.4258     0.0152     0.0192     0.0131     0.0000     0.0237     0.0145     0.2560    36.6964    36.1911    -0.0450     0.0000  4599.0000     0.0205     0.0494
   9269.5000  1950.0000    40.3011   648.2874   217.3348   183.9560  1516.5691    41.3793    98.4965    36.7246    36.0790  1950.0000    45.4290   636.1563   178.3183   197.5231    27.7472  1149.5436 -5877.6064 10389.5176 16548.7246   122.0706     0.0000    52.3438    52.3438    91.6108     0.0000    73.8140   414.7339    72.7406     0.0313     0.0255     0.0131     0.0000     0.0255     0.0368     0.2576    36.1161    36.1355    -0.0437     0.0000  4506.3335     0.0246     0.0573
   9270.0000  1950.0000    40.6042   758.5533   225.8626   191.3521  1950.0000    36.5643    86.5680    47.7282    46.6097  1950.0000    42.6928   624.2197   185.8648   212.2714    37.2320  1455.4474 -5879.7163 10346.4561 16609.7168   122.0706     0.0000    52.7344    52.7344    92.1972     0.0000    84.3778   414.7466    82.5402     0.0225     0.0243     0.0131     0.0000     0.0273     0.0327     0.2569    35.5357    36.0901    -0.0387     0.0000  4460.5000     0.0274     0.0557
   9270.5000  1950.0000    39.6710   903.1656   294.3321   204.3252  1950.0000    35.9837    70.1096    47.6662    46.2420  1950.0000    40.9454   618.7549   273.1451   310.9916    41.0491  1721.2897 -5886.6147 10304.6563 16720.0742   122.0706     0.0000    52.7930    52.7930    92.7208     0.0000   102.8292   414.7737    98.1677     0.0262     0.0261     0.0130     0.0000     0.0274     0.0234     0.2601    35.0417    36.0134    -0.0380     0.0000  4534.0005     0.0247     0.0579
   9271.0000  1950.0000    39.6132  1118.3846   368.2613   234.7203  1950.0000    20.3295    27.2106    20.7959    19.6079  1950.0000    39.0765   501.1284   238.4744   252.2056    20.6460  1889.1936 -5807.3770 10434.8027 16692.2715   122.0706     0.0000    52.9883    52.9883    93.7700     0.0000   113.2157   414.7964   128.0117     0.0217     0.0240     0.0130     0.0000     0.0269     0.0231     0.2654    35.9821    36.2364    -0.0355     0.0000  4627.6665     0.0242     0.0553
   9271.5000  1950.0000    39.4203  1373.3405   453.0874   268.1964  1950.0000    32.6708    59.8277    40.9653    41.5776  1950.0000    40.7565   692.4207   184.3631   236.7102    37.0785  1950.0000 -5911.1587 10477.8232 16531.3555   122.0706     0.0000    53.1836    53.1836    91.9798     0.0000   113.4786   414.8145   113.9354     0.0239     0.0228     0.0130     0.0000     0.0268     0.0256     0.2489    36.3839    36.4274    -0.0331     0.0000  4639.0000     0.0245     0.0538
   9272.0000  1950.0000    39.0693  1533.8595   505.9097   309.3958  1950.0000    57.5492    81.9196    48.5356    46.7285  1950.0000    44.3970   786.9714   202.3252   238.0496    44.2143  1950.0000 -5863.8140 10200.9385 16498.1953   122.0706     0.0000    52.2363    52.2363    90.9870     0.0000   103.7272   414.8327    99.1315     0.0293     0.0259     0.0130     0.0000     0.0278     0.0258     0.2542    36.5179    36.6330    -0.0450     0.0000  4610.0000     0.0253     0.0577
   9272.5000  1950.0000    38.2382  1491.5493   530.4955   344.3110  1950.0000    74.2482   156.1616    59.5726    57.1517  1950.0000    44.7980   881.9825   175.4145   283.5706    50.1926  1950.0000 -5867.7627 10064.9863 16630.7188   122.0706     0.0000    52.2266    52.2266    90.7883     0.0000    93.7185   414.8688    98.4929     0.0237     0.0272     0.0129     0.0000     0.0293     0.0247     0.2527    36.8750    36.9055    -0.0452     0.0000  4495.0005     0.0269     0.0593
   9273.0000  1950.0000    36.9437  1283.1040   541.5435   409.8961  1950.0000    52.1748   233.5989    72.2898    67.3000  1950.0000    42.2449   879.4521   215.8855   185.4210    61.0589  1950.0000 -5899.0527  9871.6143 16348.1914   122.0706     0.0000    52.4414    52.4414    90.6586     0.0000    91.3119   414.8802    83.5788     0.0263     0.0276     0.0129     0.0000     0.0297     0.0290     0.2486    37.2321    37.2470    -0.0424     0.0000  4558.0000     0.0277     0.0599
   9273.5000  1950.0000    35.3384  1030.0510   542.7789   434.8552  1950.0000    42.7924   219.3891    94.2468    83.4763  1950.0000    37.6186   780.2098   275.5811   229.2510    69.4540  1950.0000 -5867.9272  9938.9121 16294.1699   122.0706     0.0000    52.5391    52.5391   108.4428     0.0000    91.1356   414.9132    91.4578     0.0283     0.0270     0.0129     0.0000     0.0301     0.0304     0.3466    37.8125    37.6582    -0.0412     0.0000  4522.0005     0.0285     0.0592
   9274.0000  1950.0000    33.8989   829.0637   622.0109   444.0849  1950.0000    31.6073   135.1594   111.7665    93.4047  1950.0000    33.0022   662.2973   308.7246   211.4677    71.6362  1950.0000 -5921.3672  9827.6152 16439.7363   122.0706     0.0000    51.8945    51.8945   109.8252     0.0000    90.2995   414.9267    98.2166     0.0237     0.0295     0.0129     0.0000     0.0302     0.0280     0.3563    38.4583    38.0746    -0.0494     0.0000  4617.0000     0.0283     0.0623
