~VERSION INFORMATION
VERS.           1.2   :CWLS Log ASCII Standard - VERSION 1.2
WRAP.           NO    :One Line per depth step
PROD.  Schlumberger   :LAS Producer
PROG.  DLIS to ASCII 2.3                               :LAS Program name and version
CREA.        2021/07/30 13:36                          :LAS Creation date {YYYY/MM/DD hh:mm}
DLIS_CREA.  2021-Jul-30 07:07                          :DLIS Creation date and time {YYYY-MMM-DD hh:mm}
SOURCE.     e39621fc-7919-4a62-8a2a-6ee9c8654461       :DLIS File Name
#--------------------------------------------------
~WELL INFORMATION
#MNEM.UNIT      DATA             DESCRIPTION
#---- ------ --------------   -----------------------------
STRT .F      8527.5000       :START DEPTH     
STOP .F      9107.0000       :STOP DEPTH     
STEP .F       0.5000         :STEP       
NULL .          -999.25      :NULL VALUE
COMP .                 COMPANY:  University Of Utah                 
WELL .                    WELL:  FORGE 78B-32                       
FLD  .                   FIELD:  None                               
LOC  .                LOCATION:  Lat: 38.500171, Long: -112.88221   
CNTY .                  COUNTY:  Beaver                             
STAT .                   STATE:  Utah                               
CTRY .                 COUNTRY:                                     
SRVC .         SERVICE COMPANY:  Schlumberger                       
LATI .DEG             LATITUDE:  38 30' 0.616" N                   
LONG .DEG            LONGITUDE:  112 52' 55.956" W                 
API  .              API NUMBER:  NRC 42-00090-03                    
DATE .                LOG DATE:  30-Jul-2021
UWI  .          UNIQUE WELL ID:                                     
#-----------------------------------------------------------------------------
~PARAMETER INFORMATION
#MNEM.UNIT    VALUE                      DESCRIPTION
#---- -----   --------------------       ------------------------
CN   .        University Of Utah         :Company Name
WN   .        FORGE 78B-32               :Well Name
FN   .        None                       :Field Name
FL   .        Lat  38.500171  Long  -112.88221 :Field Location
FL1  .                                   :Field Location, Line 1
COUN .        Beaver                     :County or Parish
STAT .        Utah                       :State or Province
NATI .                                   :Nation
DATE .        30-Jul-2021                :Tools Above Rotary Table Date
APIN .        NRC 42-00090-03            :API Well Number
SECT .                                   :Section
TOWN .                                   :Township
RANG .                                   :Range
DMF  .        KB                         :Drilling Measured From (Name of Drilling Elevation Reference)
LMF  .        KB                         :Logging Measured From (Name of Logging Elevation Reference)
PDAT .        GL                         :Permanent Datum
ENGI .        CSTILES                    :Engineer s Name
WITN .        Virgil  Welch              :Witness s Name
LATI .        38� 30' 0.616  N           :Latitude
LONG .        112� 52' 55.956  W         :Longitude
LUL  .        F.Morgan                   :Logging Unit Location
LUN  .        9108                       :Logging Unit Number
RUN  .        1B                         :Run Number
SON  .                                   :Service Order Number
BHT  .DEGF     419.00000                 :Bottom Hole Temperature
BS   .IN         5.75000                 :Bit Size
MDEN .G/C3       2.71000                 :Matrix Density for Density Porosity
DFD  .LB/G       8.30000                 :Drilling Fluid Density
DFV  .S         24.00000                 :Drilling Fluid Viscosity
DFL  .C3      -999.25000                 :Drilling Fluid Loss
RMFS .OHMM       4.42000                 :Resistivity of Mud Filtrate Sample
EKB  .F       5565.50000                 :Elevation of Kelly Bushing
EGL  .F       5536.00000                 :Elevation of Ground Level
BLI  .F       9532.00000                 :Bottom Log Interval
BSAL .PPM      700.00000                 :Borehole Salinity
FLEV .F          8.00000                 :Depth of Drilling Fluid Level to LMF (Log Measured From)
MCST .DEGF      62.00000                 :Mudcake Sample Temperature
MFST .DEGF      62.00000                 :Mud Filtrate Sample Temperature
MRT  .DEGF     419.00000                 :Maximum Recorded Temperature
MST  .DEGF      62.00000                 :Mud Sample Temperature
RMCS .OHMM       6.21000                 :Resistivity of Mud Cake Sample
RMS  .OHMM       5.20000                 :Resistivity of Mud Sample
RW   .OHMM       1.00000                 :Connate Water Resistivity
TDD  .F       9500.00000                 :Driller Total Depth
TDL  .F       9532.00000                 :Logger Total Depth
TLI  .F       8530.00000                 :Top Log Interval
HIDE .                                   :Header Identifier
MATR .        LIME                       :Rock Matrix for Neutron Porosity Corrections
FNUM .           1.00000                 :F-Numerator for Formation Factor Formula
FEXP .           2.00000                 :Exponent "m" for Formation Factor Formula
DFT  .        WATER                      :Drilling Fluid Type
DFPH .          11.00000                 :Drilling Fluid pH
MCSS .        Calculated                 :Mudcake Sample Source
MFSS .        Calculated                 :Mud Filtrate Sample Source
FD   .G/C3       1.00000                 :Fluid Density
MSS  .        Flowline                   :Mud Sample Source
OS1  .                                   :Other Services Line 1
OS2  .                                   :Other Services Line 2
OS3  .                                   :Other Services Line 3
OS4  .                                   :Other Services Line 4
OS5  .                                   :Other Services Line 5
R1   .                                   :Remarks Line 1
R2   .                                   :Remarks Line 2
R3   .                                   :Remarks Line 3
R4   .                                   :Remarks Line 4
R5   .                                   :Remarks Line 5
R6   .        Tool was run as per tool sketch :Remarks Line 6
R7   .        All logging intervals as per client request :Remarks Line 7
R8   .                                   :Remarks Line 8
TCS  .        20 00 00                   :Time Circulation Stopped
TLAB .        02 17 00                   :Time Logger At Bottom
NMT  .        NOBARITE                   :HRDD Mud Type for Nuclear Devices
EPD  .C3         5536.000000             :Elevation of Permanent Datum above Mean Sea Level
APD  .F          29.500000               :Elevation of Depth Reference (LMF) above Permanent Datum
#-----------------------------------------------------------------------------
~CURVE INFORMATION
#MNEM.UNIT   API CODE                                  DESCRIPTION
#---- -----  --------                                  -----------------------
DEPT .F                                                :DEPTH (BOREHOLE) {F12.4}
AF10 .OHMM                                             :Array Induction Four Foot Resistivity A10 {F11.4}
AF20 .OHMM                                             :Array Induction Four Foot Resistivity A20 {F11.4}
AF30 .OHMM                                             :Array Induction Four Foot Resistivity A30 {F11.4}
AF60 .OHMM                                             :Array Induction Four Foot Resistivity A60 {F11.4}
AF90 .OHMM                                             :Array Induction Four Foot Resistivity A90 {F11.4}
AO10 .OHMM                                             :Array Induction One Foot Resistivity A10 {F11.4}
AO20 .OHMM                                             :Array Induction One Foot Resistivity A20 {F11.4}
AO30 .OHMM                                             :Array Induction One Foot Resistivity A30 {F11.4}
AO60 .OHMM                                             :Array Induction One Foot Resistivity A60 {F11.4}
AO90 .OHMM                                             :Array Induction One Foot Resistivity A90 {F11.4}
AT10 .OHMM                                             :Array Induction Two Foot Resistivity A10 {F11.4}
AT20 .OHMM                                             :Array Induction Two Foot Resistivity A20 {F11.4}
AT30 .OHMM                                             :Array Induction Two Foot Resistivity A30 {F11.4}
AT60 .OHMM                                             :Array Induction Two Foot Resistivity A60 {F11.4}
AT90 .OHMM                                             :Array Induction Two Foot Resistivity A90 {F11.4}
AORT .OHMM                                             :Array Induction One Foot Rt {F11.4}
AORX .OHMM                                             :Array Induction One Foot Rxo {F11.4}
CDF  .LBF                                              :Calibrated Downhole Force {F11.4}
CFTC .HZ                                               :Corrected Far Thermal Count Rate {F11.4}
CNTC .HZ                                               :Corrected Near Thermal Count Rate {F11.4}
CTEM .DEGF                                             :Cartridge Temperature {F11.4}
DCAL .IN                                               :Differential Caliper {F11.4}
DT   .US/F                                             :Delta-T (also called Slowness or Interval Transit Time) {F11.4}
DTCO .US/F                                             :Delta-T Compressional {F11.4}
DTSM .US/F                                             :Delta-T Shear {F11.4}
ED   .F                                                :East Departure {F11.4}
GR_STGC.GAPI                                           :Gamma Ray {F11.4}
GTEM .DEGF                                             :Generalized Borehole Temperature {F11.4}
HGR_STGC.GAPI                                          :High Resolution Gamma Ray {F11.4}
HNPO .CFCF                                             :High Resolution Enhanced Thermal Neutron Porosity in Selected Lithology {F11.4}
HTNP .CFCF                                             :High Resolution Thermal Neutron Porosity (Ratio Method) in Selected Lithology {F11.4}
ITT  .S                                                :Integrated Transit Time {F11.4}
ND   .F                                                :North Departure {F11.4}
NPHI .CFCF                                             :Thermal Neutron Porosity (original Ratio Method) in Selected Lithology {F11.4}
NPOR .CFCF                                             :Enhanced Thermal Neutron Porosity in Selected Lithology {F11.4}
PR   .                                                 :Poisson s Ratio {F11.4}
SP   .MV                                               :Spontaneous Potential {F11.4}
SPAR .MV                                               :SP, Armor Return Compensated {F11.4}
SPHI .CFCF                                             :Sonic Porosity {F11.4}
STIT .F                                                :Stuck Tool Indicator, Total {F11.4}
TENS .LBF                                              :Cable Tension {F11.4}
TNPH .CFCF                                             :Thermal Neutron Porosity (Ratio Method) in Selected Lithology {F11.4}
HTNP_SAN.CFCF                                          :HiRes Thermal Neutron Porosity (matrix Sandstone) {F11.4}
#-----------------------------------------------------------------------------
# 
#      DEPT        AF10       AF20       AF30       AF60       AF90       AO10       AO20       AO30       AO60       AO90       AT10       AT20       AT30       AT60       AT90       AORT       AORX       CDF        CFTC       CNTC       CTEM       DCAL        DT        DTCO       DTSM        ED      GR_STGC      GTEM     HGR_STGC     HNPO       HTNP       ITT         ND        NPHI       NPOR        PR         SP        SPAR       SPHI       STIT       TENS       TNPH     HTNP_SAN
#
~A  
# ...
   8944.0000  1950.0000    56.5168   467.9482  1444.5725  1599.2523  1950.0000    64.4984   102.8733    95.5713    92.2080  1950.0000    66.1284   372.8929   879.7418   748.7102    88.6478  1653.2631 -7270.4106 13533.9141 18764.3027   110.2118     0.0000    51.5918    51.5918   129.0632     0.0000   161.0933   402.9799   164.5441     0.0105     0.0114     0.0065     0.0000     0.0158     0.0074     0.4049    21.2500    21.4619    -0.0534     0.0000  4266.4287     0.0112     0.0398
   8944.5000  1950.0000    54.1907   567.8436  1350.1328  1594.3285  1950.0000    50.3367   175.2785   143.0711   133.8863  1950.0000    64.2644   530.8745   814.8400   734.9440   106.4229  1656.9015 -7259.8149 13055.6758 18715.3750   110.2118     0.0000    50.2344    50.2344   129.4690     0.0000   150.6547   402.9936   142.5798     0.0109     0.0137     0.0064     0.0000     0.0173     0.0088     0.4114    21.2500    21.6642    -0.0717     0.0000  4221.1250     0.0130     0.0426
   8945.0000  1950.0000    52.7255   554.3331  1054.8247  1355.2524  1950.0000    59.1522   200.3996   121.2394   109.9969  1950.0000    63.3988   499.7838   602.1506   557.4998   108.8071  1663.3014 -7257.6128 12390.5215 18225.3867   110.2118     0.0000    50.5664    50.5664   130.3643     0.0000   148.4873   403.0141   143.7890     0.0183     0.0164     0.0064     0.0000     0.0191     0.0122     0.4114    21.2500    21.8245    -0.0672     0.0000  4188.5718     0.0152     0.0459
   8945.5000  1950.0000    52.7739   461.6644   775.4875  1058.4192  1950.0000    72.2659   246.8257   222.9965   209.5455  1950.0000    61.5306   434.3210   466.0462   443.7993   154.2161  1564.9749 -7271.8677 11734.0928 17426.5820   110.2118     0.0000    51.3477    51.3477   129.3891     0.0000   153.3190   403.0626   159.2576     0.0160     0.0174     0.0064     0.0000     0.0206     0.0190     0.4065    21.2500    22.0295    -0.0566     0.0000  4195.8574     0.0178     0.0472
   8946.0000  1950.0000    51.1774   373.5709   586.0507   809.0299  1950.0000    74.5647   178.4862   189.6711   174.2596  1950.0000    56.4487   334.8111   268.6138   269.2510   138.3658  1671.4902 -7337.5317 11046.5391 16705.1738   110.2118     0.0000    51.8359    51.8359   128.2980     0.0000   152.6814   403.0970   157.3038     0.0120     0.0187     0.0064     0.0000     0.0220     0.0247     0.4025    21.6406    22.2296    -0.0502     0.0000  4221.0000     0.0201     0.0488
   8946.5000  1950.0000    50.8737   303.4723   461.3218   643.4470  1950.0000    59.0332   103.1779   110.1979   102.2141  1950.0000    52.0814   253.8959   267.3917   249.2106    90.4623  1683.5972 -7293.1743 10643.4590 16481.2949   110.2118     0.0000    52.5195    52.5195   127.5005     0.0000   142.0903   403.1398   141.3306     0.0177     0.0204     0.0063     0.0000     0.0237     0.0254     0.3978    22.8125    22.5212    -0.0414     0.0000  4296.2861     0.0220     0.0509
   8947.0000  1950.0000    52.7969   258.8993   388.2342   524.9316  1950.0000    45.1228   105.4715   121.8642   114.2999  1950.0000    48.3416   211.9265   243.8339   235.2990    92.2043  1637.6406 -7220.4917 10447.8447 16456.4199   110.2118     0.0000    52.5879    52.5879   126.9726     0.0000   135.0861   403.1542   127.5389     0.0266     0.0231     0.0063     0.0000     0.0246     0.0252     0.3965    23.5938    22.8436    -0.0406     0.0000  4372.8750     0.0226     0.0543
   8947.5000  1950.0000    58.2700   242.5229   371.2321   478.0008  1950.0000    51.0176    78.3659    91.5394    87.4986  1950.0000    45.2310   158.2699   183.4468   185.2319    75.5108  1408.2958 -7273.4956 10683.7568 16643.4395   110.2118     0.0000    52.7930    52.7930   126.4235     0.0000   138.6664   403.1819   136.7494     0.0251     0.0223     0.0063     0.0000     0.0260     0.0246     0.3944    23.4375    22.9063    -0.0380     0.0000  4388.4287     0.0236     0.0532
   8948.0000  1950.0000    69.2913   256.0685   413.8206   484.5641  1950.0000    30.7230    43.4186    65.1480    63.1441  1950.0000    50.1999   143.3189   158.7675   140.8195    52.8218   999.7640 -7264.7803 10471.3555 16988.6445   110.2118     0.0000    52.6074    52.6074   127.7932     0.0000   144.6952   403.1795   151.9314     0.0268     0.0257     0.0062     0.0000     0.0263     0.0216     0.3980    23.7500    22.9208    -0.0403     0.0000  4422.1250     0.0235     0.0575
   8948.5000  1950.0000    87.6459   318.1638   558.5627   582.1876  1950.0000    42.7123    42.4118    44.4562    43.4874  1950.0000    73.6774   277.5846   347.6021   322.3259    42.2397   589.5046 -7343.2544 10725.9229 17038.7617   110.2118     0.0000    52.7344    52.7344   126.5262     0.0000   144.1251   403.2115   145.2423     0.0268     0.0240     0.0062     0.0000     0.0247     0.0228     0.3949    23.7500    22.9165    -0.0387     0.0000  4374.0000     0.0222     0.0554
   8949.0000  1950.0000   106.2221   443.6553   811.5622   789.2596  1950.0000    98.5303    92.7760    77.8130    77.9153  1950.0000    99.4944   570.3420   685.0934   589.9086    69.9053   326.0499 -7365.5601 11570.1914 17082.7383   110.2118     0.0000    53.1836    53.1836   127.1224     0.0000   136.3412   403.2194   134.4672     0.0194     0.0167     0.0062     0.0000     0.0209     0.0236     0.3939    23.2813    22.8741    -0.0331     0.0000  4313.7500     0.0187     0.0463
   8949.5000  1950.0000   109.9428   769.0776  1453.1598  1272.1547  1950.0000   283.4681   318.8189    89.9102    87.1087  1950.0000   102.5521  1734.8823  1924.0059  1760.8876    81.2441   194.7891 -7261.1680 12444.4658 17668.4043   110.2118     0.0000    52.5293    52.5293   127.9146     0.0000   127.3778   403.2538   128.3935     0.0122     0.0133     0.0062     0.0000     0.0184     0.0155     0.3986    22.8906    22.7913    -0.0413     0.0000  4250.1431     0.0148     0.0421
   8950.0000  1950.0000    96.6781   625.9796  1339.2998  1232.1467   329.5678   119.0483   300.5737   105.9098   102.6365  1950.0000    79.6233  1447.8590  1628.8824  1602.1753    89.7616   130.2559 -7307.8989 12775.9707 18569.5742   110.2118     0.0000    51.9922    51.9922   128.0208     0.0000   119.3715   403.2918   118.6446     0.0154     0.0149     0.0061     0.0000     0.0167     0.0040     0.4012    22.1875    22.6859    -0.0482     0.0000  4190.0000     0.0120     0.0442
   8950.5000  1950.0000    75.9856   620.3576  1583.4594  1414.5242   131.1416    61.8011   385.8586   117.7424   117.1740  1950.0000    57.2479   548.4025   872.2662   899.3510   110.0818    87.2214 -7297.3950 13155.2627 18249.7852   110.2118     0.0000    51.6992    51.6992   127.7435     0.0000   115.8679   403.3287   111.1001     0.0114     0.0121     0.0061     0.0000     0.0158     0.0090     0.4021    21.8750    22.5814    -0.0520     0.0000  4157.7144     0.0116     0.0407
   8951.0000  1950.0000    60.4205   566.3187  1715.3164  1470.3086    64.5105    34.1489   262.0663   156.9673   150.0704  1950.0000    42.0173   453.7748   753.5310   862.6074   135.3009    78.3231 -7374.7451 12982.7646 17783.1563   110.2118     0.0000    51.3672    51.3672   128.6978     0.0000   121.0242   403.3537   117.8153     0.0107     0.0103     0.0061     0.0000     0.0149     0.0143     0.4053    21.8750    22.5324    -0.0564     0.0000  4196.8750     0.0116     0.0385
   8951.5000  1950.0000    52.3960   506.7376  1726.6982  1393.1741    45.9828    24.6317   164.5120   186.1054   176.2727  1950.0000    36.5477   365.8578   633.0722   772.2213   141.1203    68.0359 -7385.7876 12732.6855 17870.4102   110.2118     0.0000    53.5547    53.5547   126.8712     0.0000   135.4476   403.3932   134.3214     0.0144     0.0120     0.0061     0.0000     0.0148     0.0122     0.3916    21.8750    22.4925    -0.0285     0.0000  4217.7144     0.0120     0.0406
   8952.0000  1950.0000    49.4668   454.7285  1671.6661  1256.8010    51.5972    20.9719    86.4380   106.3464    99.6900  1950.0000    35.9619   317.1219   507.7043   590.6486    93.2592    67.4814 -7358.2656 12696.8311 17574.9355   110.2118     0.0000    52.1289    52.1289   127.2201     0.0000   149.2032   403.4133   154.3871     0.0112     0.0122     0.0060     0.0000     0.0157     0.0164     0.3991    22.1875    22.5351    -0.0464     0.0000  4302.1431     0.0127     0.0408
