~VERSION INFORMATION
VERS.           1.2   :CWLS Log ASCII Standard - VERSION 1.2
WRAP.           NO    :One Line per depth step
PROD.  Schlumberger   :LAS Producer
PROG.  DLIS to ASCII 2.3                               :LAS Program name and version
CREA.        2021/07/30 13:36                          :LAS Creation date {YYYY/MM/DD hh:mm}
DLIS_CREA.  2021-Jul-30 07:07                          :DLIS Creation date and time {YYYY-MMM-DD hh:mm}
SOURCE.     e39621fc-7919-4a62-8a2a-6ee9c8654461       :DLIS File Name
#--------------------------------------------------
~WELL INFORMATION
#MNEM.UNIT      DATA             DESCRIPTION
#---- ------ --------------   -----------------------------
STRT .F      8527.5000       :START DEPTH     
STOP .F      9107.0000       :STOP DEPTH     
STEP .F       0.5000         :STEP       
NULL .          -999.25      :NULL VALUE
COMP .                 COMPANY:  University Of Utah                 
WELL .                    WELL:  FORGE 78B-32                       
FLD  .                   FIELD:  None                               
LOC  .                LOCATION:  Lat: 38.500171, Long: -112.88221   
CNTY .                  COUNTY:  Beaver                             
STAT .                   STATE:  Utah                               
CTRY .                 COUNTRY:                                     
SRVC .         SERVICE COMPANY:  Schlumberger                       
LATI .DEG             LATITUDE:  38 30' 0.616" N                   
LONG .DEG            LONGITUDE:  112 52' 55.956" W                 
API  .              API NUMBER:  NRC 42-00090-03                    
DATE .                LOG DATE:  30-Jul-2021
UWI  .          UNIQUE WELL ID:                                     
#-----------------------------------------------------------------------------
~PARAMETER INFORMATION
#MNEM.UNIT    VALUE                      DESCRIPTION
#---- -----   --------------------       ------------------------
CN   .        University Of Utah         :Company Name
WN   .        FORGE 78B-32               :Well Name
FN   .        None                       :Field Name
FL   .        Lat  38.500171  Long  -112.88221 :Field Location
FL1  .                                   :Field Location, Line 1
COUN .        Beaver                     :County or Parish
STAT .        Utah                       :State or Province
NATI .                                   :Nation
DATE .        30-Jul-2021                :Tools Above Rotary Table Date
APIN .        NRC 42-00090-03            :API Well Number
SECT .                                   :Section
TOWN .                                   :Township
RANG .                                   :Range
DMF  .        KB                         :Drilling Measured From (Name of Drilling Elevation Reference)
LMF  .        KB                         :Logging Measured From (Name of Logging Elevation Reference)
PDAT .        GL                         :Permanent Datum
ENGI .        CSTILES                    :Engineer s Name
WITN .        Virgil  Welch              :Witness s Name
LATI .        38� 30' 0.616  N           :Latitude
LONG .        112� 52' 55.956  W         :Longitude
LUL  .        F.Morgan                   :Logging Unit Location
LUN  .        9108                       :Logging Unit Number
RUN  .        1B                         :Run Number
SON  .                                   :Service Order Number
BHT  .DEGF     419.00000                 :Bottom Hole Temperature
BS   .IN         5.75000                 :Bit Size
MDEN .G/C3       2.71000                 :Matrix Density for Density Porosity
DFD  .LB/G       8.30000                 :Drilling Fluid Density
DFV  .S         24.00000                 :Drilling Fluid Viscosity
DFL  .C3      -999.25000                 :Drilling Fluid Loss
RMFS .OHMM       4.42000                 :Resistivity of Mud Filtrate Sample
EKB  .F       5565.50000                 :Elevation of Kelly Bushing
EGL  .F       5536.00000                 :Elevation of Ground Level
BLI  .F       9532.00000                 :Bottom Log Interval
BSAL .PPM      700.00000                 :Borehole Salinity
FLEV .F          8.00000                 :Depth of Drilling Fluid Level to LMF (Log Measured From)
MCST .DEGF      62.00000                 :Mudcake Sample Temperature
MFST .DEGF      62.00000                 :Mud Filtrate Sample Temperature
MRT  .DEGF     419.00000                 :Maximum Recorded Temperature
MST  .DEGF      62.00000                 :Mud Sample Temperature
RMCS .OHMM       6.21000                 :Resistivity of Mud Cake Sample
RMS  .OHMM       5.20000                 :Resistivity of Mud Sample
RW   .OHMM       1.00000                 :Connate Water Resistivity
TDD  .F       9500.00000                 :Driller Total Depth
TDL  .F       9532.00000                 :Logger Total Depth
TLI  .F       8530.00000                 :Top Log Interval
HIDE .                                   :Header Identifier
MATR .        LIME                       :Rock Matrix for Neutron Porosity Corrections
FNUM .           1.00000                 :F-Numerator for Formation Factor Formula
FEXP .           2.00000                 :Exponent "m" for Formation Factor Formula
DFT  .        WATER                      :Drilling Fluid Type
DFPH .          11.00000                 :Drilling Fluid pH
MCSS .        Calculated                 :Mudcake Sample Source
MFSS .        Calculated                 :Mud Filtrate Sample Source
FD   .G/C3       1.00000                 :Fluid Density
MSS  .        Flowline                   :Mud Sample Source
OS1  .                                   :Other Services Line 1
OS2  .                                   :Other Services Line 2
OS3  .                                   :Other Services Line 3
OS4  .                                   :Other Services Line 4
OS5  .                                   :Other Services Line 5
R1   .                                   :Remarks Line 1
R2   .                                   :Remarks Line 2
R3   .                                   :Remarks Line 3
R4   .                                   :Remarks Line 4
R5   .                                   :Remarks Line 5
R6   .        Tool was run as per tool sketch :Remarks Line 6
R7   .        All logging intervals as per client request :Remarks Line 7
R8   .                                   :Remarks Line 8
TCS  .        20 00 00                   :Time Circulation Stopped
TLAB .        02 17 00                   :Time Logger At Bottom
NMT  .        NOBARITE                   :HRDD Mud Type for Nuclear Devices
EPD  .C3         5536.000000             :Elevation of Permanent Datum above Mean Sea Level
APD  .F          29.500000               :Elevation of Depth Reference (LMF) above Permanent Datum
#-----------------------------------------------------------------------------
~CURVE INFORMATION
#MNEM.UNIT   API CODE                                  DESCRIPTION
#---- -----  --------                                  -----------------------
DEPT .F                                                :DEPTH (BOREHOLE) {F12.4}
AF10 .OHMM                                             :Array Induction Four Foot Resistivity A10 {F11.4}
AF20 .OHMM                                             :Array Induction Four Foot Resistivity A20 {F11.4}
AF30 .OHMM                                             :Array Induction Four Foot Resistivity A30 {F11.4}
AF60 .OHMM                                             :Array Induction Four Foot Resistivity A60 {F11.4}
AF90 .OHMM                                             :Array Induction Four Foot Resistivity A90 {F11.4}
AO10 .OHMM                                             :Array Induction One Foot Resistivity A10 {F11.4}
AO20 .OHMM                                             :Array Induction One Foot Resistivity A20 {F11.4}
AO30 .OHMM                                             :Array Induction One Foot Resistivity A30 {F11.4}
AO60 .OHMM                                             :Array Induction One Foot Resistivity A60 {F11.4}
AO90 .OHMM                                             :Array Induction One Foot Resistivity A90 {F11.4}
AT10 .OHMM                                             :Array Induction Two Foot Resistivity A10 {F11.4}
AT20 .OHMM                                             :Array Induction Two Foot Resistivity A20 {F11.4}
AT30 .OHMM                                             :Array Induction Two Foot Resistivity A30 {F11.4}
AT60 .OHMM                                             :Array Induction Two Foot Resistivity A60 {F11.4}
AT90 .OHMM                                             :Array Induction Two Foot Resistivity A90 {F11.4}
AORT .OHMM                                             :Array Induction One Foot Rt {F11.4}
AORX .OHMM                                             :Array Induction One Foot Rxo {F11.4}
CDF  .LBF                                              :Calibrated Downhole Force {F11.4}
CFTC .HZ                                               :Corrected Far Thermal Count Rate {F11.4}
CNTC .HZ                                               :Corrected Near Thermal Count Rate {F11.4}
CTEM .DEGF                                             :Cartridge Temperature {F11.4}
DCAL .IN                                               :Differential Caliper {F11.4}
DT   .US/F                                             :Delta-T (also called Slowness or Interval Transit Time) {F11.4}
DTCO .US/F                                             :Delta-T Compressional {F11.4}
DTSM .US/F                                             :Delta-T Shear {F11.4}
ED   .F                                                :East Departure {F11.4}
GR_STGC.GAPI                                           :Gamma Ray {F11.4}
GTEM .DEGF                                             :Generalized Borehole Temperature {F11.4}
HGR_STGC.GAPI                                          :High Resolution Gamma Ray {F11.4}
HNPO .CFCF                                             :High Resolution Enhanced Thermal Neutron Porosity in Selected Lithology {F11.4}
HTNP .CFCF                                             :High Resolution Thermal Neutron Porosity (Ratio Method) in Selected Lithology {F11.4}
ITT  .S                                                :Integrated Transit Time {F11.4}
ND   .F                                                :North Departure {F11.4}
NPHI .CFCF                                             :Thermal Neutron Porosity (original Ratio Method) in Selected Lithology {F11.4}
NPOR .CFCF                                             :Enhanced Thermal Neutron Porosity in Selected Lithology {F11.4}
PR   .                                                 :Poisson s Ratio {F11.4}
SP   .MV                                               :Spontaneous Potential {F11.4}
SPAR .MV                                               :SP, Armor Return Compensated {F11.4}
SPHI .CFCF                                             :Sonic Porosity {F11.4}
STIT .F                                                :Stuck Tool Indicator, Total {F11.4}
TENS .LBF                                              :Cable Tension {F11.4}
TNPH .CFCF                                             :Thermal Neutron Porosity (Ratio Method) in Selected Lithology {F11.4}
HTNP_SAN.CFCF                                          :HiRes Thermal Neutron Porosity (matrix Sandstone) {F11.4}
#-----------------------------------------------------------------------------
# 
#      DEPT        AF10       AF20       AF30       AF60       AF90       AO10       AO20       AO30       AO60       AO90       AT10       AT20       AT30       AT60       AT90       AORT       AORX       CDF        CFTC       CNTC       CTEM       DCAL        DT        DTCO       DTSM        ED      GR_STGC      GTEM     HGR_STGC     HNPO       HTNP       ITT         ND        NPHI       NPOR        PR         SP        SPAR       SPHI       STIT       TENS       TNPH     HTNP_SAN
#
~A  
# ...
   8638.0000  1950.0000    71.9888   505.6772   495.4117   633.6041  1950.0000   146.0852   303.8650    80.5877    73.9190  1950.0000    96.8464   192.3435   252.7872   170.4425    70.6581  1700.3743 -9019.8975  8594.4170 15200.4023   114.1647     0.0000    51.3477    51.3477    92.6679     0.0000    82.5618   392.5984    81.1588     0.0368     0.0356     0.0224     0.0000     0.0370     0.0359     0.2785    28.3984    28.5438    -0.0566     0.0000  3968.3335     0.0354     0.0699
   8638.5000  1950.0000    65.9156   516.7932   677.4370   779.1025  1950.0000    73.0624   274.3362   179.6108   139.7585  1950.0000    76.7533   298.7602   364.3080   266.1062   110.0738  1719.3297 -8996.7920  8212.6338 15116.4922   114.1647     0.0000    53.8672    53.8672    91.8511     0.0000    80.7478   392.6176    85.9913     0.0391     0.0402     0.0223     0.0000     0.0384     0.0395     0.2379    27.5735    27.8888    -0.0247     0.0000  3933.6252     0.0380     0.0757
   8639.0000  1950.0000    60.4139   521.1509   860.4305   887.7847  1950.0000    54.9348   208.4151   323.2831   272.8789  1950.0000    62.6154   301.3267   459.3459   290.1349   156.9703  1661.6975 -9002.8604  8414.5166 14974.3643   114.1647     0.0000    53.4375    53.4375    92.3735     0.0000    81.7999   392.6489    75.3636     0.0360     0.0361     0.0223     0.0000     0.0402     0.0424     0.2485    27.1324    27.3621    -0.0300     0.0000  3992.1875     0.0392     0.0706
   8639.5000  1950.0000    57.2757   607.9987   849.4490   807.2693  1950.0000    39.3357   138.2796   459.1372   378.0488  1950.0000    63.0856   308.6131   507.5705   396.5833   149.6390   880.8847 -8990.9619  8309.5322 15440.9033   114.1647     0.0000    51.9629    51.9629    92.8185     0.0000    83.2574   392.6668    83.8664     0.0385     0.0399     0.0223     0.0000     0.0391     0.0353     0.2718    26.9853    26.9010    -0.0486     0.0000  4041.8127     0.0381     0.0754
   8640.0000  1950.0000    52.7326   642.2803   652.4537   582.2753  1950.0000    55.6675    55.3772   386.7558   323.8954  1950.0000    58.7340   301.4522   391.8997   448.8124   130.2428  1114.8015 -8948.1240  8526.9766 15225.6875   114.1647     0.0000    52.5391    52.5391    94.4418     0.0000    91.3859   392.6927    90.0834     0.0393     0.0373     0.0223     0.0000     0.0382     0.0399     0.2759    26.8750    26.5164    -0.0412     0.0000  4017.4666     0.0371     0.0721
   8640.5000  1950.0000    51.8152   579.9296   455.4280   382.1999  1950.0000    83.4488   164.9524   245.8729   211.3578  1950.0000    69.6722   301.5497   266.5460   485.6133   147.5450   700.6347 -8929.0771  8924.3945 15473.3330   114.1647     0.0000    53.2715    53.2715    93.4688     0.0000    97.8881   392.6979    99.9275     0.0366     0.0333     0.0222     0.0000     0.0328     0.0362     0.2594    26.6176    26.1549    -0.0320     0.0000  3961.8125     0.0320     0.0671
   8641.0000  1950.0000    46.9391   440.0622   331.8849   262.8523  1950.0000   236.4894   148.3298   151.6880   137.2271  1950.0000    63.7874   351.4889   238.8146   576.2103   119.9378   410.3452 -8924.6309 10070.9785 15965.5283   114.1647     0.0000    53.4766    53.4766    94.5773     0.0000   107.5349   392.7344   103.6018     0.0205     0.0229     0.0222     0.0000     0.0281     0.0294     0.2650    25.8594    25.8565    -0.0295     0.0000  3990.4668     0.0262     0.0540
   8641.5000  1950.0000    41.1813   320.0811   245.0025   181.8544  1950.0000   130.1956   178.7237    93.2956    87.9533  1950.0000    45.4031   269.1907   227.9289   429.1703    86.3701   239.3862 -8907.0635 10836.2490 16738.2363   114.1647     0.0000    53.5547    53.5547    93.8486     0.0000   120.7259   392.7540   119.2813     0.0208     0.0216     0.0222     0.0000     0.0252     0.0227     0.2586    25.6250    25.5753    -0.0285     0.0000  4013.0000     0.0224     0.0523
   8642.0000  1950.0000    34.9725   230.5142   198.4871   136.2281   245.7911    30.1173    57.3012    48.3170    47.3467  1950.0000    29.9179   197.7254    76.5479   384.8595    48.2896   149.4437 -8903.8643 11120.8281 17603.6055   114.1647     0.0000    53.5547    53.5547    93.7392     0.0000   142.1461   392.7692   139.5005     0.0288     0.0238     0.0222     0.0000     0.0247     0.0170     0.2577    25.6250    25.3770    -0.0285     0.0000  4059.5002     0.0211     0.0551
   8642.5000  1950.0000    31.5660   175.6873   183.8349   113.9204   117.7371    16.1094    21.1678    34.5957    34.1268  1950.0000    21.7983    74.6807    70.3682   142.7013    34.5957   112.9504 -8895.6934 11537.1270 17960.8242   114.1647     0.0000    53.2715    53.2715    94.0438     0.0000   165.6656   392.7837   167.6335     0.0218     0.0215     0.0221     0.0000     0.0232     0.0168     0.2638    25.0735    25.2018    -0.0320     0.0000  4045.8667     0.0196     0.0523
   8643.0000  1950.0000    31.6640   159.0218   218.6538   121.3246    61.4263    11.2433    40.3963    34.6965    34.5175  1950.0000    18.4603    71.8007    99.3880   153.2540    34.6965    78.6930 -8890.3066 12322.0234 18051.1621   114.1647     0.0000    52.6758    52.6758    93.1638     0.0000   185.6942   392.7942   189.8630     0.0196     0.0166     0.0221     0.0000     0.0208     0.0163     0.2650    24.6094    25.0401    -0.0394     0.0000  3957.2500     0.0172     0.0462
   8643.5000  1950.0000    36.0024   170.5092   293.4690   143.8600    39.9352    11.6950    59.3646    39.6471    39.9239  1950.0000    21.5497   100.4289   128.6634   180.5054    39.6471    66.2991 -8913.9326 12537.8447 18284.1445   114.1647     0.0000    52.5000    52.5000    92.5784     0.0000   192.5362   392.8270   199.5018     0.0141     0.0155     0.0221     0.0000     0.0183     0.0140     0.2630    24.6324    24.9611    -0.0417     0.0000  3979.0002     0.0154     0.0448
   8644.0000  1950.0000    47.5369   219.1092   404.9071   192.2998    74.1209    19.8487   189.6488    69.4864    71.5136  1950.0000    29.9504   145.2842   188.0368   200.6355    69.4864    95.1881 -8844.6709 12662.1953 17994.8652   114.1647     0.0000    52.8320    52.8320    93.3095     0.0000   198.1628   392.8269   188.1593     0.0129     0.0137     0.0221     0.0000     0.0186     0.0191     0.2641    24.8162    24.8816    -0.0375     0.0000  4002.0000     0.0156     0.0427
   8644.5000  1950.0000    72.3953   375.0696   655.9658   340.7508    89.0099    39.5574   266.7003    58.8927    61.1167  1950.0000    46.3409   502.6230   907.3464   460.2193    58.8927   103.3544 -8865.4053 12485.1885 18541.4707   113.7323     0.0000    52.8711    52.8711    93.5215     0.0000   201.5746   392.8491   206.9783     0.0139     0.0169     0.0220     0.0000     0.0190     0.0141     0.2651    25.0000    24.8431    -0.0370     0.0000  4054.6250     0.0160     0.0466
   8645.0000  1950.0000   121.3703   636.7189  1867.2362   600.8837   327.3642   120.7443   280.0919   172.4867   183.0020  1950.0000    79.8380  1950.0000  1950.0000   264.9868   154.9975   215.5288 -8804.8818 12575.5635 18567.0625   113.8823     0.0000    52.6270    52.6270    93.4608     0.0000   206.7696   392.8720   209.8217     0.0213     0.0173     0.0220     0.0000     0.0190     0.0129     0.2679    25.0781    24.7062    -0.0401     0.0000  4029.3125     0.0152     0.0470
   8645.5000  1950.0000   232.7659  1460.9762  1950.0000  1301.0974   297.7360   130.2400   173.0711   172.5060   190.0815  1950.0000   150.9572  1950.0000  1235.8082   450.3722   172.5060   238.1749 -8867.9482 12995.5566 18512.7031   113.9251     0.0000    52.6172    52.6172    92.6756     0.0000   194.9055   392.8758   203.7442     0.0173     0.0135     0.0220     0.0000     0.0167     0.0135     0.2622    24.3750    24.5350    -0.0402     0.0000  3954.0667     0.0136     0.0424
   8646.0000  1950.0000   465.7531  1950.0000  1950.0000  1950.0000   636.5104   165.0663    96.5161   121.2008   124.9737  1950.0000   305.2776  1375.0450  1455.2267   371.4998   121.2008   315.2138 -8792.5547 13414.1240 18232.2285   113.1294     0.0000    52.5000    52.5000    92.3436     0.0000   177.2944   392.9051   170.6239     0.0133     0.0107     0.0219     0.0000     0.0149     0.0146     0.2612    24.3750    24.3840    -0.0417     0.0000  3928.2500     0.0116     0.0389
