~Version
 VERS              .         2.0                           : CWLS LOG ASCII STANDARD - VERSION 2.0
 WRAP              .         NO                            : ONE LINE PER DEPTH STEP
 DLM               .         SPACE                         : DELIMITING CHARACTER(SPACE TAB OR COMMA)
~Well Information
#_______________________________________________________________________________
#
#PARAMETER_NAME    .UNIT     VALUE                         : DESCRIPTION
#_______________________________________________________________________________
STRT               .ft       7493                          : First reference value
STOP               .ft       9543.25                       : Last reference value
STEP               .ft       0.25                          : Step increment
NULL               .         -9999                         : Missing value
COMP               .         University Of Utah            : Company
WELL               .         FORGE 78B-32                  : Well name
FLD                .         None                          : Field
LOC                .                                       : Location
CNTY               .         Beaver                        : County
STAT               .         Utah                          : State
CTRY               .         USA                           : Country
SRVC               .         Schlumberger                  : Service Company
DATE               .         19-Jul-2021                   : Date
API                .         NRC 42-00090-03               : API number
APD                .ft       29.5                          : Elevation of Depth Reference (LMF) Above Permanent Datum
BHS                .         OPEN                          : Borehole Status (Open or Cased Hole)
BHT                .degF     320.87                        : Bottom Hole Temperature
BLI                .ft       -999.25                       : Bottom Log Interval
BS                 .in       8.75                          : Bit Size
CBDR               .ft       2989                          : Casing Bottom of Driller
CBLO               .ft       2988                          : Logger Casing Shoe Depth
CSIZ               .in       11.75                         : Current Casing Size
CWEI               .lbm/ft   54                            : Casing Weight
DCS                .         19-Jul-2021                   : Date Circulation Stopped
DFD                .lbm/gal  8.3                           : Drilling Fluid Density
DFT                .         WATER                         : Drilling Fluid Type
DLAB               .         19-Jul-2021                   : Date Logger At Bottom
EDF                .ft       5536                          : Elevation of Drill Floor
EGL                .ft       5536                          : Elevation of Ground Level
EKB                .ft       5565.5                        : Elevation of Kelly Bushing
EPD                .ft       5536                          : Elevation of Permanent Datum (PDAT) above Mean Sea Level
LMF                .         KB                            : Logging Measured From (Name of Logging Elevation Reference)
LUL                .         F.Morgan                      : Logging Unit Location
LUN                .         9108                          : Logging Unit Number
LATI               .         38.500171 degrees             : Latitude
LONG               .         -112.88221 degrees            : Longitude
MCST               .degF     68                            : Mudcake Sample Temperature
MFST               .degF     68                            : Mud Filtrate Sample Temperature
MRT                .degF     321.43                        : Maximum Recorded Temperature
MST                .degF     68                            : Mud Sample Temperature
ORIGINALWELLNAME   .         FORGE 78B-32                  : 
PDAT               .         GL                            : Permanent Datum
PRODUCER-CODE      .         440                           : 
PRODUCER-NAME      .         Schlumberger                  : 
RMB                .ohm.m    0.04564156                    : Resistivity of Mud at Bottom Hole Temperature
RMCS               .ohm.m    -999.25                       : Resistivity of Mud Cake Sample
RMFS               .ohm.m    0.15                          : Resistivity of Mud Filtrate Sample
RMS                .ohm.m    0.2                           : Resistivity of Mud Sample
RUN                .         1A                            : Run Number
TCS                .         03_00_00                      : Time Circulation Stopped
TDD                .ft       8540                          : Driller Total Depth
TDL                .ft       8540                          : Logger Total Depth
TLAB               .         07_53_00                      : Time Logger At Bottom
TLI                .ft       -999.25                       : Top Log Interval
~Parameter Information Block
#_______________________________________________________________________________
#
#PARAMETER_NAME    .UNIT     VALUE                         : DESCRIPTION
#_______________________________________________________________________________
SET                .         QSLT                          : 
TLFamily_AT10      .         Resistivity - Induction Array 10: 
TLFamily_AT20      .         Resistivity - Induction Array 20: 
TLFamily_AT30      .         Resistivity - Induction Array 30: 
TLFamily_AT60      .         Resistivity - Induction Array 60: 
TLFamily_AT90      .         Resistivity - Induction Array 90: 
TLFamily_BS        .         Bit Size                      : 
TLFamily_DTCO_FINAL .         Compressional Slowness        : 
TLFamily_DTSH_FINAL .         Shear Slowness                : 
TLFamily_GR_STGC   .         Gamma Ray                     : 
TLFamily_HDAR      .         Borehole Diameter             : 
TLFamily_PR        .         Poisson Ratio (Dynamic)       : 
TLFamily_SPHI      .         Total Porosity                : 
TLFamily_TDEP      .         Measured Depth                : 
TLFamily_TENS      .         Tension                       : 
TLFamily_TNPH      .         Thermal Neutron Porosity      : 
TLFamily_VPVS      .         VpVs (Compressional To Shear) Ratio: 
~Curve Information
#_______________________________________________________________________________
#
#LOGNAME           .UNIT     LOG_ID                        : DESCRIPTION
#_______________________________________________________________________________
TDEP               .ft                                     : Measured Depth 
AT10               .ohm.m                                  : Array Induction Two Foot Resistivity A10 
AT20               .ohm.m                                  : Array Induction Two Foot Resistivity A20 
AT30               .ohm.m                                  : Array Induction Two Foot Resistivity A30 
AT60               .ohm.m                                  : Array Induction Two Foot Resistivity A60 
AT90               .ohm.m                                  : Array Induction Two Foot Resistivity A90 
BS                 .in                                     : Bit Size 
DTCO_FINAL         .us/ft                                  : Compressional Slowness 
DTSH_FINAL         .us/ft                                  : Shear Slowness 
GR_STGC            .gAPI                                   : Gamma Ray 
HDAR               .in                                     : Hole Diameter from Area 
PR                 .unitless                               : Possion's Ratio 
SPHI               .ft3/ft3                                : Total porosity from Sonic 
TENS               .lbf                                    : Cable Tension 
TNPH               .ft3/ft3                                : Thermal Neutron Porosity (Ratio Method) in Selected Lithology 
VPVS               .unitless                               : VpVs Ratio 
~Ascii
# ...
7769       0.3119512  1950       1950       5.817237   26.41479   10.625     56.3466    95.67378   102.9331   10.625     0.2344717  0.06252014 3746.333   0.0527808  1.697951  
7769.25    0.3118042  1950       1950       5.974769   29.01651   10.625     56.41255   95.73755   101.7068   10.625     0.234062   0.0629862  3740.333   0.05274259 1.697097  
7769.5     0.3119659  1950       1950       6.140702   32.43286   10.625     56.47607   95.77921   100.4804   10.625     0.2334988  0.0634351  3734.333   0.05270437 1.695926  
7769.75    0.3120537  1950       1950       6.301997   36.70598   10.625     56.53499   95.81962   100.0732   10.625     0.2329907  0.06385154 3729.167   0.05206455 1.694873  
7770       0.311605   1950       1950       6.443542   41.80006   10.625     56.56757   95.88315   99.66599   10.625     0.2330617  0.06408177 3724       0.05142474 1.69502   
7770.25    0.3102229  1950       1950       6.550716   47.40701   10.625     56.54512   95.98676   99.06171   10.625     0.2342675  0.06392314 3732.375   0.05394454 1.697525  
7770.5     0.307705   1950       1950       6.612743   52.97071   10.625     56.4564    96.12527   98.45742   10.625     0.2367041  0.0632961  3740.75    0.05646433 1.702646  
7770.75    0.3041075  1950       1950       6.626363   57.66541   10.625     56.31604   96.26921   98.76759   10.625     0.2398819  0.0623042  3740.875   0.05899711 1.709446  
7771       0.2997381  1950       1950       6.597583   60.99649   10.625     56.14632   96.38233   99.07775   10.625     0.2431697  0.06110474 3741       0.06152989 1.716628  
7771.25    0.2950847  1950       1950       6.539336   63.05232   10.625     55.95834   96.44855   99.76253   10.625     0.2462857  0.05977625 3740.167   0.05993555 1.723578  
7771.5     0.2907016  1950       1950       6.466228   64.18705   10.625     55.75308   96.48348   100.4473   10.625     0.2493486  0.05832567 3739.333   0.05834121 1.73055   
7771.75    0.2870858  1950       1950       6.390315   64.56119   10.625     55.53795   96.52047   101.6251   10.625     0.2525197  0.05680532 3737       0.05832579 1.737919  
7772       0.2845803  1950       1950       6.320335   64.0761    10.625     55.33744   96.58585   102.8028   10.625     0.2556702  0.05538825 3734.667   0.05831037 1.745398  
7772.25    0.283324   1950       1950       6.262813   62.73198   10.625     55.18534   96.6816    103.6254   10.625     0.2583731  0.05431339 3732       0.05974241 1.751943  
7772.5     0.2832479  1950       1950       6.222194   60.45748   10.625     55.10564   96.78264   104.448    10.625     0.260149   0.05375014 3729.333   0.06117445 1.756311  
7772.75    0.2841143  1950       1950       6.199526   56.98519   10.625     55.10557   96.84846   104.293    10.625     0.2606319  0.05374959 3747.042   0.06328316 1.757508  
7773       0.2855771  1950       1950       6.191987   52.47795   10.625     55.17579   96.84353   104.138    10.625     0.259692   0.05424583 3764.75    0.06539188 1.755182  
7773.25    0.2872461  1950       1950       6.195082   47.41616   10.625     55.30125   96.75669   102.8373   10.625     0.2574232  0.05513254 3775.042   0.06277536 1.749629  
7773.5     0.2887542  1950       1950       6.206162   42.40693   10.625     55.46806   96.60903   101.5367   10.625     0.2541231  0.0563114  3785.333   0.06015883 1.741706  
7773.75    0.2898402  1950       1950       6.226262   37.96381   10.625     55.66272   96.44327   99.8097    10.625     0.2502534  0.05768709 3801.333   0.05775921 1.732637  
7774       0.2904272  1950       1950       6.259288   34.37633   10.625     55.86033   96.29845   98.08273   10.625     0.2464352  0.05908362 3817.333   0.05535959 1.723915  
7774.25    0.2906555  1950       1950       6.310416   31.7304    10.625     56.02224   96.18696   95.63484   10.625     0.2433122  0.06022782 3822.667   0.05630833 1.716943  
7774.5     0.2908465  1950       1950       6.385402   29.99051   10.625     56.11427   96.09216   93.18695   10.625     0.2412599  0.06087823 3828       0.05725706 1.712437  
7774.75    0.291408   1950       1950       6.490025   29.14765   10.625     56.13051   95.98692   91.31771   10.625     0.2401691  0.06099302 3825.667   0.05552502 1.710067  
7775       0.2927073  1950       1950       6.628177   29.20897   10.625     56.09202   95.8502    89.44847   10.625     0.2395843  0.06072098 3823.333   0.05379298 1.708803  
7775.25    0.2949532  1950       1950       6.798771   30.17976   10.625     56.02253   95.66919   88.52925   10.625     0.2390682  0.06022992 3835.542   0.05405616 1.707691  
7775.5     0.2981191  1950       1950       6.993217   32.12016   10.625     55.93399   95.44079   87.61003   10.625     0.238425   0.05960417 3847.75    0.05431934 1.706311  
7775.75    0.3019185  1950       1950       7.194861   35.12012   10.625     55.83627   95.18585   87.53473   10.625     0.2376856  0.05891359 3847.542   0.0488763  1.704731  
7776       0.3058242  1950       1950       7.380744   39.29029   10.625     55.74459   94.95564   87.45943   10.625     0.2370622  0.05826563 3847.333   0.04343326 1.703405  
7776.25    0.3091398  1950       1950       7.525404   44.75058   10.625     55.67488   94.8126    86.64909   10.625     0.2368564  0.05777301 3848.5     0.04373626 1.702969  
7776.5     0.3111557  1950       1950       7.606526   51.49277   10.625     55.63333   94.80087   85.83876   10.625     0.2373561  0.05747935 3849.667   0.04403925 1.70403   
7776.75    0.3113573  1950       1950       7.611324   59.27797   10.625     55.61684   94.93056   84.76517   10.625     0.2386844  0.05736283 3863.333   0.04483079 1.706867  
7777       0.3095917  1950       1950       7.541265   67.59782   10.625     55.61953   95.17669   83.69157   10.625     0.2406961  0.05738183 3877       0.04562233 1.71121   
7777.25    0.3061144  1950       1950       7.412121   75.80069   10.625     55.63524   95.47865   84.19048   10.625     0.2429551  0.05749288 3868.167   0.05125079 1.716154  
7777.5     0.301504   1950       1950       7.248692   83.41602   10.625     55.65693   95.74758   84.68939   10.625     0.2448319  0.05764611 3859.333   0.05687924 1.720317  
7777.75    0.2964958  1950       1950       7.076797   90.5095    10.625     55.67605   95.89781   85.49989   10.625     0.2457732  0.05778126 3859       0.05743774 1.722425  
7778       0.2918071  1950       1950       6.916672   98.01571   10.625     55.68653   95.88929   86.31039   10.625     0.2455605  0.05785534 3858.667   0.05799625 1.721948  
7778.25    0.2880102  1950       1950       6.780512   106.7869   10.625     55.68722   95.75119   87.3333    10.625     0.244441   0.05786022 3841.583   0.05328558 1.719446  
7778.5     0.2854733  1950       1950       6.673796   117.7435   10.625     55.6832    95.56584   88.35622   10.625     0.2429948  0.05783184 3824.5     0.04857492 1.716242  
7778.75    0.2843655  1950       1950       6.598047   132.4878   10.625     55.68219   95.42587   88.07595   10.625     0.2418649  0.05782469 3807.25    0.04772551 1.713759  
7779       0.2846965  1950       1950       6.552655   153.6885   10.625     55.68958   95.39013   87.79568   10.625     0.2414675  0.05787686 3790       0.0468761  1.71289   
7779.25    0.2863608  1950       1950       6.53539    184.9507   10.625     55.7058    95.4654    88.81207   10.625     0.2418574  0.05799149 3788.5     0.04891943 1.713743  
7779.5     0.2891769  1950       1950       6.54313    229.3014   10.625     55.72735   95.61685   89.82845   10.625     0.2427933  0.05814381 3787       0.05096276 1.715798  
7779.75    0.2929161  1950       1950       6.573817   290.3829   10.625     55.74865   95.7915    89.75735   10.625     0.2439139  0.05829434 3782.667   0.05264524 1.718275  
7780       0.2973125  1950       1950       6.628407   377.7867   10.625     55.76485   95.93901   89.68624   10.625     0.2448782  0.05840884 3778.333   0.05432772 1.720421  
7780.25    0.3020723  1950       1950       6.710475   500.5064   10.625     55.77439   96.02039   90.23794   10.625     0.2453991  0.05847624 3773.833   0.05522527 1.721586  
