~VERSION INFORMATION
VERS.           1.2   :CWLS Log ASCII Standard - VERSION 1.2
WRAP.           NO    :One Line per depth step
PROD.  Schlumberger   :LAS Producer
PROG.  DLIS to ASCII 2.3                               :LAS Program name and version
CREA.        2021/07/30 13:36                          :LAS Creation date {YYYY/MM/DD hh:mm}
DLIS_CREA.  2021-Jul-30 07:08                          :DLIS Creation date and time {YYYY-MMM-DD hh:mm}
SOURCE.     6d1d3df9-7549-4232-acfc-119b5b71a716       :DLIS File Name
#--------------------------------------------------
~WELL INFORMATION
#MNEM.UNIT      DATA             DESCRIPTION
#---- ------ --------------   -----------------------------
STRT .F      7447.0000       :START DEPTH     
STOP .F      9553.0000       :STOP DEPTH     
STEP .F       0.5000         :STEP       
NULL .          -999.25      :NULL VALUE
COMP .                 COMPANY:  University Of Utah                 
WELL .                    WELL:  FORGE 78B-32                       
FLD  .                   FIELD:  None                               
LOC  .                LOCATION:  Lat: 38.500171, Long: -112.88221   
CNTY .                  COUNTY:  Beaver                             
STAT .                   STATE:  Utah                               
CTRY .                 COUNTRY:                                     
SRVC .         SERVICE COMPANY:  Schlumberger                       
LATI .DEG             LATITUDE:  38 30' 0.616" N                   
LONG .DEG            LONGITUDE:  112 52' 55.956" W                 
API  .              API NUMBER:  NRC 42-00090-03                    
DATE .                LOG DATE:  30-Jul-2021
UWI  .          UNIQUE WELL ID:                                     
#-----------------------------------------------------------------------------
~PARAMETER INFORMATION
#MNEM.UNIT    VALUE                      DESCRIPTION
#---- -----   --------------------       ------------------------
CN   .        University Of Utah         :Company Name
WN   .        FORGE 78B-32               :Well Name
FN   .        None                       :Field Name
FL   .        Lat  38.500171  Long  -112.88221 :Field Location
FL1  .                                   :Field Location, Line 1
COUN .        Beaver                     :County or Parish
STAT .        Utah                       :State or Province
NATI .                                   :Nation
DATE .        30-Jul-2021                :Tools Above Rotary Table Date
APIN .        NRC 42-00090-03            :API Well Number
SECT .                                   :Section
TOWN .                                   :Township
RANG .                                   :Range
DMF  .        KB                         :Drilling Measured From (Name of Drilling Elevation Reference)
LMF  .        KB                         :Logging Measured From (Name of Logging Elevation Reference)
PDAT .        GL                         :Permanent Datum
ENGI .        CSTILES                    :Engineer s Name
WITN .        Virgil  Welch              :Witness s Name
LATI .        38� 30' 0.616  N           :Latitude
LONG .        112� 52' 55.956  W         :Longitude
LUL  .        F.Morgan                   :Logging Unit Location
LUN  .        9108                       :Logging Unit Number
RUN  .        1B                         :Run Number
SON  .                                   :Service Order Number
BHT  .DEGF     419.00000                 :Bottom Hole Temperature
BS   .IN         5.75000                 :Bit Size
MDEN .G/C3       2.71000                 :Matrix Density for Density Porosity
DFD  .LB/G       8.30000                 :Drilling Fluid Density
DFV  .S         24.00000                 :Drilling Fluid Viscosity
DFL  .C3      -999.25000                 :Drilling Fluid Loss
RMFS .OHMM       4.42000                 :Resistivity of Mud Filtrate Sample
EKB  .F       5565.50000                 :Elevation of Kelly Bushing
EGL  .F       5536.00000                 :Elevation of Ground Level
BLI  .F       9532.00000                 :Bottom Log Interval
BSAL .PPM      700.00000                 :Borehole Salinity
FLEV .F          8.00000                 :Depth of Drilling Fluid Level to LMF (Log Measured From)
MCST .DEGF      62.00000                 :Mudcake Sample Temperature
MFST .DEGF      62.00000                 :Mud Filtrate Sample Temperature
MRT  .DEGF     419.00000                 :Maximum Recorded Temperature
MST  .DEGF      62.00000                 :Mud Sample Temperature
RMCS .OHMM       6.21000                 :Resistivity of Mud Cake Sample
RMS  .OHMM       5.20000                 :Resistivity of Mud Sample
RW   .OHMM       1.00000                 :Connate Water Resistivity
TDD  .F       9500.00000                 :Driller Total Depth
TDL  .F       9532.00000                 :Logger Total Depth
TLI  .F       8530.00000                 :Top Log Interval
HIDE .                                   :Header Identifier
MATR .        LIME                       :Rock Matrix for Neutron Porosity Corrections
FNUM .           1.00000                 :F-Numerator for Formation Factor Formula
FEXP .           2.00000                 :Exponent "m" for Formation Factor Formula
DFT  .        WATER                      :Drilling Fluid Type
DFPH .          11.00000                 :Drilling Fluid pH
MCSS .        Calculated                 :Mudcake Sample Source
MFSS .        Calculated                 :Mud Filtrate Sample Source
FD   .G/C3       1.00000                 :Fluid Density
MSS  .        Flowline                   :Mud Sample Source
OS1  .                                   :Other Services Line 1
OS2  .                                   :Other Services Line 2
OS3  .                                   :Other Services Line 3
OS4  .                                   :Other Services Line 4
OS5  .                                   :Other Services Line 5
R1   .                                   :Remarks Line 1
R2   .                                   :Remarks Line 2
R3   .                                   :Remarks Line 3
R4   .                                   :Remarks Line 4
R5   .                                   :Remarks Line 5
R6   .        Tool was run as per tool sketch :Remarks Line 6
R7   .        All logging intervals as per client request :Remarks Line 7
R8   .                                   :Remarks Line 8
TCS  .        20 00 00                   :Time Circulation Stopped
TLAB .        02 17 00                   :Time Logger At Bottom
NMT  .        NOBARITE                   :HRDD Mud Type for Nuclear Devices
EPD  .C3         5536.000000             :Elevation of Permanent Datum above Mean Sea Level
APD  .F          29.500000               :Elevation of Depth Reference (LMF) above Permanent Datum
#-----------------------------------------------------------------------------
~CURVE INFORMATION
#MNEM.UNIT   API CODE                                  DESCRIPTION
#---- -----  --------                                  -----------------------
DEPT .F                                                :DEPTH (BOREHOLE) {F12.4}
AF10 .OHMM                                             :Array Induction Four Foot Resistivity A10 {F11.4}
AF20 .OHMM                                             :Array Induction Four Foot Resistivity A20 {F11.4}
AF30 .OHMM                                             :Array Induction Four Foot Resistivity A30 {F11.4}
AF60 .OHMM                                             :Array Induction Four Foot Resistivity A60 {F11.4}
AF90 .OHMM                                             :Array Induction Four Foot Resistivity A90 {F11.4}
AO10 .OHMM                                             :Array Induction One Foot Resistivity A10 {F11.4}
AO20 .OHMM                                             :Array Induction One Foot Resistivity A20 {F11.4}
AO30 .OHMM                                             :Array Induction One Foot Resistivity A30 {F11.4}
AO60 .OHMM                                             :Array Induction One Foot Resistivity A60 {F11.4}
AO90 .OHMM                                             :Array Induction One Foot Resistivity A90 {F11.4}
AT10 .OHMM                                             :Array Induction Two Foot Resistivity A10 {F11.4}
AT20 .OHMM                                             :Array Induction Two Foot Resistivity A20 {F11.4}
AT30 .OHMM                                             :Array Induction Two Foot Resistivity A30 {F11.4}
AT60 .OHMM                                             :Array Induction Two Foot Resistivity A60 {F11.4}
AT90 .OHMM                                             :Array Induction Two Foot Resistivity A90 {F11.4}
AORT .OHMM                                             :Array Induction One Foot Rt {F11.4}
AORX .OHMM                                             :Array Induction One Foot Rxo {F11.4}
CDF  .LBF                                              :Calibrated Downhole Force {F11.4}
CFTC .HZ                                               :Corrected Far Thermal Count Rate {F11.4}
CNTC .HZ                                               :Corrected Near Thermal Count Rate {F11.4}
CTEM .DEGF                                             :Cartridge Temperature {F11.4}
DCAL .IN                                               :Differential Caliper {F11.4}
DT   .US/F                                             :Delta-T (also called Slowness or Interval Transit Time) {F11.4}
DTCO .US/F                                             :Delta-T Compressional {F11.4}
DTSM .US/F                                             :Delta-T Shear {F11.4}
ED   .F                                                :East Departure {F11.4}
GR_STGC.GAPI                                           :Gamma Ray {F11.4}
GTEM .DEGF                                             :Generalized Borehole Temperature {F11.4}
HGR_STGC.GAPI                                          :High Resolution Gamma Ray {F11.4}
HNPO .CFCF                                             :High Resolution Enhanced Thermal Neutron Porosity in Selected Lithology {F11.4}
HTNP .CFCF                                             :High Resolution Thermal Neutron Porosity (Ratio Method) in Selected Lithology {F11.4}
ITT  .S                                                :Integrated Transit Time {F11.4}
ND   .F                                                :North Departure {F11.4}
NPHI .CFCF                                             :Thermal Neutron Porosity (original Ratio Method) in Selected Lithology {F11.4}
NPOR .CFCF                                             :Enhanced Thermal Neutron Porosity in Selected Lithology {F11.4}
PR   .                                                 :Poisson s Ratio {F11.4}
SP   .MV                                               :Spontaneous Potential {F11.4}
SPAR .MV                                               :SP, Armor Return Compensated {F11.4}
SPHI .CFCF                                             :Sonic Porosity {F11.4}
STIT .F                                                :Stuck Tool Indicator, Total {F11.4}
TENS .LBF                                              :Cable Tension {F11.4}
TNPH .CFCF                                             :Thermal Neutron Porosity (Ratio Method) in Selected Lithology {F11.4}
HTNP_SAN.CFCF                                          :HiRes Thermal Neutron Porosity (matrix Sandstone) {F11.4}
#-----------------------------------------------------------------------------
# 
#      DEPT        AF10       AF20       AF30       AF60       AF90       AO10       AO20       AO30       AO60       AO90       AT10       AT20       AT30       AT60       AT90       AORT       AORX       CDF        CFTC       CNTC       CTEM       DCAL        DT        DTCO       DTSM        ED      GR_STGC      GTEM     HGR_STGC     HNPO       HTNP       ITT         ND        NPHI       NPOR        PR         SP        SPAR       SPHI       STIT       TENS       TNPH     HTNP_SAN
#
~A  
# ...
   8008.0000     0.3171  1950.0000  1950.0000     6.8100    45.7483     0.3036  1950.0000    29.6109     1.8246     2.4795     0.3074  1950.0000  1950.0000     6.8168    34.1609     1.8513     0.3102 10287.0215  2122.2605  5941.1758   139.8588     0.0000    60.7227    60.7227    95.6618     0.0000    58.4902   365.2421    57.1590     0.0706     0.0754     0.0867     0.0000     0.0470     0.0578     0.1626   -33.7500   -33.4581     0.0486     0.0000  3880.0000     0.0713     0.1206
   8008.5000     0.3187  1950.0000  1950.0000     6.9317    44.6167     0.2937  1950.0000    23.7733     1.7705     2.4210     0.3078  1950.0000  1950.0000     6.9203    33.6626     1.8654     0.3110  3957.1523  2044.7668  5604.4131   139.8588     0.0000    67.7148    67.7148    95.7527     0.0000    56.5488   365.2589    56.8206     0.0928     0.0788     0.0867     0.0000     0.0425     0.0667     0.1364   -33.7500   -33.5149     0.1081     0.0000  3926.0002     0.0693     0.1248
   8009.0000     0.3204  1950.0000  1950.0000     6.9813    42.6040     0.3106  1950.0000    28.1668     1.8372     2.5354     0.3096  1950.0000  1950.0000     6.9978    37.3628     1.8945     0.3129 -1467.3010  2094.2490  5250.3418   139.8588     0.0000    60.5469    60.5469    91.4814     0.0000    56.2433   365.2756    55.5806     0.0797     0.0642     0.0867     0.0000     0.0356     0.0776     0.1102   -33.7500   -33.4144     0.0469     0.0000  3925.0000     0.0676     0.1064
   8009.5000     0.3222  1950.0000  1950.0000     6.9588    40.1684     0.3131  1950.0000    44.8679     1.9262     2.6325     0.3130  1950.0000  1950.0000     7.0469    47.2466     1.9411     0.3162   791.9718  2132.6804  5239.2183   139.8588     0.0000    52.2070    52.2070    90.1747     0.0000    58.1738   365.2898    56.2427     0.0666     0.0594     0.0866     0.0000     0.0396     0.0739     0.2479   -33.7500   -33.4007    -0.0454     0.0000  3976.0000     0.0688     0.1002
   8010.0000     0.3241  1950.0000  1950.0000     6.8751    37.7640     0.3196  1950.0000    67.2411     1.9276     2.5803     0.3176  1950.0000  1950.0000     7.0114    66.1609     2.0027     0.3202 -9999.9999  1846.8893  5424.1499   139.8588     0.0000    51.6602    51.6602    90.5642     0.0000    60.1601   365.2863    62.6982     0.1167     0.0953     0.0866     0.0000     0.0445     0.0664     0.2588   -33.7500   -33.2004    -0.0525     0.0000  3997.0002     0.0715     0.1454
   8010.5000     0.3259  1950.0000  1950.0000     6.7470    35.7319     0.3293  1950.0000    59.2223     2.0507     2.7602     0.3222  1950.0000  1950.0000     6.8577    90.3928     2.0707     0.3240 -9999.9999  1924.3203  5293.4316   139.8588     0.0000    53.2227    53.2227    95.8804     0.0000    62.3066   365.2818    61.4036     0.0850     0.0757     0.0866     0.0000     0.0497     0.0747     0.2773   -33.3333   -33.0104    -0.0326     0.0000  4004.0000     0.0758     0.1209
   8011.0000     0.3275  1950.0000  1950.0000     6.5940    34.2603     0.3427  1950.0000    31.9509     2.3380     3.3087     0.3255  1950.0000  1950.0000     6.6358    98.7261     2.1315     0.3268 -9999.9999  1951.2998  5285.2524   139.8588     0.0000    52.3633    52.3633    95.8835     0.0000    63.4278   365.3031    62.6822     0.0483     0.0687     0.0865     0.0000     0.0477     0.0815     0.2875   -32.8125   -32.7448    -0.0434     0.0000  4051.9998     0.0797     0.1121
   8011.5000     0.3290  1950.0000  1950.0000     6.4307    33.3889     0.3406  1950.0000    17.5185     2.4012     3.6269     0.3272  1950.0000  1950.0000     6.4280    79.2088     2.1720     0.3286 -9999.9999  1789.1742  5085.9551   139.8588     0.0000    56.6211    56.6211    93.2481     0.0000    67.3692   365.3245    66.0617     0.0841     0.0849     0.0865     0.0000     0.0493     0.0921     0.2080   -32.0833   -32.3382     0.0069     0.0000  4036.0002     0.0799     0.1325
   8012.0000     0.3307  1950.0000  1950.0000     6.2600    33.0227     0.3183  1950.0000    13.2149     2.2406     3.4850     0.3284  1950.0000  1950.0000     6.2629    53.4374     2.1900     0.3302 -9999.9999  1962.3279  5542.3027   139.8588     0.0000    70.0000    70.0000    89.4391     0.0000    73.1767   365.3253    73.3638     0.0759     0.0768     0.0865     0.0000     0.0479     0.0714     0.2070   -31.6667   -31.9364     0.1250     0.0000  4135.0000     0.0763     0.1224
   8012.5000     0.3330  1950.0000  1950.0000     6.0734    32.9490     0.3096  1950.0000    14.7395     2.1837     3.4213     0.3306  1950.0000  1950.0000     6.1015    34.8719     2.1988     0.3327  5878.2690  2127.1907  5622.0806   139.8588     0.0000    77.5000    77.5000    93.9786     0.0000    80.8579   365.3367    80.1045     0.0637     0.0656     0.0865     0.0000     0.0429     0.0656  -999.2500   -31.2500   -31.5598     0.1734     0.0000  4021.0000     0.0696     0.1082
   8013.0000     0.3356  1950.0000  1950.0000     5.8618    32.8771     0.3342  1950.0000    24.6702     2.1168     3.2876     0.3345  1950.0000  1950.0000     5.8881    23.6169     2.2231     0.3367   791.3157  2140.0239  5564.5591   139.8588     0.0000    66.8848    66.8848    93.8967     0.0000    87.6101   365.3489    89.1055     0.0534     0.0637     0.0864     0.0000     0.0358     0.0697  -999.2500   -31.2500   -31.2107     0.1017     0.0000  3989.0002     0.0649     0.1057
   8013.5000     0.3383  1950.0000  1950.0000     5.6292    32.5394     0.3626  1950.0000    61.4165     1.9672     2.9891     0.3396  1950.0000  1950.0000     5.6069    17.1881     2.2869     0.3419 -9493.0537  2341.6038  5787.5229   139.8588     0.0000    55.7324    55.7324    91.3969     0.0000    94.6791   365.3580    92.9032     0.0545     0.0580     0.0864     0.0000     0.0280     0.0570     0.2040   -31.0938   -30.8541    -0.0030     0.0000  3955.9998     0.0564     0.0985
   8014.0000     0.3407  1950.0000  1950.0000     5.4004    31.8449     0.3558  1950.0000   214.4885     2.0226     3.0998     0.3452  1950.0000  1950.0000     5.2923    13.4201     2.3977     0.3480     0.0000  2643.8740  5922.0283   139.8588     0.0000    73.3789    73.3789    93.7835     0.0000    97.3157   365.3809   101.3113     0.0491     0.0457     0.0864     0.0000     0.0227     0.0443     0.1991   -30.4167   -30.3725     0.1480     0.0000  3940.0002     0.0474     0.0828
   8014.5000     0.3425  1950.0000  1950.0000     5.2178    30.9709     0.3361  1950.0000   684.1965     2.5555     4.3084     0.3520  1950.0000  1950.0000     5.0013    11.0632     2.5246     0.3552  1582.6860  2634.2874  6119.7373   139.8588     0.0000   102.6465   102.6465    92.4218     0.0000    97.7163   365.3996    97.0155     0.0428     0.0440     0.0863     0.0000     0.0155     0.0293  -999.2500   -29.5833   -29.8506     0.2840     0.0000  3926.0002     0.0398     0.0806
   8015.0000     0.3439  1950.0000  1950.0000     5.1339    30.2969     0.3433  1950.0000   296.4570     3.7094     7.8797     0.3609  1950.0000  1950.0000     4.7880     9.4438     2.5813     0.3635  7121.8682  2759.3601  5762.4443   139.8588     0.0000   115.6348   115.6348    92.1815     0.0000    94.8288   365.3748    94.8221     0.0411     0.0356     0.0863     0.0000     0.0171     0.0402  -999.2500   -29.3750   -29.5241     0.3223     0.0000  3885.0002     0.0423     0.0699
   8015.5000     0.3450  1950.0000  1950.0000     5.2057    30.3501     0.3798  1950.0000    88.2584     4.5921    10.9253     0.3720  1950.0000  1950.0000     4.7110     8.2187     2.4633     0.3727 -7344.5288  2342.1772  5443.4150   139.8588     0.0000   117.0117   117.0117    89.5751     0.0000    93.8229   365.3992    92.6488     0.0495     0.0502     0.0862     0.0000     0.0148     0.0511  -999.2500   -29.3750   -29.1209     0.3259     0.0000  3834.0002     0.0445     0.0885
   8016.0000     0.3463  1047.2500  1950.0000     5.5216    32.2355     0.4132  1950.0000    36.0565     3.4833     6.0376     0.3837  1950.0000  1950.0000     4.8342     7.2524     2.1627     0.3822 -3164.3877  2395.1836  5266.0132   139.8588     0.0000   114.0137   114.0137    92.0841     0.0000    90.7924   365.4145    93.9979     0.0377     0.0421     0.0862     0.0000     0.0156     0.0601  -999.2500   -28.5938   -28.8361     0.3180     0.0000  3793.0002     0.0472     0.0782
