~VERSION INFORMATION
VERS.           1.2   :CWLS Log ASCII Standard - VERSION 1.2
WRAP.           NO    :One Line per depth step
PROD.  Schlumberger   :LAS Producer
PROG.  DLIS to ASCII 2.3                               :LAS Program name and version
CREA.        2021/07/30 13:36                          :LAS Creation date {YYYY/MM/DD hh:mm}
DLIS_CREA.  2021-Jul-30 07:08                          :DLIS Creation date and time {YYYY-MMM-DD hh:mm}
SOURCE.     9adb19af-6988-40d6-a86c-1e71535bb624       :DLIS File Name
#--------------------------------------------------
~WELL INFORMATION
#MNEM.UNIT      DATA             DESCRIPTION
#---- ------ --------------   -----------------------------
STRT .F        5785.0000     :START DEPTH     
STOP .F        9045.0000     :STOP DEPTH     
STEP .F           0.5000       :STEP     
NULL .          -999.25      :NULL VALUE
COMP .                 COMPANY:  University Of Utah                 
WELL .                    WELL:  FORGE 78B-32                       
FLD  .                   FIELD:  None                               
LOC  .                LOCATION:  Lat: 38.500171, Long: -112.88221   
CNTY .                  COUNTY:  Beaver                             
STAT .                   STATE:  Utah                               
CTRY .                 COUNTRY:                                     
SRVC .         SERVICE COMPANY:  Schlumberger                       
LATI .DEG             LATITUDE:  38 30' 0.616" N                   
LONG .DEG            LONGITUDE:  112 52' 55.956" W                 
API  .              API NUMBER:  NRC 42-00090-03                    
DATE .                LOG DATE:  30-Jul-2021
UWI  .          UNIQUE WELL ID:                                     
#-----------------------------------------------------------------------------
~PARAMETER INFORMATION
#MNEM.UNIT    VALUE                      DESCRIPTION
#---- -----   --------------------       ------------------------
CN   .        University Of Utah         :Company Name
WN   .        FORGE 78B-32               :Well Name
FN   .        None                       :Field Name
FL   .        Lat  38.500171  Long  -112.88221 :Field Location
FL1  .                                   :Field Location, Line 1
COUN .        Beaver                     :County or Parish
STAT .        Utah                       :State or Province
NATI .                                   :Nation
DATE .        30-Jul-2021                :Tools Above Rotary Table Date
APIN .        NRC 42-00090-03            :API Well Number
SECT .                                   :Section
TOWN .                                   :Township
RANG .                                   :Range
DMF  .        KB                         :Drilling Measured From (Name of Drilling Elevation Reference)
LMF  .        KB                         :Logging Measured From (Name of Logging Elevation Reference)
PDAT .        GL                         :Permanent Datum
ENGI .        CSTILES                    :Engineer s Name
WITN .        Virgil  Welch              :Witness s Name
LATI .        38� 30' 0.616  N           :Latitude
LONG .        112� 52' 55.956  W         :Longitude
LUL  .        F.Morgan                   :Logging Unit Location
LUN  .        9108                       :Logging Unit Number
RUN  .        1B                         :Run Number
SON  .                                   :Service Order Number
BHT  .DEGF     419.00000                 :Bottom Hole Temperature
BS   .IN         5.75000                 :Bit Size
MDEN .G/C3       2.71000                 :Matrix Density for Density Porosity
DFD  .LB/G       8.30000                 :Drilling Fluid Density
DFV  .S         24.00000                 :Drilling Fluid Viscosity
DFL  .C3      -999.25000                 :Drilling Fluid Loss
RMFS .OHMM       4.42000                 :Resistivity of Mud Filtrate Sample
EKB  .F       5565.50000                 :Elevation of Kelly Bushing
EGL  .F       5536.00000                 :Elevation of Ground Level
BLI  .F       9532.00000                 :Bottom Log Interval
BSAL .PPM      700.00000                 :Borehole Salinity
FLEV .F          8.00000                 :Depth of Drilling Fluid Level to LMF (Log Measured From)
MCST .DEGF      62.00000                 :Mudcake Sample Temperature
MFST .DEGF      62.00000                 :Mud Filtrate Sample Temperature
MRT  .DEGF     419.00000                 :Maximum Recorded Temperature
MST  .DEGF      62.00000                 :Mud Sample Temperature
RMCS .OHMM       6.21000                 :Resistivity of Mud Cake Sample
RMS  .OHMM       5.20000                 :Resistivity of Mud Sample
RW   .OHMM       1.00000                 :Connate Water Resistivity
TDD  .F       9500.00000                 :Driller Total Depth
TDL  .F       9532.00000                 :Logger Total Depth
TLI  .F       8530.00000                 :Top Log Interval
HIDE .                                   :Header Identifier
MATR .        LIME                       :Rock Matrix for Neutron Porosity Corrections
FNUM .           1.00000                 :F-Numerator for Formation Factor Formula
FEXP .           2.00000                 :Exponent "m" for Formation Factor Formula
DFT  .        WATER                      :Drilling Fluid Type
DFPH .          11.00000                 :Drilling Fluid pH
MCSS .        Calculated                 :Mudcake Sample Source
MFSS .        Calculated                 :Mud Filtrate Sample Source
FD   .G/C3       1.00000                 :Fluid Density
MSS  .        Flowline                   :Mud Sample Source
OS1  .                                   :Other Services Line 1
OS2  .                                   :Other Services Line 2
OS3  .                                   :Other Services Line 3
OS4  .                                   :Other Services Line 4
OS5  .                                   :Other Services Line 5
R1   .                                   :Remarks Line 1
R2   .                                   :Remarks Line 2
R3   .                                   :Remarks Line 3
R4   .                                   :Remarks Line 4
R5   .                                   :Remarks Line 5
R6   .        Tool was run as per tool sketch :Remarks Line 6
R7   .        All logging intervals as per client request :Remarks Line 7
R8   .                                   :Remarks Line 8
TCS  .        20 00 00                   :Time Circulation Stopped
TLAB .        02 17 00                   :Time Logger At Bottom
NMT  .        NOBARITE                   :HRDD Mud Type for Nuclear Devices
EPD  .C3         5536.000000             :Elevation of Permanent Datum above Mean Sea Level
APD  .F          29.500000               :Elevation of Depth Reference (LMF) above Permanent Datum
#-----------------------------------------------------------------------------
~CURVE INFORMATION
#MNEM.UNIT   API CODE                                  DESCRIPTION
#---- -----  --------                                  -----------------------
DEPT .F                                                :DEPTH (BOREHOLE) {F12.4}
AF10 .OHMM                                             :Array Induction Four Foot Resistivity A10 {F11.4}
AF20 .OHMM                                             :Array Induction Four Foot Resistivity A20 {F11.4}
AF30 .OHMM                                             :Array Induction Four Foot Resistivity A30 {F11.4}
AF60 .OHMM                                             :Array Induction Four Foot Resistivity A60 {F11.4}
AF90 .OHMM                                             :Array Induction Four Foot Resistivity A90 {F11.4}
AO10 .OHMM                                             :Array Induction One Foot Resistivity A10 {F11.4}
AO20 .OHMM                                             :Array Induction One Foot Resistivity A20 {F11.4}
AO30 .OHMM                                             :Array Induction One Foot Resistivity A30 {F11.4}
AO60 .OHMM                                             :Array Induction One Foot Resistivity A60 {F11.4}
AO90 .OHMM                                             :Array Induction One Foot Resistivity A90 {F11.4}
AT10 .OHMM                                             :Array Induction Two Foot Resistivity A10 {F11.4}
AT20 .OHMM                                             :Array Induction Two Foot Resistivity A20 {F11.4}
AT30 .OHMM                                             :Array Induction Two Foot Resistivity A30 {F11.4}
AT60 .OHMM                                             :Array Induction Two Foot Resistivity A60 {F11.4}
AT90 .OHMM                                             :Array Induction Two Foot Resistivity A90 {F11.4}
AORT .OHMM                                             :Array Induction One Foot Rt {F11.4}
AORX .OHMM                                             :Array Induction One Foot Rxo {F11.4}
CDF  .LBF                                              :Calibrated Downhole Force {F11.4}
CFTC .HZ                                               :Corrected Far Thermal Count Rate {F11.4}
CNTC .HZ                                               :Corrected Near Thermal Count Rate {F11.4}
CTEM .DEGF                                             :Cartridge Temperature {F11.4}
DCAL .IN                                               :Differential Caliper {F11.4}
DT   .US/F                                             :Delta-T (also called Slowness or Interval Transit Time) {F11.4}
DTCO .US/F                                             :Delta-T Compressional {F11.4}
DTSM .US/F                                             :Delta-T Shear {F11.4}
ED   .F                                                :East Departure {F11.4}
GR_STGC.GAPI                                           :Gamma Ray {F11.4}
GTEM .DEGF                                             :Generalized Borehole Temperature {F11.4}
HGR_STGC.GAPI                                          :High Resolution Gamma Ray {F11.4}
HNPO .CFCF                                             :High Resolution Enhanced Thermal Neutron Porosity in Selected Lithology {F11.4}
HTNP .CFCF                                             :High Resolution Thermal Neutron Porosity (Ratio Method) in Selected Lithology {F11.4}
ITT  .S                                                :Integrated Transit Time {F11.4}
ND   .F                                                :North Departure {F11.4}
NPHI .CFCF                                             :Thermal Neutron Porosity (original Ratio Method) in Selected Lithology {F11.4}
NPOR .CFCF                                             :Enhanced Thermal Neutron Porosity in Selected Lithology {F11.4}
PR   .                                                 :Poisson s Ratio {F11.4}
SP   .MV                                               :Spontaneous Potential {F11.4}
SPAR .MV                                               :SP, Armor Return Compensated {F11.4}
SPHI .CFCF                                             :Sonic Porosity {F11.4}
STIT .F                                                :Stuck Tool Indicator, Total {F11.4}
TENS .LBF                                              :Cable Tension {F11.4}
TNPH .CFCF                                             :Thermal Neutron Porosity (Ratio Method) in Selected Lithology {F11.4}
HTNP_SAN.CFCF                                          :HiRes Thermal Neutron Porosity (matrix Sandstone) {F11.4}
#-----------------------------------------------------------------------------
# 
#      DEPT        AF10       AF20       AF30       AF60       AF90       AO10       AO20       AO30       AO60       AO90       AT10       AT20       AT30       AT60       AT90       AORT       AORX       CDF        CFTC       CNTC       CTEM       DCAL        DT        DTCO       DTSM        ED      GR_STGC      GTEM     HGR_STGC     HNPO       HTNP       ITT         ND        NPHI       NPOR        PR         SP        SPAR       SPHI       STIT       TENS       TNPH     HTNP_SAN
#
~A  
# ...
   6006.0000     0.2356     2.3023  1950.0000     8.6823    53.4539     0.2332     0.4692     1.8480     1.5159     3.9831     0.2335     0.7893  1950.0000    10.2873  1004.2020     1.6165     0.2377     0.0000  4666.9331  7658.0747    98.3529     0.0000    74.9414    74.9414    80.3578     0.0000   141.9403   305.3680   142.1095     0.0110     0.0158     0.0164     0.0000    -0.0102     0.0088  -999.2500    49.0625    48.3525     0.1580     0.0000  2422.0000     0.0149     0.0452
   6006.5000     0.2270     1.9289  1950.0000     9.3611    56.5499     0.2273     0.3855     2.5792     1.6254     2.1735     0.2264     0.6702  1950.0000     8.6479  1278.7532     1.3005     0.2299     0.0000  3941.0613  6873.1895    98.3529     0.0000   128.2227   128.2227    80.3578     0.0000   143.3387   305.3771   142.3198     0.0050     0.0106     0.0164     0.0000    -0.0056     0.0427  -999.2500    50.0000    48.8819     0.3520     0.0000  2419.0000     0.0223     0.0389
   6007.0000     0.2212     1.8724  1950.0000     9.7032    58.0998     0.2148     0.3713     2.4302     1.0809     1.3655     0.2226     0.6562  1950.0000    10.4396  1574.7233     1.0728     0.2250  6153.9185  3743.4045  7715.0552    98.3529     0.0000   126.3086   126.3086    82.9458     0.0000   145.9684   305.3364   144.1883     0.0324     0.0229     0.0165     0.0000     0.0018     0.0260  -999.2500    50.6250    50.2707     0.3479     0.0000  2411.0000     0.0295     0.0540
   6007.5000     0.2183     2.1048  1950.0000     9.7082    57.7354     0.2143     0.3811     1.2020     0.7292     0.9635     0.2218     0.7362  1950.0000    10.5435  1803.6627     0.9107     0.2233 10254.3984  3825.8958  7945.2524    98.3529     0.0000   125.3516   125.3516    82.9458     0.0000   148.8480   305.4088   148.7673     0.0367     0.0343     0.0166     0.0000     0.0023     0.0105  -999.2500    51.8750    50.9686     0.3458     0.0000  2410.0000     0.0236     0.0682
   6008.0000     0.2178     2.7404  1950.0000     9.7164    56.0050     0.2277     0.5492     2.4762     0.6601     0.8148     0.2230     0.9345  1950.0000     8.8430  1932.9962     0.7957     0.2241 10253.6865  4337.0723  7696.4409    98.3529     0.0000   125.3516   125.3516    82.2509     0.0000   147.9914   305.4269   150.7088     0.0262     0.0237     0.0166     0.0000    -0.0055     0.0213  -999.2500    52.5000    51.7266     0.3458     0.0000  2416.0000     0.0221     0.0550
   6008.5000     0.2195     4.1352  1950.0000     9.0511    52.2768     0.2540     0.8523     3.6253     0.9930     1.1422     0.2252     1.3096  1950.0000    12.3786  1820.7562     0.7160     0.2269 -9999.9999  4304.0908  6892.2671    98.3529     0.0000   130.4688   130.4688    89.7252     0.0000   144.8127   305.4269   145.3546     0.0216     0.0128     0.0167     0.0000    -0.0067     0.0365  -999.2500    53.7500    53.1952     0.3567     0.0000  2420.0000     0.0189     0.0416
   6009.0000     0.2233     7.2392  1950.0000     8.8538    52.2110     0.2289     0.6142     1.5083     0.6819     0.8607     0.2279     1.9499  1950.0000     7.8813  1024.1254     0.6646     0.2311 -9999.9999  4023.5103  8060.1235    98.3529     0.0000   135.5859   135.5859    97.1995     0.0000   141.5575   305.4359   141.0114     0.0108     0.0222     0.0168     0.0000    -0.0091     0.0059  -999.2500    54.3750    54.0288     0.3669     0.0000  2425.0000     0.0188     0.0531
   6009.5000     0.2294    14.7283  1950.0000     9.1163    54.9992     0.2653     0.7495     0.6578     0.4094     0.4370     0.2319     2.9687  1950.0000     8.5419   583.9568     0.6363     0.2366 -9999.9999  4337.1147  7064.1572    98.3529     0.0000   134.2773   134.2773   103.2178     0.0000   141.6483   305.4359   141.0240     0.0330     0.0176     0.0168     0.0000    -0.0016     0.0332  -999.2500    55.0000    54.8790     0.3643     0.0000  2421.0000     0.0217     0.0475
   6010.0000     0.2384    35.3567  1950.0000     8.9026    57.0005     0.2132     0.9552     1.7080     0.7524     0.8453     0.2393     4.5984  1950.0000    12.6077   325.7870     0.6251     0.2444 10256.1758  3858.8398  7926.1851    98.3529     0.0000   132.9688   132.9688    95.8253     0.0000   142.7900   305.4903   142.9096     0.0234     0.0301     0.0169     0.0000    -0.0064     0.0177  -999.2500    55.3125    55.7316     0.3618     0.0000  2413.0000     0.0225     0.0631
   6010.5000     0.2507   103.1625  1950.0000     8.4571    50.2166     0.2430     1.6056     2.4203     0.7417     0.8420     0.2521     7.4184  1950.0000    13.6638   584.1914     0.6250     0.2556 10254.0420  4353.6055  7466.6230    98.3529     0.0000   132.9688   132.9688    95.8253     0.0000   144.6871   305.5174   144.4364     0.0240     0.0180     0.0170     0.0000    -0.0022     0.0297  -999.2500    56.2500    56.3879     0.3618     0.0000  2410.0000     0.0225     0.0479
   6011.0000     0.2663   382.5018  1950.0000     7.8379    47.6451     0.2665     4.6865     8.6407     0.6505     0.7307     0.2708    13.1524  1950.0000     8.4417   148.8676     0.6331     0.2706  5128.0869  4345.1899  8155.9297    98.3529     0.0000   132.9688   132.9688   101.7347     0.0000   146.0937   305.4858   146.7153     0.0187     0.0221     0.0170     0.0000    -0.0090     0.0112  -999.2500    56.2500    57.1991     0.3618     0.0000  2414.0000     0.0169     0.0530
   6011.5000     0.2844  1508.1128  1950.0000     7.3617    46.0486     0.3037    12.1841     3.9716     0.5738     0.6516     0.2934    25.9610  1950.0000     8.5863   319.1712     0.6528     0.2883 -9999.9999  4897.7583  8088.6045    98.3529     0.0000   132.9688   132.9688    98.3425     0.0000   146.8588   305.5401   147.2613     0.0188     0.0196     0.0171     0.0000    -0.0094     0.0065  -999.2500    56.8750    57.9638     0.3618     0.0000  2414.0000     0.0133     0.0499
   6012.0000     0.3031  1950.0000  1950.0000     7.0391    45.2325     0.3756    18.5031     2.9060     0.5457     0.6206     0.3157    57.3646  1950.0000     7.7276   590.8502     0.6927     0.3060 -9999.9999  4699.9155  7945.2524    98.3529     0.0000   132.9688   132.9688    98.3425     0.0000   145.8462   305.5174   146.7327     0.0113     0.0122     0.0172     0.0000    -0.0137     0.0118  -999.2500    57.5000    58.6630     0.3618     0.0000  2416.0000     0.0130     0.0408
   6012.5000     0.3200  1950.0000  1950.0000     6.8484    45.8436     0.3350   158.6161     2.9288     0.6453     0.7462     0.3328   146.3782  1950.0000     6.9579   139.1892     0.7639     0.3211 -7688.9321  4567.6738  7351.8237    98.3529     0.0000    98.8672    98.8672    97.7552     0.0000   145.4583   305.4948   145.7137     0.0072     0.0129     0.0172     0.0000    -0.0109     0.0308     0.4002    58.7500    60.3544     0.2710     0.0000  2415.0000     0.0167     0.0417
   6013.0000     0.3334  1950.0000  1950.0000     6.7796    47.4138     0.3571  1950.0000     4.6445     0.9299     1.1314     0.3424   500.8616  1950.0000     6.7707   168.1190     0.8783     0.3315     0.0000  4337.0723  7925.6401    98.3529     0.0000    37.5000    37.5000    97.7552     0.0000   145.7249   305.6171   144.4402     0.0111     0.0167     0.0172     0.0000    -0.0080     0.0152     0.4137    60.0000    60.8641    -0.3083     0.0000  2428.0000     0.0179     0.0463
   6013.5000     0.3424  1950.0000  1950.0000     6.8097    49.5760     0.3496  1950.0000    11.1837     1.3451     1.8076     0.3454  1950.0000  1950.0000     6.8269   166.8173     1.0407     0.3369     0.0000  4386.5874  8174.9951    98.3529     0.0000    37.5000    37.5000    99.4961     0.0000   148.9128   305.5899   146.4875     0.0201     0.0225     0.0173     0.0000    -0.0050     0.0161     0.4172    60.6250    61.2516    -0.3083     0.0000  2432.0000     0.0216     0.0535
   6014.0000     0.3471  1950.0000  1950.0000     6.9054    51.8364     0.3439  1950.0000    39.8714     1.5816     2.3706     0.3440  1950.0000  1950.0000     6.9546   200.7671     1.2480     0.3378 -5126.8433  4287.6001  7677.2954    98.3529     0.0000    66.1914    66.1914   103.4286     0.0000   149.7089   305.5446   149.4349     0.0261     0.0211     0.0173     0.0000    -0.0024     0.0289     0.1532    62.1875    61.5020     0.0962     0.0000  2435.0000     0.0218     0.0517
