~Version
 VERS              .         2.0                           : CWLS LOG ASCII STANDARD - VERSION 2.0
 WRAP              .         NO                            : ONE LINE PER DEPTH STEP
 DLM               .         SPACE                         : DELIMITING CHARACTER(SPACE TAB OR COMMA)
~Well Information
#_______________________________________________________________________________
#
#PARAMETER_NAME    .UNIT     VALUE                         : DESCRIPTION
#_______________________________________________________________________________
STRT               .ft       7493                          : First reference value
STOP               .ft       9543.25                       : Last reference value
STEP               .ft       0.25                          : Step increment
NULL               .         -9999                         : Missing value
COMP               .         University Of Utah            : Company
WELL               .         FORGE 78B-32                  : Well name
FLD                .         None                          : Field
LOC                .                                       : Location
CNTY               .         Beaver                        : County
STAT               .         Utah                          : State
CTRY               .         USA                           : Country
SRVC               .         Schlumberger                  : Service Company
DATE               .         19-Jul-2021                   : Date
API                .         NRC 42-00090-03               : API number
APD                .ft       29.5                          : Elevation of Depth Reference (LMF) Above Permanent Datum
BHS                .         OPEN                          : Borehole Status (Open or Cased Hole)
BHT                .degF     320.87                        : Bottom Hole Temperature
BLI                .ft       -999.25                       : Bottom Log Interval
BS                 .in       8.75                          : Bit Size
CBDR               .ft       2989                          : Casing Bottom of Driller
CBLO               .ft       2988                          : Logger Casing Shoe Depth
CSIZ               .in       11.75                         : Current Casing Size
CWEI               .lbm/ft   54                            : Casing Weight
DCS                .         19-Jul-2021                   : Date Circulation Stopped
DFD                .lbm/gal  8.3                           : Drilling Fluid Density
DFT                .         WATER                         : Drilling Fluid Type
DLAB               .         19-Jul-2021                   : Date Logger At Bottom
EDF                .ft       5536                          : Elevation of Drill Floor
EGL                .ft       5536                          : Elevation of Ground Level
EKB                .ft       5565.5                        : Elevation of Kelly Bushing
EPD                .ft       5536                          : Elevation of Permanent Datum (PDAT) above Mean Sea Level
LMF                .         KB                            : Logging Measured From (Name of Logging Elevation Reference)
LUL                .         F.Morgan                      : Logging Unit Location
LUN                .         9108                          : Logging Unit Number
LATI               .         38.500171 degrees             : Latitude
LONG               .         -112.88221 degrees            : Longitude
MCST               .degF     68                            : Mudcake Sample Temperature
MFST               .degF     68                            : Mud Filtrate Sample Temperature
MRT                .degF     321.43                        : Maximum Recorded Temperature
MST                .degF     68                            : Mud Sample Temperature
ORIGINALWELLNAME   .         FORGE 78B-32                  : 
PDAT               .         GL                            : Permanent Datum
PRODUCER-CODE      .         440                           : 
PRODUCER-NAME      .         Schlumberger                  : 
RMB                .ohm.m    0.04564156                    : Resistivity of Mud at Bottom Hole Temperature
RMCS               .ohm.m    -999.25                       : Resistivity of Mud Cake Sample
RMFS               .ohm.m    0.15                          : Resistivity of Mud Filtrate Sample
RMS                .ohm.m    0.2                           : Resistivity of Mud Sample
RUN                .         1A                            : Run Number
TCS                .         03_00_00                      : Time Circulation Stopped
TDD                .ft       8540                          : Driller Total Depth
TDL                .ft       8540                          : Logger Total Depth
TLAB               .         07_53_00                      : Time Logger At Bottom
TLI                .ft       -999.25                       : Top Log Interval
~Parameter Information Block
#_______________________________________________________________________________
#
#PARAMETER_NAME    .UNIT     VALUE                         : DESCRIPTION
#_______________________________________________________________________________
SET                .         QSLT                          : 
TLFamily_AT10      .         Resistivity - Induction Array 10: 
TLFamily_AT20      .         Resistivity - Induction Array 20: 
TLFamily_AT30      .         Resistivity - Induction Array 30: 
TLFamily_AT60      .         Resistivity - Induction Array 60: 
TLFamily_AT90      .         Resistivity - Induction Array 90: 
TLFamily_BS        .         Bit Size                      : 
TLFamily_DTCO_FINAL .         Compressional Slowness        : 
TLFamily_DTSH_FINAL .         Shear Slowness                : 
TLFamily_GR_STGC   .         Gamma Ray                     : 
TLFamily_HDAR      .         Borehole Diameter             : 
TLFamily_PR        .         Poisson Ratio (Dynamic)       : 
TLFamily_SPHI      .         Total Porosity                : 
TLFamily_TDEP      .         Measured Depth                : 
TLFamily_TENS      .         Tension                       : 
TLFamily_TNPH      .         Thermal Neutron Porosity      : 
TLFamily_VPVS      .         VpVs (Compressional To Shear) Ratio: 
~Curve Information
#_______________________________________________________________________________
#
#LOGNAME           .UNIT     LOG_ID                        : DESCRIPTION
#_______________________________________________________________________________
TDEP               .ft                                     : Measured Depth 
AT10               .ohm.m                                  : Array Induction Two Foot Resistivity A10 
AT20               .ohm.m                                  : Array Induction Two Foot Resistivity A20 
AT30               .ohm.m                                  : Array Induction Two Foot Resistivity A30 
AT60               .ohm.m                                  : Array Induction Two Foot Resistivity A60 
AT90               .ohm.m                                  : Array Induction Two Foot Resistivity A90 
BS                 .in                                     : Bit Size 
DTCO_FINAL         .us/ft                                  : Compressional Slowness 
DTSH_FINAL         .us/ft                                  : Shear Slowness 
GR_STGC            .gAPI                                   : Gamma Ray 
HDAR               .in                                     : Hole Diameter from Area 
PR                 .unitless                               : Possion's Ratio 
SPHI               .ft3/ft3                                : Total porosity from Sonic 
TENS               .lbf                                    : Cable Tension 
TNPH               .ft3/ft3                                : Thermal Neutron Porosity (Ratio Method) in Selected Lithology 
VPVS               .unitless                               : VpVs Ratio 
~Ascii
7493.00    0.3226095  1950       1950       7.508118   1922.456   10.625     -9999      -9999      105.8734   10.625     -9999      -9999      3771.667   0.03660539 -9999     
7493.25    0.3226095  1950       1950       7.508118   1922.456   10.625     -9999      -9999      104.7742   10.625     -9999      -9999      3771.667   0.03593184 -9999     
7493.5     0.3226095  1950       1950       7.508118   1922.456   10.625     -9999      -9999      103.6751   10.625     -9999      -9999      3771.667   0.03525828 -9999     
7493.75    0.3226095  1950       1950       7.508118   1922.456   10.625     -9999      -9999      101.6417   10.625     -9999      -9999      3771.667   0.03825527 -9999     
7494       0.3226095  1950       1950       7.508118   1922.456   10.625     -9999      -9999      99.60842   10.625     -9999      -9999      3771.667   0.04125225 -9999     
7494.25    0.3226095  1950       1950       7.508118   1922.456   10.625     -9999      -9999      96.54276   10.625     -9999      -9999      3771.667   0.04001782 -9999     
7494.5     0.3226095  1950       1950       7.508118   1922.456   10.625     55.09798   -9999      93.47708   10.625     -9999      0.05369598 3771.667   0.03878339 -9999     
7494.75    0.3226095  1950       1950       7.508118   1922.456   10.625     55.08698   -9999      92.63286   10.625     -9999      0.05361825 3771.667   0.03740688 -9999     
7495       0.3226095  1950       1950       7.508118   1922.456   10.625     55.06537   -9999      91.78864   10.625     -9999      0.0534655  3771.667   0.03603038 -9999     
7495.25    0.3226095  1950       1950       7.508118   1922.456   10.625     55.0307    -9999      92.40086   10.625     -9999      0.05322053 3771.667   0.03595883 -9999     
7495.5     0.3226095  1950       1950       7.508118   1922.456   10.625     54.98373   -9999      93.01308   10.625     -9999      0.05288855 3771.667   0.03588727 -9999     
7495.75    0.3226095  1950       1950       7.508118   1922.456   10.625     54.93016   -9999      92.6749    10.625     -9999      0.05250994 3771.667   0.03653836 -9999     
7496       0.3226095  1950       1950       7.508118   1922.456   10.625     54.87986   -9999      92.33671   10.625     -9999      0.05215449 3771.667   0.03718944 -9999     
7496.25    0.3226095  1950       1950       7.508118   1922.456   10.625     54.85136   -9999      91.18498   10.625     -9999      0.0519531  3771.667   0.0388432  -9999     
7496.5     0.3226095  1950       1950       7.508118   1922.456   10.625     54.86999   -9999      90.03326   10.625     -9999      0.05208472 3771.667   0.04049696 -9999     
7496.75    0.3226095  1950       1950       7.508118   1922.456   10.625     54.95506   -9999      88.2238    10.625     -9999      0.05268593 3771.667   0.04019137 -9999     
7497       0.3226095  1950       1950       7.508118   1922.456   10.625     55.1011    -9999      86.41434   10.625     -9999      0.05371806 3771.667   0.03988578 -9999     
7497.25    0.3226095  1950       1950       7.508118   1922.456   10.625     55.27224   -9999      85.7712    10.625     -9999      0.05492752 3771.667   0.04166526 -9999     
7497.5     0.3226095  1950       1950       7.508118   1922.456   10.625     55.42163   -9999      85.12807   10.625     -9999      0.05598323 3771.667   0.04344475 -9999     
7497.75    0.3226095  1950       1950       7.508118   1922.456   10.625     55.52278   -9999      83.30496   10.625     -9999      0.05669808 3771.667   0.04175821 -9999     
7498       0.3226095  1950       1950       7.508118   1922.456   10.625     55.58022   -9999      81.48185   10.625     -9999      0.05710405 3771.667   0.04007168 -9999     
7498.25    0.3226095  1950       1950       7.508118   1922.456   10.625     55.61695   -9999      80.07582   10.625     -9999      0.05736364 3771.667   0.03854803 -9999     
7498.5     0.3226095  1950       1950       7.508118   1922.456   10.625     55.65702   -9999      78.66978   10.625     -9999      0.05764681 3771.667   0.03702439 -9999     
7498.75    0.3226095  1950       1950       7.508118   1922.456   10.625     55.71596   -9999      78.62458   10.625     -9999      0.05806331 3771.667   0.03659947 -9999     
7499       0.3226095  1950       1950       7.508118   1922.456   10.625     55.79521   -9999      78.57938   10.625     -9999      0.05862338 3771.667   0.03617455 -9999     
7499.25    0.3226095  1950       1950       7.508118   1922.456   10.625     55.88573   -9999      79.00362   10.625     -9999      0.05926314 3771.667   0.03577469 -9999     
7499.5     0.3226095  1950       1950       7.508118   1922.456   10.625     55.97678   -9999      79.42787   10.625     -9999      0.05990655 3771.667   0.03537483 -9999     
7499.75    0.3226095  1950       1950       7.508118   1922.456   10.625     56.06785   -9999      78.9894    10.625     -9999      0.06055016 3771.667   0.03716342 -9999     
7500       0.3226095  1950       1950       7.508118   1922.456   10.625     56.16789   -9999      78.55091   10.625     -9999      0.06125719 3771.667   0.03895201 -9999     
7500.25    0.3226095  1950       1950       7.508118   1922.456   10.625     56.28269   -9999      77.99649   10.625     -9999      0.06206847 3771.667   0.03822533 -9999     
7500.5     0.3226095  1950       1950       7.508118   1922.456   10.625     56.40877   -9999      77.44208   10.625     -9999      0.06295951 3771.667   0.03749865 -9999     
7500.75    0.3226095  1950       1950       7.508118   1922.456   10.625     56.53655   -9999      77.33766   10.625     -9999      0.06386256 3771.667   0.03680206 -9999     
7501       0.3226095  1950       1950       7.508118   1922.456   10.625     56.65641   -9999      77.23325   10.625     -9999      0.06470964 3771.667   0.03610548 -9999     
7501.25    0.3226095  1950       1950       7.508118   1922.456   10.625     56.7636    92.94123   78.03966   10.625     0.2025364  0.0654671  3771.667   0.03413995 1.637339  
7501.5     0.3226095  1950       1950       7.508118   1922.456   10.625     56.85911   93.11392   78.84605   10.625     0.2027025  0.0661421  3771.667   0.03217442 1.637625  
7501.75    0.3226095  1950       1950       7.508118   1922.456   10.625     56.94571   93.14954   79.9955    10.625     0.2016195  0.0667541  3771.667   0.03513659 1.635761  
7502       0.3226095  1950       1950       7.508118   1922.456   10.625     57.01942   93.22784   81.14494   10.625     0.201187   0.06727508 3771.667   0.03809875 1.635019  
7502.25    0.3226095  1950       1950       7.508118   1922.456   10.625     57.07115   93.30939   82.57388   10.625     0.201156   0.06764062 3771.667   0.03723396 1.634966  
7502.5     0.3226095  1950       1950       7.508118   1922.456   10.625     57.08986   93.36707   84.00282   10.625     0.201433   0.06777286 3771.667   0.03636916 1.635441  
7502.75    0.3226095  1950       1950       7.508118   1922.456   10.625     57.06565   93.38725   84.72095   10.625     0.2020427  0.06760177 3771.667   0.03753512 1.636488  
7503       0.3226095  1950       1950       7.508118   1922.456   10.625     56.99242   93.3614    85.43907   10.625     0.2029985  0.06708427 3771.667   0.03870109 1.638137  
7503.25    0.3226095  1950       1950       7.508118   1922.456   10.625     56.8766    93.29314   85.614     10.625     0.2042286  0.06626571 3771.667   0.03648441 1.640273  
7503.5     0.3226095  1950       1950       7.508118   1922.456   10.625     56.74749   93.19207   85.78893   10.625     0.2053447  0.06535331 3771.667   0.03426771 1.642224  
7503.75    0.3226095  1950       1950       7.508118   1922.456   10.625     56.6459    93.06785   85.1524    10.625     0.2057732  0.06463537 3771.667   0.03572057 1.642976  
7504       0.3226095  1950       1950       7.508118   1922.456   10.625     56.59974   92.93037   84.51587   10.625     0.2051526  0.06430908 3771.667   0.03717343 1.641887  
7504.25    0.3226095  1950       1950       7.508118   1922.456   10.625     56.60868   92.809     83.49205   10.625     0.2037751  0.06437227 3771.667   0.03588813 1.639484  
