~VERSION INFORMATION
VERS.           1.2   :CWLS Log ASCII Standard - VERSION 1.2
WRAP.           NO    :One Line per depth step
PROD.  Schlumberger   :LAS Producer
PROG.  DLIS to ASCII 2.3                               :LAS Program name and version
CREA.        2021/07/30 13:36                          :LAS Creation date {YYYY/MM/DD hh:mm}
DLIS_CREA.  2021-Jul-30 07:08                          :DLIS Creation date and time {YYYY-MMM-DD hh:mm}
SOURCE.     6d1d3df9-7549-4232-acfc-119b5b71a716       :DLIS File Name
#--------------------------------------------------
~WELL INFORMATION
#MNEM.UNIT      DATA             DESCRIPTION
#---- ------ --------------   -----------------------------
STRT .F      7447.0000       :START DEPTH     
STOP .F      9553.0000       :STOP DEPTH     
STEP .F       0.5000         :STEP       
NULL .          -999.25      :NULL VALUE
COMP .                 COMPANY:  University Of Utah                 
WELL .                    WELL:  FORGE 78B-32                       
FLD  .                   FIELD:  None                               
LOC  .                LOCATION:  Lat: 38.500171, Long: -112.88221   
CNTY .                  COUNTY:  Beaver                             
STAT .                   STATE:  Utah                               
CTRY .                 COUNTRY:                                     
SRVC .         SERVICE COMPANY:  Schlumberger                       
LATI .DEG             LATITUDE:  38 30' 0.616" N                   
LONG .DEG            LONGITUDE:  112 52' 55.956" W                 
API  .              API NUMBER:  NRC 42-00090-03                    
DATE .                LOG DATE:  30-Jul-2021
UWI  .          UNIQUE WELL ID:                                     
#-----------------------------------------------------------------------------
~PARAMETER INFORMATION
#MNEM.UNIT    VALUE                      DESCRIPTION
#---- -----   --------------------       ------------------------
CN   .        University Of Utah         :Company Name
WN   .        FORGE 78B-32               :Well Name
FN   .        None                       :Field Name
FL   .        Lat  38.500171  Long  -112.88221 :Field Location
FL1  .                                   :Field Location, Line 1
COUN .        Beaver                     :County or Parish
STAT .        Utah                       :State or Province
NATI .                                   :Nation
DATE .        30-Jul-2021                :Tools Above Rotary Table Date
APIN .        NRC 42-00090-03            :API Well Number
SECT .                                   :Section
TOWN .                                   :Township
RANG .                                   :Range
DMF  .        KB                         :Drilling Measured From (Name of Drilling Elevation Reference)
LMF  .        KB                         :Logging Measured From (Name of Logging Elevation Reference)
PDAT .        GL                         :Permanent Datum
ENGI .        CSTILES                    :Engineer s Name
WITN .        Virgil  Welch              :Witness s Name
LATI .        38� 30' 0.616  N           :Latitude
LONG .        112� 52' 55.956  W         :Longitude
LUL  .        F.Morgan                   :Logging Unit Location
LUN  .        9108                       :Logging Unit Number
RUN  .        1B                         :Run Number
SON  .                                   :Service Order Number
BHT  .DEGF     419.00000                 :Bottom Hole Temperature
BS   .IN         5.75000                 :Bit Size
MDEN .G/C3       2.71000                 :Matrix Density for Density Porosity
DFD  .LB/G       8.30000                 :Drilling Fluid Density
DFV  .S         24.00000                 :Drilling Fluid Viscosity
DFL  .C3      -999.25000                 :Drilling Fluid Loss
RMFS .OHMM       4.42000                 :Resistivity of Mud Filtrate Sample
EKB  .F       5565.50000                 :Elevation of Kelly Bushing
EGL  .F       5536.00000                 :Elevation of Ground Level
BLI  .F       9532.00000                 :Bottom Log Interval
BSAL .PPM      700.00000                 :Borehole Salinity
FLEV .F          8.00000                 :Depth of Drilling Fluid Level to LMF (Log Measured From)
MCST .DEGF      62.00000                 :Mudcake Sample Temperature
MFST .DEGF      62.00000                 :Mud Filtrate Sample Temperature
MRT  .DEGF     419.00000                 :Maximum Recorded Temperature
MST  .DEGF      62.00000                 :Mud Sample Temperature
RMCS .OHMM       6.21000                 :Resistivity of Mud Cake Sample
RMS  .OHMM       5.20000                 :Resistivity of Mud Sample
RW   .OHMM       1.00000                 :Connate Water Resistivity
TDD  .F       9500.00000                 :Driller Total Depth
TDL  .F       9532.00000                 :Logger Total Depth
TLI  .F       8530.00000                 :Top Log Interval
HIDE .                                   :Header Identifier
MATR .        LIME                       :Rock Matrix for Neutron Porosity Corrections
FNUM .           1.00000                 :F-Numerator for Formation Factor Formula
FEXP .           2.00000                 :Exponent "m" for Formation Factor Formula
DFT  .        WATER                      :Drilling Fluid Type
DFPH .          11.00000                 :Drilling Fluid pH
MCSS .        Calculated                 :Mudcake Sample Source
MFSS .        Calculated                 :Mud Filtrate Sample Source
FD   .G/C3       1.00000                 :Fluid Density
MSS  .        Flowline                   :Mud Sample Source
OS1  .                                   :Other Services Line 1
OS2  .                                   :Other Services Line 2
OS3  .                                   :Other Services Line 3
OS4  .                                   :Other Services Line 4
OS5  .                                   :Other Services Line 5
R1   .                                   :Remarks Line 1
R2   .                                   :Remarks Line 2
R3   .                                   :Remarks Line 3
R4   .                                   :Remarks Line 4
R5   .                                   :Remarks Line 5
R6   .        Tool was run as per tool sketch :Remarks Line 6
R7   .        All logging intervals as per client request :Remarks Line 7
R8   .                                   :Remarks Line 8
TCS  .        20 00 00                   :Time Circulation Stopped
TLAB .        02 17 00                   :Time Logger At Bottom
NMT  .        NOBARITE                   :HRDD Mud Type for Nuclear Devices
EPD  .C3         5536.000000             :Elevation of Permanent Datum above Mean Sea Level
APD  .F          29.500000               :Elevation of Depth Reference (LMF) above Permanent Datum
#-----------------------------------------------------------------------------
~CURVE INFORMATION
#MNEM.UNIT   API CODE                                  DESCRIPTION
#---- -----  --------                                  -----------------------
DEPT .F                                                :DEPTH (BOREHOLE) {F12.4}
AF10 .OHMM                                             :Array Induction Four Foot Resistivity A10 {F11.4}
AF20 .OHMM                                             :Array Induction Four Foot Resistivity A20 {F11.4}
AF30 .OHMM                                             :Array Induction Four Foot Resistivity A30 {F11.4}
AF60 .OHMM                                             :Array Induction Four Foot Resistivity A60 {F11.4}
AF90 .OHMM                                             :Array Induction Four Foot Resistivity A90 {F11.4}
AO10 .OHMM                                             :Array Induction One Foot Resistivity A10 {F11.4}
AO20 .OHMM                                             :Array Induction One Foot Resistivity A20 {F11.4}
AO30 .OHMM                                             :Array Induction One Foot Resistivity A30 {F11.4}
AO60 .OHMM                                             :Array Induction One Foot Resistivity A60 {F11.4}
AO90 .OHMM                                             :Array Induction One Foot Resistivity A90 {F11.4}
AT10 .OHMM                                             :Array Induction Two Foot Resistivity A10 {F11.4}
AT20 .OHMM                                             :Array Induction Two Foot Resistivity A20 {F11.4}
AT30 .OHMM                                             :Array Induction Two Foot Resistivity A30 {F11.4}
AT60 .OHMM                                             :Array Induction Two Foot Resistivity A60 {F11.4}
AT90 .OHMM                                             :Array Induction Two Foot Resistivity A90 {F11.4}
AORT .OHMM                                             :Array Induction One Foot Rt {F11.4}
AORX .OHMM                                             :Array Induction One Foot Rxo {F11.4}
CDF  .LBF                                              :Calibrated Downhole Force {F11.4}
CFTC .HZ                                               :Corrected Far Thermal Count Rate {F11.4}
CNTC .HZ                                               :Corrected Near Thermal Count Rate {F11.4}
CTEM .DEGF                                             :Cartridge Temperature {F11.4}
DCAL .IN                                               :Differential Caliper {F11.4}
DT   .US/F                                             :Delta-T (also called Slowness or Interval Transit Time) {F11.4}
DTCO .US/F                                             :Delta-T Compressional {F11.4}
DTSM .US/F                                             :Delta-T Shear {F11.4}
ED   .F                                                :East Departure {F11.4}
GR_STGC.GAPI                                           :Gamma Ray {F11.4}
GTEM .DEGF                                             :Generalized Borehole Temperature {F11.4}
HGR_STGC.GAPI                                          :High Resolution Gamma Ray {F11.4}
HNPO .CFCF                                             :High Resolution Enhanced Thermal Neutron Porosity in Selected Lithology {F11.4}
HTNP .CFCF                                             :High Resolution Thermal Neutron Porosity (Ratio Method) in Selected Lithology {F11.4}
ITT  .S                                                :Integrated Transit Time {F11.4}
ND   .F                                                :North Departure {F11.4}
NPHI .CFCF                                             :Thermal Neutron Porosity (original Ratio Method) in Selected Lithology {F11.4}
NPOR .CFCF                                             :Enhanced Thermal Neutron Porosity in Selected Lithology {F11.4}
PR   .                                                 :Poisson s Ratio {F11.4}
SP   .MV                                               :Spontaneous Potential {F11.4}
SPAR .MV                                               :SP, Armor Return Compensated {F11.4}
SPHI .CFCF                                             :Sonic Porosity {F11.4}
STIT .F                                                :Stuck Tool Indicator, Total {F11.4}
TENS .LBF                                              :Cable Tension {F11.4}
TNPH .CFCF                                             :Thermal Neutron Porosity (Ratio Method) in Selected Lithology {F11.4}
HTNP_SAN.CFCF                                          :HiRes Thermal Neutron Porosity (matrix Sandstone) {F11.4}
#-----------------------------------------------------------------------------
# 
#      DEPT        AF10       AF20       AF30       AF60       AF90       AO10       AO20       AO30       AO60       AO90       AT10       AT20       AT30       AT60       AT90       AORT       AORX       CDF        CFTC       CNTC       CTEM       DCAL        DT        DTCO       DTSM        ED      GR_STGC      GTEM     HGR_STGC     HNPO       HTNP       ITT         ND        NPHI       NPOR        PR         SP        SPAR       SPHI       STIT       TENS       TNPH     HTNP_SAN
#
~A  
# ...
   8705.0000  1950.0000    60.0737   831.5584   205.6803   209.7125  1836.4852   173.4911   181.6812    88.0134    84.2902  1950.0000    98.6830   782.6479    96.9036   144.7462    88.0134  1229.7867 -9746.7666  8763.4814 15510.1426   131.9529     0.0000    53.0273    53.0273    93.2632     0.0000    93.5518   396.4532    88.2212     0.0335     0.0349     0.0436     0.0000     0.0362     0.0327     0.2611     6.6797     6.7178    -0.0350     0.0000  4142.3335     0.0343     0.0691
   8705.5000  1950.0000    55.8668   634.8142   192.3813   164.7425  1344.0830   108.2814   136.4642   121.2278   108.2317  1950.0000    78.0640   379.5281   216.4111   151.2517   121.2278   974.6467 -9689.2734  8845.7822 15539.3174   131.9529     0.0000    53.3008    53.3008    93.4277     0.0000    97.0162   396.4688    91.4705     0.0329     0.0338     0.0436     0.0000     0.0350     0.0329     0.2587     7.1094     6.8053    -0.0317     0.0000  4234.0000     0.0335     0.0677
   8706.0000  1950.0000    51.5396   501.2685   177.8164   140.6757  1950.0000    75.8404   105.1360    84.0812    81.6178  1950.0000    50.9076   324.3816   106.7476   159.6866    84.0812   776.9454 -9734.9219  9079.2227 15329.1904   131.9529     0.0000    54.9414    54.9414    93.7453     0.0000    99.9575   396.4922   111.3568     0.0269     0.0301     0.0436     0.0000     0.0333     0.0369     0.2384     7.2266     6.8660    -0.0120     0.0000  4326.0005     0.0320     0.0629
   8706.5000  1950.0000    49.9161   437.3821   221.7622   136.9641   546.9505    38.6562    69.8562    68.2681    66.5010  1950.0000    42.3737   199.9218    81.8446    96.3921    68.2681   612.2446 -9746.5693  9425.6162 15864.2441   131.9529     0.0000    56.0547    56.0547    94.2701     0.0000   102.7590   396.5081    97.0450     0.0288     0.0289     0.0436     0.0000     0.0311     0.0304     0.2265     7.5391     6.9228     0.0006     0.0000  4205.0000     0.0298     0.0615
   8707.0000  1950.0000    52.1775   429.2275   311.5992   180.7286   326.8459    21.7394    43.6821    54.8612    53.5429  1950.0000    38.8368   223.1079   129.9988   120.9089    54.8612   517.2454 -9726.8359  9808.8818 16137.1475   131.9529     0.0000    53.8086    53.8086    93.5718     0.0000   100.8021   396.5145    99.8751     0.0333     0.0283     0.0435     0.0000     0.0285     0.0275     0.2530     6.9922     6.9515    -0.0255     0.0000  4216.5000     0.0261     0.0607
   8707.5000  1950.0000    59.7554   464.6449   440.6421   259.5543   381.8973    24.9126    39.1419    35.9061    35.0428  1950.0000    44.4722   254.8533   170.2420   166.8286    35.9061   542.8993 -9708.9297 10702.6240 16652.7305   131.9529     0.0000    53.7305    53.7305    92.6306     0.0000   102.0060   396.5320   105.4862     0.0223     0.0212     0.0435     0.0000     0.0233     0.0224     0.2465     6.5234     7.0019    -0.0264     0.0000  4133.0000     0.0205     0.0519
   8708.0000  1950.0000    75.4530   544.5831   668.3521   362.3629   705.2235    32.4555    62.2385    56.1960    54.6607  1950.0000    58.9207   272.0170   237.6241   201.1462    56.1960   638.0411 -9778.2051 12228.7090 17225.7617   131.9529     0.0000    53.3496    53.3496    92.2437     0.0000    99.1206   396.5510   100.6568     0.0142     0.0128     0.0435     0.0000     0.0181     0.0155     0.2487     6.8750     7.0854    -0.0310     0.0000  4223.0000     0.0143     0.0415
   8708.5000  1950.0000   104.8588   711.0544  1084.0559   611.9608  1950.0000   113.3007   106.5864    87.6270    83.3449  1950.0000    74.5039   309.5034   776.8392   594.5471    85.8554   771.9437 -9722.1182 13207.5176 18110.3887   131.9529     0.0000    53.7598    53.7598    91.9793     0.0000   100.0835   396.5658    91.2189     0.0103     0.0103     0.0435     0.0000     0.0151     0.0073     0.2406     7.1094     7.1518    -0.0260     0.0000  4340.0000     0.0109     0.0385
   8709.0000  1950.0000   151.5639  1306.3452  1912.8187  1742.3701  1483.4255   132.2313    68.6986    64.0178    61.4539  1950.0000   111.8035   384.8929   718.3922   286.5177    64.0178   910.9677 -9779.8896 13243.2021 18459.9688   131.9529     0.0000    53.3398    53.3398    91.7149     0.0000   104.5015   396.5781   108.3748     0.0102     0.0121     0.0434     0.0000     0.0146     0.0079     0.2444     7.3047     7.2312    -0.0312     0.0000  4244.0005     0.0106     0.0407
   8709.5000  1950.0000   195.0394  1950.0000  1950.0000  1950.0000  1642.7604   226.8619    53.6328    52.1821    50.7419  1950.0000   148.9477   395.3953   563.6313   432.2052    52.1821  1014.1718 -9726.8066 13386.5234 18494.4434   131.9529     0.0000    51.9727    51.9727    90.8924     0.0000   104.3468   396.5927   113.9107     0.0120     0.0115     0.0434     0.0000     0.0156     0.0125     0.2571     6.8750     7.2878    -0.0484     0.0000  4197.0005     0.0120     0.0400
   8710.0000  1950.0000   186.1255  1950.0000  1950.0000  1950.0000  1950.0000   268.3749    73.0853    80.8440    78.1142  1950.0000   168.2175   572.7007   476.1489   441.4214    80.8440  1023.7455 -9775.7734 13233.4766 18824.7324   131.9529     0.0000    53.1836    53.1836    89.9367     0.0000   103.9850   396.6084    90.7550     0.0140     0.0135     0.0434     0.0000     0.0155     0.0101     0.2311     6.9141     7.3739    -0.0331     0.0000  4112.3335     0.0120     0.0424
   8710.5000  1950.0000   141.3559  1806.3599  1950.0000  1699.9408   981.6745   222.5282   185.0060   119.7673   113.6581  1950.0000   119.9127  1262.3871   637.2557  1093.8074   106.4197   940.7705 -9751.5371 13515.4170 18800.7676   131.9529     0.0000    53.3301    53.3301    89.6215     0.0000   106.1865   396.6167   107.2894     0.0104     0.0116     0.0433     0.0000     0.0159     0.0101     0.2259     7.4609     7.5237    -0.0313     0.0000  4118.3335     0.0120     0.0401
   8711.0000  1950.0000   103.8258  1847.6882  1889.0787  1321.5288   916.0467    62.0748    94.6230    58.4791    56.2561  1950.0000    74.8016   389.7660   426.5969   415.5050    58.4791   933.7910 -9769.0850 13325.8369 18720.5957   131.9529     0.0000    52.5879    52.5879    89.5091     0.0000   119.7912   396.6412   120.5153     0.0108     0.0119     0.0433     0.0000     0.0156     0.0106     0.2364     8.0078     7.6658    -0.0406     0.0000  4230.3335     0.0121     0.0404
   8711.5000  1950.0000    82.1430  1791.4973  1731.6499   943.1705   602.4268    32.7212    56.3489    31.9415    30.9944  1950.0000    50.4837   309.3259   347.1516   364.2619    31.9415   847.4854 -9755.6885 13043.2373 18329.8535   131.9529     0.0000    52.6563    52.6563    89.6804     0.0000   123.9082   396.6458   131.5689     0.0140     0.0131     0.0433     0.0000     0.0163     0.0126     0.2369     8.1250     7.7817    -0.0397     0.0000  4240.6670     0.0126     0.0419
   8712.0000  1950.0000    72.4159  1611.2946  1522.5311   678.9015   806.3511    22.5844    41.3251    35.2382    33.8067  1950.0000    40.1153   209.8389   299.8024   241.4916    35.2382   920.6885 -9749.2441 12764.3398 18243.0996   131.9529     0.0000    52.9297    52.9297    90.3888     0.0000   119.5331   396.6611   119.6402     0.0101     0.0134     0.0433     0.0000     0.0175     0.0099     0.2391     8.1250     7.9020    -0.0363     0.0000  4165.6665     0.0135     0.0423
   8712.5000  1950.0000    71.6160  1351.6249  1300.2582   508.6107  1208.6163    26.5080    39.8009    30.9311    29.7688  1950.0000    46.4337   293.7850   335.3044   335.7572    30.9311  1052.7280 -9714.2549 11982.7783 17576.9355   131.9529     0.0000    52.5977    52.5977    92.1178     0.0000   109.9294   396.6826   107.3900     0.0166     0.0155     0.0432     0.0000     0.0201     0.0162     0.2581     7.7734     8.0211    -0.0404     0.0000  4100.6665     0.0168     0.0449
   8713.0000  1950.0000    79.0098  1097.3695  1123.3134   372.8235  1950.0000    51.1130    67.8069    45.2223    42.8470  1950.0000    67.1322   279.2938   300.2585   311.5022    45.2223  1245.3875 -9746.0830 10815.9463 16745.0859   131.9529     0.0000    53.1543    53.1543    93.0787     0.0000   103.3241   396.6869   102.7581     0.0236     0.0218     0.0432     0.0000     0.0212     0.0272     0.2580     8.1250     8.1879    -0.0335     0.0000  4140.3335     0.0199     0.0526
