~VERSION INFORMATION
VERS.           1.2   :CWLS Log ASCII Standard - VERSION 1.2
WRAP.           NO    :One Line per depth step
PROD.  Schlumberger   :LAS Producer
PROG.  DLIS to ASCII 2.3                               :LAS Program name and version
CREA.        2021/07/30 13:36                          :LAS Creation date {YYYY/MM/DD hh:mm}
DLIS_CREA.  2021-Jul-30 07:07                          :DLIS Creation date and time {YYYY-MMM-DD hh:mm}
SOURCE.     e39621fc-7919-4a62-8a2a-6ee9c8654461       :DLIS File Name
#--------------------------------------------------
~WELL INFORMATION
#MNEM.UNIT      DATA             DESCRIPTION
#---- ------ --------------   -----------------------------
STRT .F      8527.5000       :START DEPTH     
STOP .F      9107.0000       :STOP DEPTH     
STEP .F       0.5000         :STEP       
NULL .          -999.25      :NULL VALUE
COMP .                 COMPANY:  University Of Utah                 
WELL .                    WELL:  FORGE 78B-32                       
FLD  .                   FIELD:  None                               
LOC  .                LOCATION:  Lat: 38.500171, Long: -112.88221   
CNTY .                  COUNTY:  Beaver                             
STAT .                   STATE:  Utah                               
CTRY .                 COUNTRY:                                     
SRVC .         SERVICE COMPANY:  Schlumberger                       
LATI .DEG             LATITUDE:  38 30' 0.616" N                   
LONG .DEG            LONGITUDE:  112 52' 55.956" W                 
API  .              API NUMBER:  NRC 42-00090-03                    
DATE .                LOG DATE:  30-Jul-2021
UWI  .          UNIQUE WELL ID:                                     
#-----------------------------------------------------------------------------
~PARAMETER INFORMATION
#MNEM.UNIT    VALUE                      DESCRIPTION
#---- -----   --------------------       ------------------------
CN   .        University Of Utah         :Company Name
WN   .        FORGE 78B-32               :Well Name
FN   .        None                       :Field Name
FL   .        Lat  38.500171  Long  -112.88221 :Field Location
FL1  .                                   :Field Location, Line 1
COUN .        Beaver                     :County or Parish
STAT .        Utah                       :State or Province
NATI .                                   :Nation
DATE .        30-Jul-2021                :Tools Above Rotary Table Date
APIN .        NRC 42-00090-03            :API Well Number
SECT .                                   :Section
TOWN .                                   :Township
RANG .                                   :Range
DMF  .        KB                         :Drilling Measured From (Name of Drilling Elevation Reference)
LMF  .        KB                         :Logging Measured From (Name of Logging Elevation Reference)
PDAT .        GL                         :Permanent Datum
ENGI .        CSTILES                    :Engineer s Name
WITN .        Virgil  Welch              :Witness s Name
LATI .        38� 30' 0.616  N           :Latitude
LONG .        112� 52' 55.956  W         :Longitude
LUL  .        F.Morgan                   :Logging Unit Location
LUN  .        9108                       :Logging Unit Number
RUN  .        1B                         :Run Number
SON  .                                   :Service Order Number
BHT  .DEGF     419.00000                 :Bottom Hole Temperature
BS   .IN         5.75000                 :Bit Size
MDEN .G/C3       2.71000                 :Matrix Density for Density Porosity
DFD  .LB/G       8.30000                 :Drilling Fluid Density
DFV  .S         24.00000                 :Drilling Fluid Viscosity
DFL  .C3      -999.25000                 :Drilling Fluid Loss
RMFS .OHMM       4.42000                 :Resistivity of Mud Filtrate Sample
EKB  .F       5565.50000                 :Elevation of Kelly Bushing
EGL  .F       5536.00000                 :Elevation of Ground Level
BLI  .F       9532.00000                 :Bottom Log Interval
BSAL .PPM      700.00000                 :Borehole Salinity
FLEV .F          8.00000                 :Depth of Drilling Fluid Level to LMF (Log Measured From)
MCST .DEGF      62.00000                 :Mudcake Sample Temperature
MFST .DEGF      62.00000                 :Mud Filtrate Sample Temperature
MRT  .DEGF     419.00000                 :Maximum Recorded Temperature
MST  .DEGF      62.00000                 :Mud Sample Temperature
RMCS .OHMM       6.21000                 :Resistivity of Mud Cake Sample
RMS  .OHMM       5.20000                 :Resistivity of Mud Sample
RW   .OHMM       1.00000                 :Connate Water Resistivity
TDD  .F       9500.00000                 :Driller Total Depth
TDL  .F       9532.00000                 :Logger Total Depth
TLI  .F       8530.00000                 :Top Log Interval
HIDE .                                   :Header Identifier
MATR .        LIME                       :Rock Matrix for Neutron Porosity Corrections
FNUM .           1.00000                 :F-Numerator for Formation Factor Formula
FEXP .           2.00000                 :Exponent "m" for Formation Factor Formula
DFT  .        WATER                      :Drilling Fluid Type
DFPH .          11.00000                 :Drilling Fluid pH
MCSS .        Calculated                 :Mudcake Sample Source
MFSS .        Calculated                 :Mud Filtrate Sample Source
FD   .G/C3       1.00000                 :Fluid Density
MSS  .        Flowline                   :Mud Sample Source
OS1  .                                   :Other Services Line 1
OS2  .                                   :Other Services Line 2
OS3  .                                   :Other Services Line 3
OS4  .                                   :Other Services Line 4
OS5  .                                   :Other Services Line 5
R1   .                                   :Remarks Line 1
R2   .                                   :Remarks Line 2
R3   .                                   :Remarks Line 3
R4   .                                   :Remarks Line 4
R5   .                                   :Remarks Line 5
R6   .        Tool was run as per tool sketch :Remarks Line 6
R7   .        All logging intervals as per client request :Remarks Line 7
R8   .                                   :Remarks Line 8
TCS  .        20 00 00                   :Time Circulation Stopped
TLAB .        02 17 00                   :Time Logger At Bottom
NMT  .        NOBARITE                   :HRDD Mud Type for Nuclear Devices
EPD  .C3         5536.000000             :Elevation of Permanent Datum above Mean Sea Level
APD  .F          29.500000               :Elevation of Depth Reference (LMF) above Permanent Datum
#-----------------------------------------------------------------------------
~CURVE INFORMATION
#MNEM.UNIT   API CODE                                  DESCRIPTION
#---- -----  --------                                  -----------------------
DEPT .F                                                :DEPTH (BOREHOLE) {F12.4}
AF10 .OHMM                                             :Array Induction Four Foot Resistivity A10 {F11.4}
AF20 .OHMM                                             :Array Induction Four Foot Resistivity A20 {F11.4}
AF30 .OHMM                                             :Array Induction Four Foot Resistivity A30 {F11.4}
AF60 .OHMM                                             :Array Induction Four Foot Resistivity A60 {F11.4}
AF90 .OHMM                                             :Array Induction Four Foot Resistivity A90 {F11.4}
AO10 .OHMM                                             :Array Induction One Foot Resistivity A10 {F11.4}
AO20 .OHMM                                             :Array Induction One Foot Resistivity A20 {F11.4}
AO30 .OHMM                                             :Array Induction One Foot Resistivity A30 {F11.4}
AO60 .OHMM                                             :Array Induction One Foot Resistivity A60 {F11.4}
AO90 .OHMM                                             :Array Induction One Foot Resistivity A90 {F11.4}
AT10 .OHMM                                             :Array Induction Two Foot Resistivity A10 {F11.4}
AT20 .OHMM                                             :Array Induction Two Foot Resistivity A20 {F11.4}
AT30 .OHMM                                             :Array Induction Two Foot Resistivity A30 {F11.4}
AT60 .OHMM                                             :Array Induction Two Foot Resistivity A60 {F11.4}
AT90 .OHMM                                             :Array Induction Two Foot Resistivity A90 {F11.4}
AORT .OHMM                                             :Array Induction One Foot Rt {F11.4}
AORX .OHMM                                             :Array Induction One Foot Rxo {F11.4}
CDF  .LBF                                              :Calibrated Downhole Force {F11.4}
CFTC .HZ                                               :Corrected Far Thermal Count Rate {F11.4}
CNTC .HZ                                               :Corrected Near Thermal Count Rate {F11.4}
CTEM .DEGF                                             :Cartridge Temperature {F11.4}
DCAL .IN                                               :Differential Caliper {F11.4}
DT   .US/F                                             :Delta-T (also called Slowness or Interval Transit Time) {F11.4}
DTCO .US/F                                             :Delta-T Compressional {F11.4}
DTSM .US/F                                             :Delta-T Shear {F11.4}
ED   .F                                                :East Departure {F11.4}
GR_STGC.GAPI                                           :Gamma Ray {F11.4}
GTEM .DEGF                                             :Generalized Borehole Temperature {F11.4}
HGR_STGC.GAPI                                          :High Resolution Gamma Ray {F11.4}
HNPO .CFCF                                             :High Resolution Enhanced Thermal Neutron Porosity in Selected Lithology {F11.4}
HTNP .CFCF                                             :High Resolution Thermal Neutron Porosity (Ratio Method) in Selected Lithology {F11.4}
ITT  .S                                                :Integrated Transit Time {F11.4}
ND   .F                                                :North Departure {F11.4}
NPHI .CFCF                                             :Thermal Neutron Porosity (original Ratio Method) in Selected Lithology {F11.4}
NPOR .CFCF                                             :Enhanced Thermal Neutron Porosity in Selected Lithology {F11.4}
PR   .                                                 :Poisson s Ratio {F11.4}
SP   .MV                                               :Spontaneous Potential {F11.4}
SPAR .MV                                               :SP, Armor Return Compensated {F11.4}
SPHI .CFCF                                             :Sonic Porosity {F11.4}
STIT .F                                                :Stuck Tool Indicator, Total {F11.4}
TENS .LBF                                              :Cable Tension {F11.4}
TNPH .CFCF                                             :Thermal Neutron Porosity (Ratio Method) in Selected Lithology {F11.4}
HTNP_SAN.CFCF                                          :HiRes Thermal Neutron Porosity (matrix Sandstone) {F11.4}
#-----------------------------------------------------------------------------
# 
#      DEPT        AF10       AF20       AF30       AF60       AF90       AO10       AO20       AO30       AO60       AO90       AT10       AT20       AT30       AT60       AT90       AORT       AORX       CDF        CFTC       CNTC       CTEM       DCAL        DT        DTCO       DTSM        ED      GR_STGC      GTEM     HGR_STGC     HNPO       HTNP       ITT         ND        NPHI       NPOR        PR         SP        SPAR       SPHI       STIT       TENS       TNPH     HTNP_SAN
#
~A  
# ...
   8757.0000  1950.0000    37.9322   794.8748   283.6535   267.8477  1950.0000    43.0574   163.4389   184.4107   172.4309  1950.0000    42.7042   340.9959   232.6971   131.4048   175.9974  1950.0000 -7340.8291  8581.2207 15049.8203   110.2118     0.0000    53.7305    53.7305    93.2104     0.0000    85.0778   396.5174    85.1833     0.0363     0.0345     0.0162     0.0000     0.0353     0.0319     0.2512    17.3047    17.0015    -0.0264     0.0000  4275.4004     0.0324     0.0686
   8757.5000  1950.0000    40.7065   863.2474   269.2450   309.2595  1950.0000    59.0513   233.7727   323.2934   296.8693  1950.0000    51.0775   364.8732   243.6361   158.6679   314.2910  1950.0000 -7319.4937  8828.6211 15023.8984   110.2118     0.0000    52.4707    52.4707    93.2182     0.0000    88.5566   396.5191    90.2589     0.0358     0.0305     0.0161     0.0000     0.0346     0.0339     0.2681    17.2794    17.0722    -0.0420     0.0000  4211.0625     0.0332     0.0635
   8758.0000  1950.0000    42.8685   949.7270   272.6770   400.9328  1950.0000    96.8514   341.7852   453.0974   405.9560  1950.0000    61.4025   390.8758   237.3499   210.0524   440.3335  1950.0000 -7278.1074  8569.8838 14899.8662   110.2118     0.0000    51.3672    51.3672    94.7788     0.0000    88.7960   396.5273    89.7972     0.0319     0.0335     0.0161     0.0000     0.0351     0.0366     0.2921    16.8750    17.1242    -0.0564     0.0000  4186.8667     0.0338     0.0672
   8758.5000  1950.0000    43.0904  1023.5177   295.1231   551.5525  1950.0000   111.7207   810.8480   584.2197   344.7568  1950.0000    61.2393   391.3056   253.1706   268.3282   383.1409  1950.0000 -7343.9849  8473.3809 15081.3359   110.4668     0.0000    51.0449    51.0449    94.7369     0.0000    84.6030   396.5625    85.8607     0.0317     0.0349     0.0161     0.0000     0.0366     0.0343     0.2955    16.8750    17.2454    -0.0607     0.0000  4174.6875     0.0345     0.0691
   8759.0000  1950.0000    41.7205  1058.5743   337.2000   785.2044  1950.0000    70.5023   206.9218   180.1014   162.8528  1950.0000    53.2089   388.5158   272.0700   323.3125   180.1014  1950.0000 -7239.0024  8654.3936 15395.5244   110.4588     0.0000    50.8105    50.8105    94.7136     0.0000    80.5508   396.5508    78.1509     0.0306     0.0344     0.0161     0.0000     0.0369     0.0306     0.2980    17.2266    17.3412    -0.0638     0.0000  4251.8667     0.0349     0.0684
   8759.5000  1950.0000    39.3122  1072.9063   403.4064  1104.8934  1950.0000    32.0709    69.3987    74.9743    70.8602  1950.0000    40.9565   264.4930   237.1257   279.2569    74.9743  1950.0000 -7321.1616  8526.9463 14942.5293   110.2118     0.0000    53.2813    53.2813    94.6385     0.0000    80.8690   396.5802    78.1843     0.0387     0.0356     0.0160     0.0000     0.0370     0.0389     0.2680    17.5000    17.4194    -0.0319     0.0000  4265.7500     0.0355     0.0700
   8760.0000  1950.0000    38.0778  1152.1278   491.3002  1442.4772  1950.0000    25.6940    64.2465    71.4627    67.3563  1950.0000    38.7561   267.0486   285.6390   293.5882    71.4627  1950.0000 -7253.2222  8489.6787 15165.6504   110.2118     0.0000    51.2988    51.2988    95.0947     0.0000    84.5662   396.5957    87.0270     0.0341     0.0366     0.0160     0.0000     0.0373     0.0363     0.2948    17.5735    17.4578    -0.0573     0.0000  4227.1333     0.0361     0.0712
   8760.5000  1950.0000    36.7945  1225.9381   571.8784  1626.1940  1950.0000    29.9295   113.4279   123.2476   116.1601  1950.0000    39.2827   361.7383   348.5576   399.0988   123.2476  1950.0000 -7252.4302  8524.9795 15287.7109   110.2118     0.0000    51.3574    51.3574    92.4955     0.0000    86.3509   396.5966    89.2284     0.0380     0.0358     0.0160     0.0000     0.0384     0.0341     0.2771    17.5000    17.4903    -0.0565     0.0000  4195.0000     0.0365     0.0702
   8761.0000  1950.0000    36.1691  1231.2737   589.6334  1541.8615  1950.0000    49.1114   194.3398   198.5023   185.0803  1950.0000    41.5884   397.7498   384.9391   446.4763   198.5023  1950.0000 -7307.9194  8355.1826 15105.8809   110.2118     0.0000    51.3574    51.3574    92.5493     0.0000    84.6090   396.6262    83.7078     0.0401     0.0383     0.0160     0.0000     0.0390     0.0382     0.2775    17.5000    17.5316    -0.0565     0.0000  4155.9331     0.0375     0.0733
   8761.5000  1950.0000    35.4081  1150.7155   542.4171  1270.1764  1950.0000    52.5822   511.2336   297.7601   267.7313  1950.0000    40.9137   415.7272   380.2127   457.9352   297.5960  1950.0000 -7264.3857  8325.4434 15107.4277   110.2118     0.0000    50.9863    50.9863    92.6145     0.0000    83.9435   396.6236    81.6259     0.0385     0.0381     0.0159     0.0000     0.0397     0.0386     0.2826    17.6563    17.5493    -0.0615     0.0000  4238.1250     0.0386     0.0731
   8762.0000  1950.0000    35.4698  1011.0379   461.7433   966.4060  1950.0000    40.6784   483.9125   157.9604   145.5876  1950.0000    39.3193   394.0674   317.3472   412.7733   166.4506  1950.0000 -7250.6416  8240.8613 15093.8076   110.2118     0.0000    50.6250    50.6250    92.2823     0.0000    88.1467   396.6262    86.9839     0.0381     0.0397     0.0159     0.0000     0.0398     0.0386     0.2847    17.6471    17.5089    -0.0664     0.0000  4308.5332     0.0388     0.0752
   8762.5000  1950.0000    35.1806   875.8066   391.7419   730.2682  1950.0000    32.0239   559.3946   348.7260   313.9872  1950.0000    35.4882   322.5689   266.6442   347.1211   346.2760  1950.0000 -7215.2505  8253.7969 14951.0537   110.2118     0.0000    51.1523    51.1523    93.5342     0.0000    91.1702   396.6657    95.8726     0.0382     0.0388     0.0159     0.0000     0.0405     0.0402     0.2866    17.7344    17.4757    -0.0592     0.0000  4248.2500     0.0391     0.0740
   8763.0000  1950.0000    35.8809   769.4479   350.2140   566.9476  1950.0000    30.6386   624.9507   446.3370   407.9886  1950.0000    34.4903   282.1830   230.3851   270.3664   435.5202  1950.0000 -7230.6982  8182.5493 15125.0469   110.2118     0.0000    51.3086    51.3086    94.7991     0.0000    89.7867   396.6630    90.5902     0.0372     0.0394     0.0159     0.0000     0.0409     0.0376     0.2929    17.2426    17.4266    -0.0571     0.0000  4222.1333     0.0398     0.0748
   8763.5000  1950.0000    37.8709   751.1015   340.7971   460.8620  1950.0000    34.7993   610.9118   455.4673   424.8076  1950.0000    38.5309   342.3573   243.1369   297.4855   427.6967  1950.0000 -7264.9263  8025.6060 14845.5713   110.2118     0.0000    51.5332    51.5332    94.8373     0.0000    82.1769   396.6907    82.4536     0.0413     0.0412     0.0158     0.0000     0.0415     0.0419     0.2905    17.0313    17.3586    -0.0542     0.0000  4141.4668     0.0404     0.0770
   8764.0000  1950.0000    41.1717   810.1793   370.9683   420.3012  1950.0000    44.2328   538.0971   344.4277   320.2570  1950.0000    45.4738   443.1770   300.1428   374.1151   310.0646  1928.7612 -7252.9932  8066.9063 14872.0479   110.2118     0.0000    51.5820    51.5820    94.8184     0.0000    76.0870   396.7182    73.1776     0.0414     0.0403     0.0158     0.0000     0.0414     0.0420     0.2898    17.2266    17.3596    -0.0535     0.0000  4201.0000     0.0409     0.0759
   8764.5000  1950.0000    45.0831   903.6400   446.6920   431.6462  1950.0000    69.8905   482.4198   279.5384   264.9778  1950.0000    60.7598   561.2692   372.8997   463.3477   267.2602  1834.2424 -7269.9805  8096.7593 14917.6963   110.2118     0.0000    52.9883    52.9883    94.4570     0.0000    75.6496   396.7104    72.4230     0.0409     0.0403     0.0158     0.0000     0.0421     0.0412     0.2704    17.5000    17.3191    -0.0355     0.0000  4310.0669     0.0412     0.0759
   8765.0000  1950.0000    48.1370   973.5269   575.1644   458.3028  1950.0000   107.8545   602.1989   290.9855   276.8930  1950.0000    69.8545   745.9658   487.1873   722.9942   245.0724  1740.6089 -7202.8950  7932.3848 14954.5605   110.2118     0.0000    50.9766    50.9766    92.8082     0.0000    81.1525   396.7418    81.3316     0.0435     0.0423     0.0158     0.0000     0.0424     0.0402     0.2840    17.4265    17.2543    -0.0616     0.0000  4296.3750     0.0409     0.0785
