~VERSION INFORMATION
VERS.           1.2   :CWLS Log ASCII Standard - VERSION 1.2
WRAP.           NO    :One Line per depth step
PROD.  Schlumberger   :LAS Producer
PROG.  DLIS to ASCII 2.3                               :LAS Program name and version
CREA.        2021/07/30 13:36                          :LAS Creation date {YYYY/MM/DD hh:mm}
DLIS_CREA.  2021-Jul-30 07:07                          :DLIS Creation date and time {YYYY-MMM-DD hh:mm}
SOURCE.     e39621fc-7919-4a62-8a2a-6ee9c8654461       :DLIS File Name
#--------------------------------------------------
~WELL INFORMATION
#MNEM.UNIT      DATA             DESCRIPTION
#---- ------ --------------   -----------------------------
STRT .F      8527.5000       :START DEPTH     
STOP .F      9107.0000       :STOP DEPTH     
STEP .F       0.5000         :STEP       
NULL .          -999.25      :NULL VALUE
COMP .                 COMPANY:  University Of Utah                 
WELL .                    WELL:  FORGE 78B-32                       
FLD  .                   FIELD:  None                               
LOC  .                LOCATION:  Lat: 38.500171, Long: -112.88221   
CNTY .                  COUNTY:  Beaver                             
STAT .                   STATE:  Utah                               
CTRY .                 COUNTRY:                                     
SRVC .         SERVICE COMPANY:  Schlumberger                       
LATI .DEG             LATITUDE:  38 30' 0.616" N                   
LONG .DEG            LONGITUDE:  112 52' 55.956" W                 
API  .              API NUMBER:  NRC 42-00090-03                    
DATE .                LOG DATE:  30-Jul-2021
UWI  .          UNIQUE WELL ID:                                     
#-----------------------------------------------------------------------------
~PARAMETER INFORMATION
#MNEM.UNIT    VALUE                      DESCRIPTION
#---- -----   --------------------       ------------------------
CN   .        University Of Utah         :Company Name
WN   .        FORGE 78B-32               :Well Name
FN   .        None                       :Field Name
FL   .        Lat  38.500171  Long  -112.88221 :Field Location
FL1  .                                   :Field Location, Line 1
COUN .        Beaver                     :County or Parish
STAT .        Utah                       :State or Province
NATI .                                   :Nation
DATE .        30-Jul-2021                :Tools Above Rotary Table Date
APIN .        NRC 42-00090-03            :API Well Number
SECT .                                   :Section
TOWN .                                   :Township
RANG .                                   :Range
DMF  .        KB                         :Drilling Measured From (Name of Drilling Elevation Reference)
LMF  .        KB                         :Logging Measured From (Name of Logging Elevation Reference)
PDAT .        GL                         :Permanent Datum
ENGI .        CSTILES                    :Engineer s Name
WITN .        Virgil  Welch              :Witness s Name
LATI .        38� 30' 0.616  N           :Latitude
LONG .        112� 52' 55.956  W         :Longitude
LUL  .        F.Morgan                   :Logging Unit Location
LUN  .        9108                       :Logging Unit Number
RUN  .        1B                         :Run Number
SON  .                                   :Service Order Number
BHT  .DEGF     419.00000                 :Bottom Hole Temperature
BS   .IN         5.75000                 :Bit Size
MDEN .G/C3       2.71000                 :Matrix Density for Density Porosity
DFD  .LB/G       8.30000                 :Drilling Fluid Density
DFV  .S         24.00000                 :Drilling Fluid Viscosity
DFL  .C3      -999.25000                 :Drilling Fluid Loss
RMFS .OHMM       4.42000                 :Resistivity of Mud Filtrate Sample
EKB  .F       5565.50000                 :Elevation of Kelly Bushing
EGL  .F       5536.00000                 :Elevation of Ground Level
BLI  .F       9532.00000                 :Bottom Log Interval
BSAL .PPM      700.00000                 :Borehole Salinity
FLEV .F          8.00000                 :Depth of Drilling Fluid Level to LMF (Log Measured From)
MCST .DEGF      62.00000                 :Mudcake Sample Temperature
MFST .DEGF      62.00000                 :Mud Filtrate Sample Temperature
MRT  .DEGF     419.00000                 :Maximum Recorded Temperature
MST  .DEGF      62.00000                 :Mud Sample Temperature
RMCS .OHMM       6.21000                 :Resistivity of Mud Cake Sample
RMS  .OHMM       5.20000                 :Resistivity of Mud Sample
RW   .OHMM       1.00000                 :Connate Water Resistivity
TDD  .F       9500.00000                 :Driller Total Depth
TDL  .F       9532.00000                 :Logger Total Depth
TLI  .F       8530.00000                 :Top Log Interval
HIDE .                                   :Header Identifier
MATR .        LIME                       :Rock Matrix for Neutron Porosity Corrections
FNUM .           1.00000                 :F-Numerator for Formation Factor Formula
FEXP .           2.00000                 :Exponent "m" for Formation Factor Formula
DFT  .        WATER                      :Drilling Fluid Type
DFPH .          11.00000                 :Drilling Fluid pH
MCSS .        Calculated                 :Mudcake Sample Source
MFSS .        Calculated                 :Mud Filtrate Sample Source
FD   .G/C3       1.00000                 :Fluid Density
MSS  .        Flowline                   :Mud Sample Source
OS1  .                                   :Other Services Line 1
OS2  .                                   :Other Services Line 2
OS3  .                                   :Other Services Line 3
OS4  .                                   :Other Services Line 4
OS5  .                                   :Other Services Line 5
R1   .                                   :Remarks Line 1
R2   .                                   :Remarks Line 2
R3   .                                   :Remarks Line 3
R4   .                                   :Remarks Line 4
R5   .                                   :Remarks Line 5
R6   .        Tool was run as per tool sketch :Remarks Line 6
R7   .        All logging intervals as per client request :Remarks Line 7
R8   .                                   :Remarks Line 8
TCS  .        20 00 00                   :Time Circulation Stopped
TLAB .        02 17 00                   :Time Logger At Bottom
NMT  .        NOBARITE                   :HRDD Mud Type for Nuclear Devices
EPD  .C3         5536.000000             :Elevation of Permanent Datum above Mean Sea Level
APD  .F          29.500000               :Elevation of Depth Reference (LMF) above Permanent Datum
#-----------------------------------------------------------------------------
~CURVE INFORMATION
#MNEM.UNIT   API CODE                                  DESCRIPTION
#---- -----  --------                                  -----------------------
DEPT .F                                                :DEPTH (BOREHOLE) {F12.4}
AF10 .OHMM                                             :Array Induction Four Foot Resistivity A10 {F11.4}
AF20 .OHMM                                             :Array Induction Four Foot Resistivity A20 {F11.4}
AF30 .OHMM                                             :Array Induction Four Foot Resistivity A30 {F11.4}
AF60 .OHMM                                             :Array Induction Four Foot Resistivity A60 {F11.4}
AF90 .OHMM                                             :Array Induction Four Foot Resistivity A90 {F11.4}
AO10 .OHMM                                             :Array Induction One Foot Resistivity A10 {F11.4}
AO20 .OHMM                                             :Array Induction One Foot Resistivity A20 {F11.4}
AO30 .OHMM                                             :Array Induction One Foot Resistivity A30 {F11.4}
AO60 .OHMM                                             :Array Induction One Foot Resistivity A60 {F11.4}
AO90 .OHMM                                             :Array Induction One Foot Resistivity A90 {F11.4}
AT10 .OHMM                                             :Array Induction Two Foot Resistivity A10 {F11.4}
AT20 .OHMM                                             :Array Induction Two Foot Resistivity A20 {F11.4}
AT30 .OHMM                                             :Array Induction Two Foot Resistivity A30 {F11.4}
AT60 .OHMM                                             :Array Induction Two Foot Resistivity A60 {F11.4}
AT90 .OHMM                                             :Array Induction Two Foot Resistivity A90 {F11.4}
AORT .OHMM                                             :Array Induction One Foot Rt {F11.4}
AORX .OHMM                                             :Array Induction One Foot Rxo {F11.4}
CDF  .LBF                                              :Calibrated Downhole Force {F11.4}
CFTC .HZ                                               :Corrected Far Thermal Count Rate {F11.4}
CNTC .HZ                                               :Corrected Near Thermal Count Rate {F11.4}
CTEM .DEGF                                             :Cartridge Temperature {F11.4}
DCAL .IN                                               :Differential Caliper {F11.4}
DT   .US/F                                             :Delta-T (also called Slowness or Interval Transit Time) {F11.4}
DTCO .US/F                                             :Delta-T Compressional {F11.4}
DTSM .US/F                                             :Delta-T Shear {F11.4}
ED   .F                                                :East Departure {F11.4}
GR_STGC.GAPI                                           :Gamma Ray {F11.4}
GTEM .DEGF                                             :Generalized Borehole Temperature {F11.4}
HGR_STGC.GAPI                                          :High Resolution Gamma Ray {F11.4}
HNPO .CFCF                                             :High Resolution Enhanced Thermal Neutron Porosity in Selected Lithology {F11.4}
HTNP .CFCF                                             :High Resolution Thermal Neutron Porosity (Ratio Method) in Selected Lithology {F11.4}
ITT  .S                                                :Integrated Transit Time {F11.4}
ND   .F                                                :North Departure {F11.4}
NPHI .CFCF                                             :Thermal Neutron Porosity (original Ratio Method) in Selected Lithology {F11.4}
NPOR .CFCF                                             :Enhanced Thermal Neutron Porosity in Selected Lithology {F11.4}
PR   .                                                 :Poisson s Ratio {F11.4}
SP   .MV                                               :Spontaneous Potential {F11.4}
SPAR .MV                                               :SP, Armor Return Compensated {F11.4}
SPHI .CFCF                                             :Sonic Porosity {F11.4}
STIT .F                                                :Stuck Tool Indicator, Total {F11.4}
TENS .LBF                                              :Cable Tension {F11.4}
TNPH .CFCF                                             :Thermal Neutron Porosity (Ratio Method) in Selected Lithology {F11.4}
HTNP_SAN.CFCF                                          :HiRes Thermal Neutron Porosity (matrix Sandstone) {F11.4}
#-----------------------------------------------------------------------------
# 
#      DEPT        AF10       AF20       AF30       AF60       AF90       AO10       AO20       AO30       AO60       AO90       AT10       AT20       AT30       AT60       AT90       AORT       AORX       CDF        CFTC       CNTC       CTEM       DCAL        DT        DTCO       DTSM        ED      GR_STGC      GTEM     HGR_STGC     HNPO       HTNP       ITT         ND        NPHI       NPOR        PR         SP        SPAR       SPHI       STIT       TENS       TNPH     HTNP_SAN
#
~A  
# ...
   8867.5000  1192.5099    13.0236    45.4913    37.8087    24.9064    12.3772     3.9626     4.1925     8.5205     9.4108    94.6283     3.9181     6.3319    15.3616     5.8658     5.5532    12.0770 -7305.9839 10341.8252 17165.7324   110.2118     0.0000    52.1875    52.1875    94.0011     0.0000   164.6679   399.9498   162.4553     0.0304     0.0288     0.0105     0.0000     0.0303     0.0245     0.2772    18.7500    18.4089    -0.0457     0.0000  4126.0000     0.0271     0.0613
   8868.0000  1773.6389    14.6780    63.2210    42.8373    28.0670     5.7566     1.5328     2.1594     3.6634     3.9555    79.1083     5.0067    16.6361    12.4274    12.7359     3.5055     6.1962 -7306.9692 10344.6699 17071.6543   110.2118     0.0000    53.1641    53.1641    94.4800     0.0000   211.6700   400.0026   233.3084     0.0290     0.0278     0.0104     0.0000     0.0294     0.0242     0.2683    18.1250    18.4836    -0.0333     0.0000  4183.2856     0.0268     0.0601
   8868.5000  1950.0000    21.1379    93.1302    40.7723    34.7835     4.1258     2.8766     4.1614     4.8203     5.1905    32.5493     6.6660    12.2918    10.0562     6.5225     2.8060     3.2419 -7268.0029 10283.8564 16645.5859   110.2118     0.0000    53.0078    53.0078    94.0327     0.0000   224.0500   400.0353   238.5327     0.0285     0.0256     0.0104     0.0000     0.0314     0.0259     0.2671    18.2813    18.5303    -0.0353     0.0000  4184.7500     0.0281     0.0573
   8869.0000  1950.0000    32.0068   180.8311    33.1596    41.4516     5.5809     4.3556     6.6098     3.1411     3.9168    61.4334     8.0236    22.2691    13.2484     9.5761     2.3115     1.9291 -7155.0684  9199.6084 16249.1631   110.2118     0.0000    54.1699    54.1699    94.0786     0.0000   211.2218   400.0193   199.8124     0.0305     0.0343     0.0104     0.0000     0.0349     0.0300     0.2520    18.7500    18.5919    -0.0211     0.0000  4219.8569     0.0328     0.0683
   8869.5000  1671.7738    52.9986   415.5293    21.8093    21.7488     5.7928     9.5435    25.3472     3.0720     3.2163    67.4185    15.9748    95.7567    11.6664    11.2875     2.0585     1.2296 -7278.8628  8332.3691 15220.1191   110.2118     0.0000    54.3164    54.3164    94.1793     0.0000   194.2396   400.0255   195.3024     0.0418     0.0409     0.0103     0.0000     0.0365     0.0483     0.2508    18.7500    18.6192    -0.0194     0.0000  4352.6250     0.0383     0.0767
   8870.0000   535.0123    72.5035   146.7763    15.9141    22.5967     6.6061    16.9485    13.2625     2.7115     2.8069    24.4703    16.2747    29.9073     8.9480     8.4794     1.9902     0.8943 -7141.9395  8838.9551 15001.2734   110.2118     0.0000    54.1992    54.1992    95.3237     0.0000   175.5393   400.0647   187.9017     0.0397     0.0321     0.0103     0.0000     0.0331     0.0490     0.2611    18.7500    18.6229    -0.0208     0.0000  4411.5718     0.0342     0.0655
   8870.5000   154.0797    47.7994    60.2506    13.5128    18.3852     4.3340     8.1984     6.9693     2.5580     2.6294    14.9095    10.6014    40.0475     6.9360     7.0672     2.0977     0.7557 -7154.8506 10286.9219 16416.8184   110.2118     0.0000    54.0820    54.0820    96.6805     0.0000   141.6898   400.0774   143.2890     0.0217     0.0238     0.0103     0.0000     0.0270     0.0245     0.2723    18.7500    18.5679    -0.0222     0.0000  4380.3750     0.0249     0.0551
   8871.0000    98.4227    31.2421    41.3391    10.5234    19.1713     1.9821     3.8766     3.5364     2.2503     2.2914     5.3256    10.7123    13.1649     5.7419     6.1421     2.4778     0.7525 -7185.5215 11372.2207 17215.2754   110.2118     0.0000    53.2031    53.2031    96.5613     0.0000   102.1504   400.1028    93.3796     0.0168     0.0194     0.0103     0.0000     0.0243     0.0161     0.2820    18.5156    18.5767    -0.0329     0.0000  4399.4287     0.0198     0.0496
   8871.5000    54.8651    26.0471    29.2127    11.4452    16.2740     6.4278     7.0067     5.4427     4.3176     4.4300    10.7924     5.6339     6.9679     5.4492     5.8659     2.9472     0.8942 -7252.2119 11562.1250 17984.1582   110.2118     0.0000    61.3965    61.3965    93.8085     0.0000    88.2531   400.0971    69.4833     0.0124     0.0202     0.0102     0.0000     0.0231     0.0133     0.1253    18.5156    18.5542     0.0549     0.0000  4330.1250     0.0192     0.0507
   8872.0000    41.5194    14.4718    21.9472    14.9677    16.3976    20.7932     7.3470     7.4415     8.4767     8.7820    21.0884     7.5092    17.9144     7.9752     8.1286     4.5747     1.2811 -7087.3516 11697.9072 17916.7617   110.2118     0.0000    61.0352    61.0352    92.8286     0.0000   107.0537   400.1183   102.1657     0.0185     0.0198     0.0102     0.0000     0.0226     0.0178     0.1192    18.7500    18.5263     0.0516     0.0000  4214.7144     0.0191     0.0501
   8872.5000    65.9962    15.8808    32.9574    23.2136    29.2191    23.4191     6.0824    10.6717    15.2664    15.7183    42.4877    10.3464    19.3594    10.8082    12.0839     8.1722     2.2467 -7177.4424 12045.3555 17917.1484   110.2118     0.0000    52.5977    52.5977    92.6819     0.0000   152.0870   400.1511   150.0694     0.0210     0.0185     0.0102     0.0000     0.0218     0.0202     0.2625    18.5938    18.4652    -0.0404     0.0000  4197.6250     0.0193     0.0485
   8873.0000   116.1988    16.1380    50.3195    28.3430    39.2566   106.0385    15.2395    25.2221    54.3903    60.4145   287.4464    12.4782    38.5203    25.3041    30.5414    20.0325     4.8916 -7253.4111 11883.4365 18005.1270   110.2118     0.0000    52.8320    52.8320    92.9313     0.0000   196.1309   400.1787   204.3627     0.0166     0.0197     0.0102     0.0000     0.0211     0.0188     0.2612    18.1250    18.4198    -0.0375     0.0000  4114.1431     0.0183     0.0500
   8873.5000   150.0708    21.7871    67.2899    56.0375    66.9374   414.2648    22.6750    58.7862    80.6444    97.2754  1950.0000    19.1793    84.5102    69.9134    79.1794    34.8237    13.4226 -7305.9033 12167.8789 18144.5098   110.2118     0.0000    53.3008    53.3008    92.6974     0.0000   218.1577   400.1872   233.5215     0.0119     0.0175     0.0101     0.0000     0.0205     0.0162     0.2530    18.2813    18.3946    -0.0317     0.0000  4125.3750     0.0172     0.0472
   8874.0000   415.5336    25.2166   114.8633   117.8895   130.8154  1950.0000    30.6765   115.1106    63.4626    70.8614  1950.0000    23.4602   164.9223   121.0923   149.8558    42.4165    38.1364 -7246.4458 12535.1670 18237.8242   110.2118     0.0000    53.0273    53.0273    92.0641     0.0000   213.0298   400.1754   215.7522     0.0113     0.0154     0.0101     0.0000     0.0207     0.0134     0.2518    18.2031    18.3538    -0.0350     0.0000  4181.7144     0.0168     0.0447
   8874.5000  1145.4126    30.3453   213.1249   259.4399   273.4724  1242.9698    33.9938   209.5778    95.1349   108.5129  1950.0000    29.3611   405.2089   242.6368   256.7057    61.3685   340.9229 -7236.7188 11770.1611 18018.1035   110.2118     0.0000    52.9590    52.9590    92.2704     0.0000   189.0043   400.2029   189.2645     0.0233     0.0202     0.0101     0.0000     0.0242     0.0120     0.2544    18.1250    18.3059    -0.0359     0.0000  4246.2500     0.0188     0.0506
   8875.0000  1950.0000    35.5890   428.1877   537.2604   588.8114  1950.0000    35.3242   379.7818    59.0000    69.1001  1950.0000    36.4281  1041.2079   282.0789   232.2728    43.0291  1316.2075 -7178.7607 10361.9346 17330.9941   110.2118     0.0000    51.8359    51.8359    92.1576     0.0000   165.8761   400.2511   162.1415     0.0230     0.0282     0.0100     0.0000     0.0311     0.0180     0.2686    18.2031    18.2529    -0.0502     0.0000  4303.5718     0.0263     0.0607
   8875.5000  1950.0000    41.0706   855.0751   790.1097  1139.7008  1950.0000    37.2412   368.8408    35.9926    40.6157  1950.0000    44.1681  1822.0355   214.0198   153.9520    30.8249  1950.0000 -7182.8320  8533.7900 15487.1768   110.2118     0.0000    52.8320    52.8320    93.2551     0.0000   142.1929   400.2690   146.3663     0.0430     0.0382     0.0100     0.0000     0.0391     0.0430     0.2637    18.1250    18.1806    -0.0375     0.0000  4369.2500     0.0381     0.0732
