~VERSION INFORMATION
VERS.           1.2   :CWLS Log ASCII Standard - VERSION 1.2
WRAP.           NO    :One Line per depth step
PROD.  Schlumberger   :LAS Producer
PROG.  DLIS to ASCII 2.3                               :LAS Program name and version
CREA.        2021/07/30 13:36                          :LAS Creation date {YYYY/MM/DD hh:mm}
DLIS_CREA.  2021-Jul-30 07:08                          :DLIS Creation date and time {YYYY-MMM-DD hh:mm}
SOURCE.     6d1d3df9-7549-4232-acfc-119b5b71a716       :DLIS File Name
#--------------------------------------------------
~WELL INFORMATION
#MNEM.UNIT      DATA             DESCRIPTION
#---- ------ --------------   -----------------------------
STRT .F      7447.0000       :START DEPTH     
STOP .F      9553.0000       :STOP DEPTH     
STEP .F       0.5000         :STEP       
NULL .          -999.25      :NULL VALUE
COMP .                 COMPANY:  University Of Utah                 
WELL .                    WELL:  FORGE 78B-32                       
FLD  .                   FIELD:  None                               
LOC  .                LOCATION:  Lat: 38.500171, Long: -112.88221   
CNTY .                  COUNTY:  Beaver                             
STAT .                   STATE:  Utah                               
CTRY .                 COUNTRY:                                     
SRVC .         SERVICE COMPANY:  Schlumberger                       
LATI .DEG             LATITUDE:  38 30' 0.616" N                   
LONG .DEG            LONGITUDE:  112 52' 55.956" W                 
API  .              API NUMBER:  NRC 42-00090-03                    
DATE .                LOG DATE:  30-Jul-2021
UWI  .          UNIQUE WELL ID:                                     
#-----------------------------------------------------------------------------
~PARAMETER INFORMATION
#MNEM.UNIT    VALUE                      DESCRIPTION
#---- -----   --------------------       ------------------------
CN   .        University Of Utah         :Company Name
WN   .        FORGE 78B-32               :Well Name
FN   .        None                       :Field Name
FL   .        Lat  38.500171  Long  -112.88221 :Field Location
FL1  .                                   :Field Location, Line 1
COUN .        Beaver                     :County or Parish
STAT .        Utah                       :State or Province
NATI .                                   :Nation
DATE .        30-Jul-2021                :Tools Above Rotary Table Date
APIN .        NRC 42-00090-03            :API Well Number
SECT .                                   :Section
TOWN .                                   :Township
RANG .                                   :Range
DMF  .        KB                         :Drilling Measured From (Name of Drilling Elevation Reference)
LMF  .        KB                         :Logging Measured From (Name of Logging Elevation Reference)
PDAT .        GL                         :Permanent Datum
ENGI .        CSTILES                    :Engineer s Name
WITN .        Virgil  Welch              :Witness s Name
LATI .        38� 30' 0.616  N           :Latitude
LONG .        112� 52' 55.956  W         :Longitude
LUL  .        F.Morgan                   :Logging Unit Location
LUN  .        9108                       :Logging Unit Number
RUN  .        1B                         :Run Number
SON  .                                   :Service Order Number
BHT  .DEGF     419.00000                 :Bottom Hole Temperature
BS   .IN         5.75000                 :Bit Size
MDEN .G/C3       2.71000                 :Matrix Density for Density Porosity
DFD  .LB/G       8.30000                 :Drilling Fluid Density
DFV  .S         24.00000                 :Drilling Fluid Viscosity
DFL  .C3      -999.25000                 :Drilling Fluid Loss
RMFS .OHMM       4.42000                 :Resistivity of Mud Filtrate Sample
EKB  .F       5565.50000                 :Elevation of Kelly Bushing
EGL  .F       5536.00000                 :Elevation of Ground Level
BLI  .F       9532.00000                 :Bottom Log Interval
BSAL .PPM      700.00000                 :Borehole Salinity
FLEV .F          8.00000                 :Depth of Drilling Fluid Level to LMF (Log Measured From)
MCST .DEGF      62.00000                 :Mudcake Sample Temperature
MFST .DEGF      62.00000                 :Mud Filtrate Sample Temperature
MRT  .DEGF     419.00000                 :Maximum Recorded Temperature
MST  .DEGF      62.00000                 :Mud Sample Temperature
RMCS .OHMM       6.21000                 :Resistivity of Mud Cake Sample
RMS  .OHMM       5.20000                 :Resistivity of Mud Sample
RW   .OHMM       1.00000                 :Connate Water Resistivity
TDD  .F       9500.00000                 :Driller Total Depth
TDL  .F       9532.00000                 :Logger Total Depth
TLI  .F       8530.00000                 :Top Log Interval
HIDE .                                   :Header Identifier
MATR .        LIME                       :Rock Matrix for Neutron Porosity Corrections
FNUM .           1.00000                 :F-Numerator for Formation Factor Formula
FEXP .           2.00000                 :Exponent "m" for Formation Factor Formula
DFT  .        WATER                      :Drilling Fluid Type
DFPH .          11.00000                 :Drilling Fluid pH
MCSS .        Calculated                 :Mudcake Sample Source
MFSS .        Calculated                 :Mud Filtrate Sample Source
FD   .G/C3       1.00000                 :Fluid Density
MSS  .        Flowline                   :Mud Sample Source
OS1  .                                   :Other Services Line 1
OS2  .                                   :Other Services Line 2
OS3  .                                   :Other Services Line 3
OS4  .                                   :Other Services Line 4
OS5  .                                   :Other Services Line 5
R1   .                                   :Remarks Line 1
R2   .                                   :Remarks Line 2
R3   .                                   :Remarks Line 3
R4   .                                   :Remarks Line 4
R5   .                                   :Remarks Line 5
R6   .        Tool was run as per tool sketch :Remarks Line 6
R7   .        All logging intervals as per client request :Remarks Line 7
R8   .                                   :Remarks Line 8
TCS  .        20 00 00                   :Time Circulation Stopped
TLAB .        02 17 00                   :Time Logger At Bottom
NMT  .        NOBARITE                   :HRDD Mud Type for Nuclear Devices
EPD  .C3         5536.000000             :Elevation of Permanent Datum above Mean Sea Level
APD  .F          29.500000               :Elevation of Depth Reference (LMF) above Permanent Datum
#-----------------------------------------------------------------------------
~CURVE INFORMATION
#MNEM.UNIT   API CODE                                  DESCRIPTION
#---- -----  --------                                  -----------------------
DEPT .F                                                :DEPTH (BOREHOLE) {F12.4}
AF10 .OHMM                                             :Array Induction Four Foot Resistivity A10 {F11.4}
AF20 .OHMM                                             :Array Induction Four Foot Resistivity A20 {F11.4}
AF30 .OHMM                                             :Array Induction Four Foot Resistivity A30 {F11.4}
AF60 .OHMM                                             :Array Induction Four Foot Resistivity A60 {F11.4}
AF90 .OHMM                                             :Array Induction Four Foot Resistivity A90 {F11.4}
AO10 .OHMM                                             :Array Induction One Foot Resistivity A10 {F11.4}
AO20 .OHMM                                             :Array Induction One Foot Resistivity A20 {F11.4}
AO30 .OHMM                                             :Array Induction One Foot Resistivity A30 {F11.4}
AO60 .OHMM                                             :Array Induction One Foot Resistivity A60 {F11.4}
AO90 .OHMM                                             :Array Induction One Foot Resistivity A90 {F11.4}
AT10 .OHMM                                             :Array Induction Two Foot Resistivity A10 {F11.4}
AT20 .OHMM                                             :Array Induction Two Foot Resistivity A20 {F11.4}
AT30 .OHMM                                             :Array Induction Two Foot Resistivity A30 {F11.4}
AT60 .OHMM                                             :Array Induction Two Foot Resistivity A60 {F11.4}
AT90 .OHMM                                             :Array Induction Two Foot Resistivity A90 {F11.4}
AORT .OHMM                                             :Array Induction One Foot Rt {F11.4}
AORX .OHMM                                             :Array Induction One Foot Rxo {F11.4}
CDF  .LBF                                              :Calibrated Downhole Force {F11.4}
CFTC .HZ                                               :Corrected Far Thermal Count Rate {F11.4}
CNTC .HZ                                               :Corrected Near Thermal Count Rate {F11.4}
CTEM .DEGF                                             :Cartridge Temperature {F11.4}
DCAL .IN                                               :Differential Caliper {F11.4}
DT   .US/F                                             :Delta-T (also called Slowness or Interval Transit Time) {F11.4}
DTCO .US/F                                             :Delta-T Compressional {F11.4}
DTSM .US/F                                             :Delta-T Shear {F11.4}
ED   .F                                                :East Departure {F11.4}
GR_STGC.GAPI                                           :Gamma Ray {F11.4}
GTEM .DEGF                                             :Generalized Borehole Temperature {F11.4}
HGR_STGC.GAPI                                          :High Resolution Gamma Ray {F11.4}
HNPO .CFCF                                             :High Resolution Enhanced Thermal Neutron Porosity in Selected Lithology {F11.4}
HTNP .CFCF                                             :High Resolution Thermal Neutron Porosity (Ratio Method) in Selected Lithology {F11.4}
ITT  .S                                                :Integrated Transit Time {F11.4}
ND   .F                                                :North Departure {F11.4}
NPHI .CFCF                                             :Thermal Neutron Porosity (original Ratio Method) in Selected Lithology {F11.4}
NPOR .CFCF                                             :Enhanced Thermal Neutron Porosity in Selected Lithology {F11.4}
PR   .                                                 :Poisson s Ratio {F11.4}
SP   .MV                                               :Spontaneous Potential {F11.4}
SPAR .MV                                               :SP, Armor Return Compensated {F11.4}
SPHI .CFCF                                             :Sonic Porosity {F11.4}
STIT .F                                                :Stuck Tool Indicator, Total {F11.4}
TENS .LBF                                              :Cable Tension {F11.4}
TNPH .CFCF                                             :Thermal Neutron Porosity (Ratio Method) in Selected Lithology {F11.4}
HTNP_SAN.CFCF                                          :HiRes Thermal Neutron Porosity (matrix Sandstone) {F11.4}
#-----------------------------------------------------------------------------
# 
#      DEPT        AF10       AF20       AF30       AF60       AF90       AO10       AO20       AO30       AO60       AO90       AT10       AT20       AT30       AT60       AT90       AORT       AORX       CDF        CFTC       CNTC       CTEM       DCAL        DT        DTCO       DTSM        ED      GR_STGC      GTEM     HGR_STGC     HNPO       HTNP       ITT         ND        NPHI       NPOR        PR         SP        SPAR       SPHI       STIT       TENS       TNPH     HTNP_SAN
#
~A  
# ...
   7727.5000     0.3220  1950.0000  1950.0000     6.8216    35.6658     0.3247  1950.0000    11.4959     3.1939     5.0799     0.3246  1950.0000  1950.0000     6.9744   280.7022     2.9987     0.3252 -2373.3726  2506.5010  5507.2358   139.8588     0.0000    51.7188    51.7188   155.2919     0.0000    97.3424   359.8405    95.0956     0.0309     0.0384     0.1032     0.0000     0.0108     0.0321     0.4376   -40.4167   -40.3348    -0.0517     0.0000  3718.9998     0.0375     0.0735
   7728.0000     0.3199  1950.0000  1950.0000     6.6888    36.5908     0.2959  1950.0000    10.2459     2.3742     3.5518     0.3187  1950.0000  1950.0000     6.7855   631.0038     2.5713     0.3213     0.0000  2539.4287  5309.4126   139.8588     0.0000    51.6895    51.6895   151.5045     0.0000    97.8242   359.8687   102.9253     0.0320     0.0350     0.1032     0.0000     0.0133     0.0392     0.4341   -40.6250   -40.6890    -0.0521     0.0000  3742.0002     0.0398     0.0691
   7728.5000     0.3197  1950.0000  1950.0000     6.5616    37.6944     0.2857  1950.0000    13.7945     2.0661     2.9868     0.3189  1950.0000  1950.0000     6.6675  1292.6755     2.2867     0.3220 -8702.4209  2265.2358  5077.9614   139.8588     0.0000    52.4805    52.4805   151.7404     0.0000    96.6879   359.8908    95.4516     0.0591     0.0426     0.1031     0.0000     0.0141     0.0530     0.4321   -41.0938   -41.0236    -0.0419     0.0000  3784.0000     0.0430     0.0789
   7729.0000     0.3209  1950.0000  1950.0000     6.4696    38.7104     0.3161  1950.0000    26.2528     1.8489     2.5849     0.3246  1950.0000  1950.0000     6.6241  1950.0000     2.1167     0.3258 -9999.9999  2374.5308  5317.0132   139.8588     0.0000    52.2656    52.2656   151.9763     0.0000    95.5191   359.8802    91.6867     0.0373     0.0444     0.1031     0.0000     0.0165     0.0373     0.4329   -41.8750   -41.3660    -0.0447     0.0000  3762.0002     0.0416     0.0811
   7729.5000     0.3218  1950.0000  1950.0000     6.4211    39.3666     0.3648  1950.0000    41.4543     1.7155     2.3456     0.3313  1950.0000  1950.0000     6.6184  1950.0000     2.0391     0.3294 -9999.9999  2446.0449  5436.9131   139.8588     0.0000    52.2266    52.2266   151.4971     0.0000    98.6115   359.9167    99.2916     0.0513     0.0424     0.1031     0.0000     0.0133     0.0312     0.4326   -41.8750   -41.7325    -0.0452     0.0000  3835.0000     0.0398     0.0785
   7730.0000     0.3208  1950.0000  1950.0000     6.4095    39.5471     0.3934  1950.0000    23.2339     1.8181     2.5036     0.3317  1950.0000  1950.0000     6.6133  1950.0000     2.0322     0.3283 -9999.9999  2362.1699  4881.8457   139.8588     0.0000    53.7598    53.7598   151.0178     0.0000   103.0325   359.9091   104.7290     0.0460     0.0350     0.1031     0.0000     0.0135     0.0600     0.4274   -42.0833   -41.9822    -0.0260     0.0000  3807.0002     0.0427     0.0692
   7730.5000     0.3173  1950.0000  1950.0000     6.4229    39.3496     0.3795  1950.0000    11.3611     2.1248     3.0702     0.3224  1950.0000  1950.0000     6.5853  1950.0000     2.0694     0.3208 -9999.9999  2358.7302  5312.4902   139.8588     0.0000    54.3750    54.3750   150.5386     0.0000   108.8371   359.9064   104.9494     0.0454     0.0450     0.1030     0.0000     0.0146     0.0461     0.4250   -42.5000   -42.4326    -0.0187     0.0000  3843.0000     0.0441     0.0819
   7731.0000     0.3124  1950.0000  1950.0000     6.4503    38.9900     0.3084  1950.0000     7.8228     2.3654     3.6741     0.3070  1950.0000  1950.0000     6.5407  1950.0000     2.1181     0.3092 -9999.9999  2444.6182  5578.8965   139.8588     0.0000    53.6816    53.6816   150.0594     0.0000   115.0451   359.9380   116.8327     0.0577     0.0495     0.1030     0.0000     0.0127     0.0295     0.4266   -42.6563   -42.6554    -0.0270     0.0000  3853.0000     0.0363     0.0876
   7731.5000     0.3075  1950.0000  1950.0000     6.4858    38.6584     0.2579  1950.0000     8.0522     2.4752     4.0081     0.2927  1950.0000  1950.0000     6.5161  1950.0000     2.1491     0.2983 -9999.9999  2852.7876  5604.4360   139.8588     0.0000    53.0664    53.0664   152.2154     0.0000   120.7490   359.9289   123.3531     0.0273     0.0291     0.1030     0.0000     0.0118     0.0348     0.4308   -43.1250   -42.8956    -0.0346     0.0000  3857.9998     0.0370     0.0617
   7732.0000     0.3040  1950.0000  1950.0000     6.5261    38.4446     0.2502  1950.0000    12.3798     2.4040     3.7499     0.2847  1950.0000  1950.0000     6.5428  1950.0000     2.1541     0.2915 -6612.9092  2533.9919  5571.0298   139.8588     0.0000    52.6758    52.6758   106.3529     0.0000   124.8700   359.9365   121.8567     0.0388     0.0407     0.1030     0.0000     0.0098     0.0305     0.3375   -43.1250   -43.0833    -0.0394     0.0000  3893.0002     0.0335     0.0764
   7732.5000     0.3021  1950.0000  1950.0000     6.5657    38.3421     0.2776  1950.0000    28.3167     2.0283     2.9189     0.2834  1950.0000  1950.0000     6.6286  1950.0000     2.1524     0.2893 -3955.6208  2594.4033  5641.2422   139.8588     0.0000    52.4902    52.4902   110.8845     0.0000   130.1239   359.9503   129.1955     0.0355     0.0394     0.1029     0.0000     0.0128     0.0311     0.3556   -43.1250   -43.2067    -0.0418     0.0000  3872.0000     0.0395     0.0748
   7733.0000     0.3014  1950.0000  1950.0000     6.5926    38.2685     0.3149  1950.0000    94.4699     1.7549     2.4231     0.2863  1950.0000  1950.0000     6.7447  1880.6466     2.1739     0.2903 -9999.9999  2362.7239  5034.9033   139.8588     0.0000    52.9883    52.9883    82.9305     0.0000   138.0914   359.9648   139.1149     0.0548     0.0407     0.1029     0.0000     0.0187     0.0522     0.1550   -43.1250   -43.2931    -0.0355     0.0000  3872.0000     0.0438     0.0765
   7733.5000     0.3011  1950.0000  1950.0000     6.5873    38.0853     0.3185  1950.0000   448.5941     1.8827     2.6265     0.2893  1950.0000  1950.0000     6.8304  1497.9810     2.2355     0.2919 -9999.9999  2061.2317  5193.9189   139.8588     0.0000    53.5938    53.5938   118.0334     0.0000   146.3337   359.9807   145.9640     0.0622     0.0527     0.1029     0.0000     0.0173     0.0456     0.3701   -42.8125   -43.3187    -0.0281     0.0000  3846.0002     0.0475     0.0917
   7734.0000     0.3010  1950.0000  1950.0000     6.5286    37.6417     0.2973  1950.0000  1950.0000     2.4685     3.7588     0.2904  1950.0000  1950.0000     6.8281  1034.6583     2.3243     0.2929 -9999.9999  2275.6401  4773.2671   139.8588     0.0000    54.1602    54.1602   147.7009     0.0000   153.2160   359.9609   153.9223     0.0501     0.0376     0.1028     0.0000     0.0209     0.0643     0.4223   -43.1250   -43.4572    -0.0212     0.0000  3837.0000     0.0500     0.0724
   7734.5000     0.3012  1950.0000  1950.0000     6.4034    36.8639     0.2808  1950.0000  1950.0000     3.1421     6.0187     0.2904  1950.0000  1950.0000     6.6994   624.8557     2.3933     0.2937 -9999.9999  2189.0261  5086.0420   139.8588     0.0000    54.7852    54.7852   177.5957     0.0000   158.6973   359.9868   159.7619     0.0451     0.0511     0.1028     0.0000     0.0162     0.0499     0.4474   -43.4375   -43.4889    -0.0139     0.0000  3801.0002     0.0456     0.0897
   7735.0000     0.3023  1950.0000  1950.0000     6.2162    35.8361     0.2762  1950.0000  1182.0709     3.1846     8.0924     0.2919  1950.0000  1950.0000     6.4399   340.4463     2.3834     0.2957 -9999.9999  2396.5715  5436.9248   139.8588     0.0000    55.2734    55.2734   174.7819     0.0000   161.8690   359.9899   162.6104     0.0330     0.0463     0.1028     0.0000     0.0178     0.0409     0.4444   -43.7500   -43.5105    -0.0082     0.0000  3810.0000     0.0447     0.0836
   7735.5000     0.3046  1950.0000  1950.0000     5.9909    34.7772     0.2869  1950.0000   416.3706     2.8031     7.7174     0.2966  1950.0000  1950.0000     6.0967   182.7570     2.2770     0.3003  5539.7021  2512.5254  5481.7129   139.8588     0.0000    54.8145    54.8145   174.8033     0.0000   161.3224   360.0219   163.4374     0.0291     0.0388     0.1028     0.0000     0.0148     0.0417     0.4455   -43.7500   -43.6111    -0.0135     0.0000  3775.0000     0.0399     0.0740
