~VERSION INFORMATION
VERS.           1.2   :CWLS Log ASCII Standard - VERSION 1.2
WRAP.           NO    :One Line per depth step
PROD.  Schlumberger   :LAS Producer
PROG.  DLIS to ASCII 2.3                               :LAS Program name and version
CREA.        2021/07/30 13:36                          :LAS Creation date {YYYY/MM/DD hh:mm}
DLIS_CREA.  2021-Jul-30 07:07                          :DLIS Creation date and time {YYYY-MMM-DD hh:mm}
SOURCE.     dc707e3c-4962-4d77-8314-dc20fe7b42b8       :DLIS File Name
#--------------------------------------------------
~WELL INFORMATION
#MNEM.UNIT      DATA             DESCRIPTION
#---- ------ --------------   -----------------------------
STRT .F        8616.5000     :START DEPTH     
STOP .F        9518.5000     :STOP DEPTH     
STEP .F           0.5000       :STEP     
NULL .          -999.25      :NULL VALUE
COMP .                 COMPANY:  University Of Utah                 
WELL .                    WELL:  FORGE 78B-32                       
FLD  .                   FIELD:  None                               
LOC  .                LOCATION:  Lat: 38.500171, Long: -112.88221   
CNTY .                  COUNTY:  Beaver                             
STAT .                   STATE:  Utah                               
CTRY .                 COUNTRY:                                     
SRVC .         SERVICE COMPANY:  Schlumberger                       
LATI .DEG             LATITUDE:  38 30' 0.616" N                   
LONG .DEG            LONGITUDE:  112 52' 55.956" W                 
API  .              API NUMBER:  NRC 42-00090-03                    
DATE .                LOG DATE:  30-Jul-2021
UWI  .          UNIQUE WELL ID:                                     
#-----------------------------------------------------------------------------
~PARAMETER INFORMATION
#MNEM.UNIT    VALUE                      DESCRIPTION
#---- -----   --------------------       ------------------------
CN   .        University Of Utah         :Company Name
WN   .        FORGE 78B-32               :Well Name
FN   .        None                       :Field Name
FL   .        Lat  38.500171  Long  -112.88221 :Field Location
FL1  .                                   :Field Location, Line 1
COUN .        Beaver                     :County or Parish
STAT .        Utah                       :State or Province
NATI .                                   :Nation
DATE .        30-Jul-2021                :Tools Above Rotary Table Date
APIN .        NRC 42-00090-03            :API Well Number
SECT .                                   :Section
TOWN .                                   :Township
RANG .                                   :Range
DMF  .        KB                         :Drilling Measured From (Name of Drilling Elevation Reference)
LMF  .        KB                         :Logging Measured From (Name of Logging Elevation Reference)
PDAT .        GL                         :Permanent Datum
ENGI .        CSTILES                    :Engineer s Name
WITN .        Virgil  Welch              :Witness s Name
LATI .        38� 30' 0.616  N           :Latitude
LONG .        112� 52' 55.956  W         :Longitude
LUL  .        F.Morgan                   :Logging Unit Location
LUN  .        9108                       :Logging Unit Number
RUN  .        1B                         :Run Number
SON  .                                   :Service Order Number
BHT  .DEGF     419.00000                 :Bottom Hole Temperature
BS   .IN         5.75000                 :Bit Size
MDEN .G/C3       2.71000                 :Matrix Density for Density Porosity
DFD  .LB/G       8.30000                 :Drilling Fluid Density
DFV  .S         24.00000                 :Drilling Fluid Viscosity
DFL  .C3      -999.25000                 :Drilling Fluid Loss
RMFS .OHMM       4.42000                 :Resistivity of Mud Filtrate Sample
EKB  .F       5565.50000                 :Elevation of Kelly Bushing
EGL  .F       5536.00000                 :Elevation of Ground Level
BLI  .F       9532.00000                 :Bottom Log Interval
BSAL .PPM      700.00000                 :Borehole Salinity
FLEV .F          8.00000                 :Depth of Drilling Fluid Level to LMF (Log Measured From)
MCST .DEGF      62.00000                 :Mudcake Sample Temperature
MFST .DEGF      62.00000                 :Mud Filtrate Sample Temperature
MRT  .DEGF     419.00000                 :Maximum Recorded Temperature
MST  .DEGF      62.00000                 :Mud Sample Temperature
RMCS .OHMM       6.21000                 :Resistivity of Mud Cake Sample
RMS  .OHMM       5.20000                 :Resistivity of Mud Sample
RW   .OHMM       1.00000                 :Connate Water Resistivity
TDD  .F       9500.00000                 :Driller Total Depth
TDL  .F       9532.00000                 :Logger Total Depth
TLI  .F       8530.00000                 :Top Log Interval
HIDE .                                   :Header Identifier
MATR .        LIME                       :Rock Matrix for Neutron Porosity Corrections
FNUM .           1.00000                 :F-Numerator for Formation Factor Formula
FEXP .           2.00000                 :Exponent "m" for Formation Factor Formula
DFT  .        WATER                      :Drilling Fluid Type
DFPH .          11.00000                 :Drilling Fluid pH
MCSS .        Calculated                 :Mudcake Sample Source
MFSS .        Calculated                 :Mud Filtrate Sample Source
FD   .G/C3       1.00000                 :Fluid Density
MSS  .        Flowline                   :Mud Sample Source
OS1  .                                   :Other Services Line 1
OS2  .                                   :Other Services Line 2
OS3  .                                   :Other Services Line 3
OS4  .                                   :Other Services Line 4
OS5  .                                   :Other Services Line 5
R1   .                                   :Remarks Line 1
R2   .                                   :Remarks Line 2
R3   .                                   :Remarks Line 3
R4   .                                   :Remarks Line 4
R5   .                                   :Remarks Line 5
R6   .        Tool was run as per tool sketch :Remarks Line 6
R7   .        All logging intervals as per client request :Remarks Line 7
R8   .                                   :Remarks Line 8
TCS  .        20 00 00                   :Time Circulation Stopped
TLAB .        02 17 00                   :Time Logger At Bottom
NMT  .        NOBARITE                   :HRDD Mud Type for Nuclear Devices
EPD  .C3         5536.000000             :Elevation of Permanent Datum above Mean Sea Level
APD  .F          29.500000               :Elevation of Depth Reference (LMF) above Permanent Datum
#-----------------------------------------------------------------------------
~CURVE INFORMATION
#MNEM.UNIT   API CODE                                  DESCRIPTION
#---- -----  --------                                  -----------------------
DEPT .F                                                :DEPTH (BOREHOLE) {F12.4}
AF10 .OHMM                                             :Array Induction Four Foot Resistivity A10 {F11.4}
AF20 .OHMM                                             :Array Induction Four Foot Resistivity A20 {F11.4}
AF30 .OHMM                                             :Array Induction Four Foot Resistivity A30 {F11.4}
AF60 .OHMM                                             :Array Induction Four Foot Resistivity A60 {F11.4}
AF90 .OHMM                                             :Array Induction Four Foot Resistivity A90 {F11.4}
AO10 .OHMM                                             :Array Induction One Foot Resistivity A10 {F11.4}
AO20 .OHMM                                             :Array Induction One Foot Resistivity A20 {F11.4}
AO30 .OHMM                                             :Array Induction One Foot Resistivity A30 {F11.4}
AO60 .OHMM                                             :Array Induction One Foot Resistivity A60 {F11.4}
AO90 .OHMM                                             :Array Induction One Foot Resistivity A90 {F11.4}
AT10 .OHMM                                             :Array Induction Two Foot Resistivity A10 {F11.4}
AT20 .OHMM                                             :Array Induction Two Foot Resistivity A20 {F11.4}
AT30 .OHMM                                             :Array Induction Two Foot Resistivity A30 {F11.4}
AT60 .OHMM                                             :Array Induction Two Foot Resistivity A60 {F11.4}
AT90 .OHMM                                             :Array Induction Two Foot Resistivity A90 {F11.4}
AORT .OHMM                                             :Array Induction One Foot Rt {F11.4}
AORX .OHMM                                             :Array Induction One Foot Rxo {F11.4}
CDF  .LBF                                              :Calibrated Downhole Force {F11.4}
CFTC .HZ                                               :Corrected Far Thermal Count Rate {F11.4}
CNTC .HZ                                               :Corrected Near Thermal Count Rate {F11.4}
CTEM .DEGF                                             :Cartridge Temperature {F11.4}
DCAL .IN                                               :Differential Caliper {F11.4}
DT   .US/F                                             :Delta-T (also called Slowness or Interval Transit Time) {F11.4}
DTCO .US/F                                             :Delta-T Compressional {F11.4}
DTSM .US/F                                             :Delta-T Shear {F11.4}
ED   .F                                                :East Departure {F11.4}
GR_STGC.GAPI                                           :Gamma Ray {F11.4}
GTEM .DEGF                                             :Generalized Borehole Temperature {F11.4}
HGR_STGC.GAPI                                          :High Resolution Gamma Ray {F11.4}
HNPO .CFCF                                             :High Resolution Enhanced Thermal Neutron Porosity in Selected Lithology {F11.4}
HTNP .CFCF                                             :High Resolution Thermal Neutron Porosity (Ratio Method) in Selected Lithology {F11.4}
ITT  .S                                                :Integrated Transit Time {F11.4}
ND   .F                                                :North Departure {F11.4}
NPHI .CFCF                                             :Thermal Neutron Porosity (original Ratio Method) in Selected Lithology {F11.4}
NPOR .CFCF                                             :Enhanced Thermal Neutron Porosity in Selected Lithology {F11.4}
PR   .                                                 :Poisson s Ratio {F11.4}
SP   .MV                                               :Spontaneous Potential {F11.4}
SPAR .MV                                               :SP, Armor Return Compensated {F11.4}
SPHI .CFCF                                             :Sonic Porosity {F11.4}
STIT .F                                                :Stuck Tool Indicator, Total {F11.4}
TENS .LBF                                              :Cable Tension {F11.4}
TNPH .CFCF                                             :Thermal Neutron Porosity (Ratio Method) in Selected Lithology {F11.4}
HTNP_SAN.CFCF                                          :HiRes Thermal Neutron Porosity (matrix Sandstone) {F11.4}
#-----------------------------------------------------------------------------
# 
#      DEPT        AF10       AF20       AF30       AF60       AF90       AO10       AO20       AO30       AO60       AO90       AT10       AT20       AT30       AT60       AT90       AORT       AORX       CDF        CFTC       CNTC       CTEM       DCAL        DT        DTCO       DTSM        ED      GR_STGC      GTEM     HGR_STGC     HNPO       HTNP       ITT         ND        NPHI       NPOR        PR         SP        SPAR       SPHI       STIT       TENS       TNPH     HTNP_SAN
#
~A  
# ...
   9211.5000  1950.0000   103.0939   904.2598  1833.0066  1950.0000  1950.0000   304.3132   705.5094   540.9383   487.0598  1950.0000   153.3245  1119.4888  1950.0000  1950.0000   535.9108  1921.0004 -9579.6592 12410.2002 18341.2695   116.1412     0.0000    93.7500    93.7500   165.7735     0.0000   162.8638   409.7675   164.4860     0.0230     0.0189     0.0536     0.0000     0.0211     0.0206     0.2649    55.6250    54.6687     0.2517     0.0000  3203.0000     0.0179     0.0490
   9212.0000  1950.0000    99.6411  1048.8766  1887.1646  1950.0000  1950.0000   229.9294   612.4036   338.0407   301.8109  1950.0000   140.2671   796.3870  1221.7262  1709.6355   338.0407  1830.0005 -9576.8857 12771.7305 18316.2910   116.1412     0.0000    81.1719    81.1719   181.2410     0.0000   160.8310   409.8090   160.5757     0.0135     0.0137     0.0537     0.0000     0.0169     0.0152     0.3745    55.3125    54.5760     0.1938     0.0000  3208.0002     0.0142     0.0427
   9212.5000  1950.0000    92.2695  1046.1306  1835.4995  1873.5137  1950.0000   101.9734   191.5994   161.2410   135.2789  1950.0000   115.0782   670.2347  1241.2729  1694.3237   161.2410  1620.6348 -9540.6250 13324.6719 18082.0977   116.1412     0.0000    89.6094    89.6094   184.5069     0.0000   160.2938   409.8436   159.7197     0.0123     0.0130     0.0537     0.0000     0.0153     0.0130     0.3457    54.3750    54.4697     0.2344     0.0000  3204.0000     0.0120     0.0417
   9213.0000  1950.0000    82.6707   859.2764  1591.4108  1610.3137  1699.7826    57.8101   101.0369   172.0144   145.4334  1950.0000    82.4138   597.5961  1251.5778  1570.9070   172.0144  1344.6726 -9519.4375 12944.4902 18015.7969   116.1412     0.0000    89.6094    89.6094   184.5069     0.0000   159.6434   409.8690   162.2083     0.0109     0.0108     0.0537     0.0000     0.0133     0.0094     0.3457    53.7500    53.8764     0.2344     0.0000  3203.5002     0.0094     0.0391
   9213.5000  1950.0000    70.8903   629.5920  1159.5498  1184.7649  1435.7590    52.4630   119.6722   180.4872   153.9651  1914.2412    66.1791   499.1115   973.4791  1171.2324   180.4872   995.6025 -9517.9434 13654.3564 18091.1348   116.1412     0.0000    67.4805    67.4805   184.5069     0.0000   156.9380   409.9059   157.1125     0.0086     0.0090     0.0538     0.0000     0.0136     0.0134     0.4228    53.1250    53.7872     0.1063     0.0000  3205.0000     0.0116     0.0369
   9214.0000  1950.0000    64.5742   436.4359   735.6118   767.0349  1252.8005    59.2733    86.1832   110.3688    91.8678  1800.2596    60.5394   432.8746   610.7678   727.4232   110.3688   686.1462 -9515.6689 12779.5918 17556.1367   116.1412     0.0000    67.3340    67.3340  -999.2500     0.0000   153.1378   409.9151   154.9821     0.0206     0.0134     0.0538     0.0000     0.0148     0.0176  -999.2500    53.1250    53.7278     0.1052     0.0000  3197.0000     0.0103     0.0423
   9214.5000  1806.0739    60.1331   310.5716   448.1092   477.8410  1282.4232    53.1187   156.0981   166.7587   138.0013  1771.6223    56.5306   333.6445   347.3844   404.5810   166.7587   443.5432 -9515.0293 13373.6885 19469.5078   116.1412     0.0000    64.1113    64.1113  -999.2500     0.0000   150.9888   409.9197   151.0730     0.0050     0.0124     0.0538     0.0000     0.0154    -0.0038  -999.2500    53.1250    53.7544     0.0791     0.0000  3188.0000     0.0113     0.0410
   9215.0000  1472.7552    54.5603   235.0789   282.1451   306.4738  1950.0000    43.8577   154.4226   143.3906   119.1972  1534.6268    47.6127   234.8711   205.1343   227.7805   143.3906   275.5957 -9568.9229 13027.7070 17680.1563   116.1412     0.0000    68.6621    68.6621   151.8556     0.0000   150.6361   410.0119   150.6394     0.0109     0.0103     0.0539     0.0000     0.0170     0.0168  -999.2500    53.1250    53.7871     0.1153     0.0000  3173.0000     0.0125     0.0386
   9215.5000   968.3982    51.6516   186.8286   196.2941   217.9476   310.9489    42.0507   109.9572   102.9403    88.2621   743.6486    48.0525   166.4133   129.9932   135.8150   102.9403   186.1797 -9645.7109 12070.5313 17651.8633   116.1412     0.0000   107.8125   107.8125   140.9718     0.0000   150.6389   409.9751   150.5486     0.0141     0.0127     0.0539     0.0000     0.0188     0.0207  -999.2500    53.1250    53.8761     0.3004     0.0000  3160.0002     0.0167     0.0414
   9216.0000   614.1727    49.1937   150.5687   137.5724   152.5508   145.2802    38.8680    81.5054   110.2258    94.2685   437.7053    43.9918   126.0464    94.5375    95.7110   110.2258   128.8398 -9643.3818 11477.6875 17803.9746   116.1412     0.0000   107.8125   107.8125   146.2608     0.0000   148.2741   410.0004   150.8162     0.0188     0.0195     0.0540     0.0000     0.0217     0.0153  -999.2500    53.7500    54.0235     0.3004     0.0000  3152.0000     0.0185     0.0498
   9216.5000   388.2350    47.4524   130.7845   106.1892   118.0216    73.2220    35.4494    74.6342   110.0361    96.1708   323.3773    40.4047    89.8711    62.8016    62.6909   110.0361    90.9487 -9565.8652 11410.9395 17269.1289   116.1412     0.0000   117.8906   117.8906   151.5498     0.0000   145.3636   409.9935   144.5508     0.0229     0.0203     0.0540     0.0000     0.0219     0.0243  -999.2500    54.0625    54.5639     0.3281     0.0000  3148.5002     0.0200     0.0507
   9217.0000   250.7975    51.7942   141.3167   105.7736   115.8156    50.5485    50.8201    63.5593    97.2221    86.9024   176.1634    48.1580    96.2752    67.7188    53.6532    97.2221    73.4091 -9550.0107 11716.3340 17267.9395   116.1412     0.0000   127.9688   127.9688   156.8388     0.0000   143.1866   410.1180   140.7318     0.0208     0.0186     0.0541     0.0000     0.0216     0.0265  -999.2500    55.0000    54.8213     0.3515     0.0000  3145.0000     0.0201     0.0486
   9217.5000   158.8870    60.6336   168.2143   115.3037   121.9685    73.8152    60.1485    84.8702   130.4648   114.0883   153.4487    61.4274   124.5335    83.4298    55.6142   130.4648    69.4481 -9549.5127 11774.5244 18091.6719   116.1412     0.0000   127.9688   127.9688   162.1278     0.0000   145.8041   410.1411   142.6376     0.0151     0.0180     0.0542     0.0000     0.0218     0.0106     0.3665    55.6250    55.1250     0.3515     0.0000  3140.0000     0.0168     0.0479
   9218.0000   116.8607    67.4181   210.4525   135.1806   134.5333    67.4558    86.1032   107.0514   161.4747   140.5571   112.6923    73.3634   153.1876   118.7789    59.9879   161.4747    59.6776 -9538.8477 12153.6963 18494.4316   116.1412     0.0000    78.4180    78.4180   167.4168     0.0000   152.0306   410.1134   148.9706     0.0215     0.0192     0.0542     0.0000     0.0218     0.0050     0.3595    55.6250    55.8532     0.1787     0.0000  3139.0000     0.0173     0.0495
   9218.5000    96.8269    82.2848   297.6577   169.2099   154.7242    77.5792    75.2915   153.3265   373.4088   290.8366   101.7512   105.3294   225.6435   108.4327    63.3397   361.5706    56.0168 -9537.1768 11295.5117 16656.3125   116.1412     0.0000    70.4688    70.4688   172.7057     0.0000   160.4863   410.0858   157.4332     0.0277     0.0183     0.0542     0.0000     0.0234     0.0277     0.4001    56.8750    56.2242     0.1283     0.0000  3137.0000     0.0202     0.0483
   9219.0000    78.8271    94.0094   437.8306   251.0810   181.2742    55.0894    48.8240    84.6847   330.8440   236.9736    71.9897   122.5095   294.2232   212.2823    75.3068   330.8440    47.2747 -9575.1797 10290.3408 16674.4746   116.1412     0.0000    70.4688    70.4688   172.7057     0.0000   170.4157   410.1826   169.6524     0.0240     0.0252     0.0543     0.0000     0.0242     0.0309     0.4001    57.5000    56.6160     0.1283     0.0000  3136.0000     0.0250     0.0568
   9219.5000    59.5451    90.6158   685.7133   364.8611   230.6809    36.5229    76.6443   191.1740   646.8822   511.5508    55.3055   135.7623   474.9717   292.6563   119.6252   646.8822    40.8647 -9600.2061 10397.1289 16273.5684   116.1412     0.0000    70.4688    70.4688   173.2833     0.0000   182.6676   410.2425   181.1015     0.0297     0.0250     0.0543     0.0000     0.0250     0.0381     0.4009    58.1250    57.0212     0.1283     0.0000  3138.0000     0.0250     0.0567
