~VERSION INFORMATION
VERS.           1.2   :CWLS Log ASCII Standard - VERSION 1.2
WRAP.           NO    :One Line per depth step
PROD.  Schlumberger   :LAS Producer
PROG.  DLIS to ASCII 2.3                               :LAS Program name and version
CREA.        2021/07/30 13:36                          :LAS Creation date {YYYY/MM/DD hh:mm}
DLIS_CREA.  2021-Jul-30 07:07                          :DLIS Creation date and time {YYYY-MMM-DD hh:mm}
SOURCE.     e39621fc-7919-4a62-8a2a-6ee9c8654461       :DLIS File Name
#--------------------------------------------------
~WELL INFORMATION
#MNEM.UNIT      DATA             DESCRIPTION
#---- ------ --------------   -----------------------------
STRT .F      8527.5000       :START DEPTH     
STOP .F      9107.0000       :STOP DEPTH     
STEP .F       0.5000         :STEP       
NULL .          -999.25      :NULL VALUE
COMP .                 COMPANY:  University Of Utah                 
WELL .                    WELL:  FORGE 78B-32                       
FLD  .                   FIELD:  None                               
LOC  .                LOCATION:  Lat: 38.500171, Long: -112.88221   
CNTY .                  COUNTY:  Beaver                             
STAT .                   STATE:  Utah                               
CTRY .                 COUNTRY:                                     
SRVC .         SERVICE COMPANY:  Schlumberger                       
LATI .DEG             LATITUDE:  38 30' 0.616" N                   
LONG .DEG            LONGITUDE:  112 52' 55.956" W                 
API  .              API NUMBER:  NRC 42-00090-03                    
DATE .                LOG DATE:  30-Jul-2021
UWI  .          UNIQUE WELL ID:                                     
#-----------------------------------------------------------------------------
~PARAMETER INFORMATION
#MNEM.UNIT    VALUE                      DESCRIPTION
#---- -----   --------------------       ------------------------
CN   .        University Of Utah         :Company Name
WN   .        FORGE 78B-32               :Well Name
FN   .        None                       :Field Name
FL   .        Lat  38.500171  Long  -112.88221 :Field Location
FL1  .                                   :Field Location, Line 1
COUN .        Beaver                     :County or Parish
STAT .        Utah                       :State or Province
NATI .                                   :Nation
DATE .        30-Jul-2021                :Tools Above Rotary Table Date
APIN .        NRC 42-00090-03            :API Well Number
SECT .                                   :Section
TOWN .                                   :Township
RANG .                                   :Range
DMF  .        KB                         :Drilling Measured From (Name of Drilling Elevation Reference)
LMF  .        KB                         :Logging Measured From (Name of Logging Elevation Reference)
PDAT .        GL                         :Permanent Datum
ENGI .        CSTILES                    :Engineer s Name
WITN .        Virgil  Welch              :Witness s Name
LATI .        38� 30' 0.616  N           :Latitude
LONG .        112� 52' 55.956  W         :Longitude
LUL  .        F.Morgan                   :Logging Unit Location
LUN  .        9108                       :Logging Unit Number
RUN  .        1B                         :Run Number
SON  .                                   :Service Order Number
BHT  .DEGF     419.00000                 :Bottom Hole Temperature
BS   .IN         5.75000                 :Bit Size
MDEN .G/C3       2.71000                 :Matrix Density for Density Porosity
DFD  .LB/G       8.30000                 :Drilling Fluid Density
DFV  .S         24.00000                 :Drilling Fluid Viscosity
DFL  .C3      -999.25000                 :Drilling Fluid Loss
RMFS .OHMM       4.42000                 :Resistivity of Mud Filtrate Sample
EKB  .F       5565.50000                 :Elevation of Kelly Bushing
EGL  .F       5536.00000                 :Elevation of Ground Level
BLI  .F       9532.00000                 :Bottom Log Interval
BSAL .PPM      700.00000                 :Borehole Salinity
FLEV .F          8.00000                 :Depth of Drilling Fluid Level to LMF (Log Measured From)
MCST .DEGF      62.00000                 :Mudcake Sample Temperature
MFST .DEGF      62.00000                 :Mud Filtrate Sample Temperature
MRT  .DEGF     419.00000                 :Maximum Recorded Temperature
MST  .DEGF      62.00000                 :Mud Sample Temperature
RMCS .OHMM       6.21000                 :Resistivity of Mud Cake Sample
RMS  .OHMM       5.20000                 :Resistivity of Mud Sample
RW   .OHMM       1.00000                 :Connate Water Resistivity
TDD  .F       9500.00000                 :Driller Total Depth
TDL  .F       9532.00000                 :Logger Total Depth
TLI  .F       8530.00000                 :Top Log Interval
HIDE .                                   :Header Identifier
MATR .        LIME                       :Rock Matrix for Neutron Porosity Corrections
FNUM .           1.00000                 :F-Numerator for Formation Factor Formula
FEXP .           2.00000                 :Exponent "m" for Formation Factor Formula
DFT  .        WATER                      :Drilling Fluid Type
DFPH .          11.00000                 :Drilling Fluid pH
MCSS .        Calculated                 :Mudcake Sample Source
MFSS .        Calculated                 :Mud Filtrate Sample Source
FD   .G/C3       1.00000                 :Fluid Density
MSS  .        Flowline                   :Mud Sample Source
OS1  .                                   :Other Services Line 1
OS2  .                                   :Other Services Line 2
OS3  .                                   :Other Services Line 3
OS4  .                                   :Other Services Line 4
OS5  .                                   :Other Services Line 5
R1   .                                   :Remarks Line 1
R2   .                                   :Remarks Line 2
R3   .                                   :Remarks Line 3
R4   .                                   :Remarks Line 4
R5   .                                   :Remarks Line 5
R6   .        Tool was run as per tool sketch :Remarks Line 6
R7   .        All logging intervals as per client request :Remarks Line 7
R8   .                                   :Remarks Line 8
TCS  .        20 00 00                   :Time Circulation Stopped
TLAB .        02 17 00                   :Time Logger At Bottom
NMT  .        NOBARITE                   :HRDD Mud Type for Nuclear Devices
EPD  .C3         5536.000000             :Elevation of Permanent Datum above Mean Sea Level
APD  .F          29.500000               :Elevation of Depth Reference (LMF) above Permanent Datum
#-----------------------------------------------------------------------------
~CURVE INFORMATION
#MNEM.UNIT   API CODE                                  DESCRIPTION
#---- -----  --------                                  -----------------------
DEPT .F                                                :DEPTH (BOREHOLE) {F12.4}
AF10 .OHMM                                             :Array Induction Four Foot Resistivity A10 {F11.4}
AF20 .OHMM                                             :Array Induction Four Foot Resistivity A20 {F11.4}
AF30 .OHMM                                             :Array Induction Four Foot Resistivity A30 {F11.4}
AF60 .OHMM                                             :Array Induction Four Foot Resistivity A60 {F11.4}
AF90 .OHMM                                             :Array Induction Four Foot Resistivity A90 {F11.4}
AO10 .OHMM                                             :Array Induction One Foot Resistivity A10 {F11.4}
AO20 .OHMM                                             :Array Induction One Foot Resistivity A20 {F11.4}
AO30 .OHMM                                             :Array Induction One Foot Resistivity A30 {F11.4}
AO60 .OHMM                                             :Array Induction One Foot Resistivity A60 {F11.4}
AO90 .OHMM                                             :Array Induction One Foot Resistivity A90 {F11.4}
AT10 .OHMM                                             :Array Induction Two Foot Resistivity A10 {F11.4}
AT20 .OHMM                                             :Array Induction Two Foot Resistivity A20 {F11.4}
AT30 .OHMM                                             :Array Induction Two Foot Resistivity A30 {F11.4}
AT60 .OHMM                                             :Array Induction Two Foot Resistivity A60 {F11.4}
AT90 .OHMM                                             :Array Induction Two Foot Resistivity A90 {F11.4}
AORT .OHMM                                             :Array Induction One Foot Rt {F11.4}
AORX .OHMM                                             :Array Induction One Foot Rxo {F11.4}
CDF  .LBF                                              :Calibrated Downhole Force {F11.4}
CFTC .HZ                                               :Corrected Far Thermal Count Rate {F11.4}
CNTC .HZ                                               :Corrected Near Thermal Count Rate {F11.4}
CTEM .DEGF                                             :Cartridge Temperature {F11.4}
DCAL .IN                                               :Differential Caliper {F11.4}
DT   .US/F                                             :Delta-T (also called Slowness or Interval Transit Time) {F11.4}
DTCO .US/F                                             :Delta-T Compressional {F11.4}
DTSM .US/F                                             :Delta-T Shear {F11.4}
ED   .F                                                :East Departure {F11.4}
GR_STGC.GAPI                                           :Gamma Ray {F11.4}
GTEM .DEGF                                             :Generalized Borehole Temperature {F11.4}
HGR_STGC.GAPI                                          :High Resolution Gamma Ray {F11.4}
HNPO .CFCF                                             :High Resolution Enhanced Thermal Neutron Porosity in Selected Lithology {F11.4}
HTNP .CFCF                                             :High Resolution Thermal Neutron Porosity (Ratio Method) in Selected Lithology {F11.4}
ITT  .S                                                :Integrated Transit Time {F11.4}
ND   .F                                                :North Departure {F11.4}
NPHI .CFCF                                             :Thermal Neutron Porosity (original Ratio Method) in Selected Lithology {F11.4}
NPOR .CFCF                                             :Enhanced Thermal Neutron Porosity in Selected Lithology {F11.4}
PR   .                                                 :Poisson s Ratio {F11.4}
SP   .MV                                               :Spontaneous Potential {F11.4}
SPAR .MV                                               :SP, Armor Return Compensated {F11.4}
SPHI .CFCF                                             :Sonic Porosity {F11.4}
STIT .F                                                :Stuck Tool Indicator, Total {F11.4}
TENS .LBF                                              :Cable Tension {F11.4}
TNPH .CFCF                                             :Thermal Neutron Porosity (Ratio Method) in Selected Lithology {F11.4}
HTNP_SAN.CFCF                                          :HiRes Thermal Neutron Porosity (matrix Sandstone) {F11.4}
#-----------------------------------------------------------------------------
# 
#      DEPT        AF10       AF20       AF30       AF60       AF90       AO10       AO20       AO30       AO60       AO90       AT10       AT20       AT30       AT60       AT90       AORT       AORX       CDF        CFTC       CNTC       CTEM       DCAL        DT        DTCO       DTSM        ED      GR_STGC      GTEM     HGR_STGC     HNPO       HTNP       ITT         ND        NPHI       NPOR        PR         SP        SPAR       SPHI       STIT       TENS       TNPH     HTNP_SAN
#
~A  
# ...
   8910.0000  1950.0000    20.8601  1127.5065  1077.8373  1570.7942  1950.0000    15.5882   124.1301   179.5807   171.2872  1950.0000    18.5786   430.6427   372.4922   488.2241    54.4830  1598.7192 -7203.3892  8272.0215 14673.6914   110.2118     0.0000    52.3828    52.3828   112.8975     0.0000    85.9896   401.5520    82.9978     0.0367     0.0358     0.0082     0.0000     0.0365     0.0398     0.3628    16.8750    17.2641    -0.0432     0.0000  4280.7500     0.0359     0.0702
   8910.5000  1950.0000    19.9224  1245.3165  1342.0536  1770.1962  1950.0000    17.7326   200.0311   100.3978    97.7013  1950.0000    18.3952   481.8345   470.3653   431.2888    58.2678  1622.6617 -7303.4893  8341.7725 14882.7188   110.2118     0.0000    52.4414    52.4414   112.8936     0.0000    87.1421   401.5758    92.4012     0.0352     0.0355     0.0082     0.0000     0.0374     0.0363     0.3624    17.1528    17.2624    -0.0424     0.0000  4336.8750     0.0360     0.0698
   8911.0000  1950.0000    19.6910  1333.1064  1546.4286  1901.1747  1950.0000    18.9974   277.3850    67.4516    66.0073  1950.0000    18.5191   517.7871   536.6785   363.0179    49.8513  1687.1377 -7276.5210  8469.9219 15075.1084   110.2118     0.0000    52.2461    52.2461   113.1844     0.0000    81.6251   401.5719    84.5093     0.0401     0.0363     0.0082     0.0000     0.0389     0.0337     0.3646    17.5000    17.2976    -0.0449     0.0000  4391.2227     0.0364     0.0708
   8911.5000  1950.0000    19.9002  1369.2211  1627.4276  1950.0000  1950.0000    19.0515   213.8568    39.7416    39.2274  1950.0000    18.6430   515.1251   546.7162   304.8983    38.2641  1750.4642 -7325.1509  8148.4038 15043.0508   110.2118     0.0000    51.9238    51.9238   112.8053     0.0000    72.2852   401.5854    66.5876     0.0420     0.0402     0.0081     0.0000     0.0399     0.0363     0.3656    17.8906    17.3313    -0.0491     0.0000  4387.1250     0.0382     0.0758
   8912.0000  1950.0000    20.4794  1370.1832  1583.2412  1950.0000  1950.0000    20.4537   141.1548    61.1426    60.2813  1950.0000    19.4986   478.6604   433.7700   227.4247    47.3675  1788.2939 -7282.2710  8044.0430 14760.7578   110.2118     0.0000    51.4453    51.4453   112.8282     0.0000    68.7744   401.5975    65.1546     0.0350     0.0395     0.0081     0.0000     0.0427     0.0442     0.3688    18.1250    17.3607    -0.0553     0.0000  4319.3750     0.0421     0.0749
   8912.5000  1950.0000    21.5154  1396.4302  1432.8793  1921.9264  1950.0000    20.4630    88.8483    69.6248    69.0014  1950.0000    20.5262   554.2388   470.8849   291.2418    49.6322  1724.5819 -7271.1777  7708.0815 14807.6377   110.2118     0.0000    51.5723    51.5723   112.6883     0.0000    71.3886   401.6257    74.9163     0.0490     0.0461     0.0081     0.0000     0.0449     0.0448     0.3675    17.5000    17.3481    -0.0537     0.0000  4263.0000     0.0445     0.0833
   8913.0000  1950.0000    22.9825  1429.1749  1188.9027  1728.2487  1950.0000    14.2727    37.9428    61.4147    61.2723  1950.0000    22.8112   623.3068   422.7529   316.6609    49.3342  1839.6344 -7316.3467  7591.7944 14818.0488   110.2118     0.0000    51.0547    51.0547   112.6638     0.0000    71.3838   401.6712    74.5613     0.0490     0.0475     0.0081     0.0000     0.0476     0.0448     0.3708    17.5000    17.3418    -0.0605     0.0000  4192.6250     0.0467     0.0851
   8913.5000  1950.0000    24.8707  1377.3458   895.2324  1410.3488  1950.0000    24.4634    82.9839    94.9531    96.0059  1950.0000    26.1953   661.1288   343.5686   360.1301    59.6598  1877.0229 -7279.0352  7466.0439 14696.0576   110.2118     0.0000    52.1875    52.1875   111.8992     0.0000    69.0590   401.6923    64.3906     0.0435     0.0483     0.0080     0.0000     0.0473     0.0473     0.3610    17.0139    17.3210    -0.0457     0.0000  4131.6255     0.0475     0.0861
   8914.0000  1950.0000    27.0173  1181.1299   632.2783  1034.2914  1950.0000    32.8323    95.8285    81.1823    82.4282  1950.0000    30.5845   606.2130   237.0586   384.7861    62.7172  1919.8090 -7364.8413  7553.3682 14404.0791   110.2118     0.0000    53.8477    53.8477   112.6679     0.0000    68.4090   401.6970    67.7945     0.0466     0.0450     0.0080     0.0000     0.0487     0.0520     0.3520    16.8750    17.3369    -0.0250     0.0000  4171.0000     0.0487     0.0819
   8914.5000  1950.0000    29.2627   896.1538   451.6675   721.5880  1950.0000    49.9706   144.9306    59.8534    61.4415  1950.0000    34.7669   458.3378   210.7334   496.4279    51.0225  1950.0000 -7298.8125  7278.4731 14683.1885   110.2118     0.0000    51.9531    51.9531   114.0462     0.0000    74.0724   401.7212    72.8099     0.0512     0.0524     0.0080     0.0000     0.0484     0.0451     0.3691    17.0313    17.3715    -0.0487     0.0000  4210.8750     0.0480     0.0913
   8915.0000  1950.0000    31.7973   642.0642   341.7191   515.5184  1950.0000    42.6812    95.1243    58.0700    59.6031  1950.0000    36.8076   315.1086   132.3036   467.0243    51.0083  1950.0000 -7200.6201  7399.4741 14471.0820   110.2118     0.0000    51.4356    51.4356   110.6866     0.0000    80.1971   401.7133    81.6673     0.0543     0.0491     0.0080     0.0000     0.0493     0.0476     0.3623    16.8750    17.3778    -0.0555     0.0000  4282.5000     0.0486     0.0872
   8915.5000  1950.0000    33.1794   470.6668   261.2625   400.2722  1950.0000    41.4154    56.8623    38.4618    39.5307  1950.0000    34.6807   223.9673    94.5419   411.5264    35.0761  1950.0000 -7313.4717  7292.9048 14224.5547   110.2118     0.0000    51.8066    51.8066   110.9436     0.0000    81.3448   401.7402    85.6484     0.0539     0.0486     0.0079     0.0000     0.0494     0.0536     0.3606    17.1875    17.3976    -0.0506     0.0000  4381.6670     0.0504     0.0864
   8916.0000  1950.0000    35.7316   359.2751   226.1828   289.8711  1950.0000    23.2285    35.6556    26.5508    27.1690  1950.0000    28.8378   131.0217    52.3509   302.8174    24.9722  1938.6064 -7279.2485  7049.7168 14227.0049   110.2118     0.0000    51.9043    51.9043   111.5143     0.0000    80.2618   401.7732    76.3991     0.0461     0.0516     0.0079     0.0000     0.0505     0.0528     0.3617    17.5694    17.4679    -0.0493     0.0000  4392.2500     0.0508     0.0903
   8916.5000  1950.0000    38.1383   295.3979   255.8192   314.6433  1950.0000    11.9901    15.4251    17.2043    17.5940  1950.0000    33.9579   144.2903    78.5977   298.1213    17.5409  1828.4037 -7289.5801  7223.5264 14533.4170   110.2118     0.0000    52.1289    52.1289   112.2900     0.0000    79.0346   401.8015    78.5182     0.0385     0.0514     0.0079     0.0000     0.0511     0.0461     0.3626    18.1250    17.5307    -0.0464     0.0000  4394.5000     0.0503     0.0901
   8917.0000  1950.0000    45.3947   303.5295   335.3357   386.0373  1248.2531    26.3418    27.5474    16.2283    16.3722  1950.0000    39.3555   217.7843   154.1232   272.6532    17.8004  1612.0476 -7270.3086  7239.2808 14314.6211   110.2118     0.0000    52.2852    52.2852   111.6570     0.0000    79.4393   401.8329    82.3295     0.0445     0.0491     0.0079     0.0000     0.0471     0.0520     0.3596    18.1250    17.6020    -0.0444     0.0000  4366.2505     0.0486     0.0871
   8917.5000  1950.0000    50.9854   337.6935   397.0878   420.8643  1950.0000    56.9202    36.8742    28.9834    29.2778  1950.0000    41.2708   215.6821   393.4601   247.9120    24.7600  1321.9656 -7199.3530  7707.2163 14054.9785   110.2118     0.0000    52.7148    52.7148   110.4404     0.0000    81.1712   401.8330    77.0691     0.0377     0.0397     0.0078     0.0000     0.0437     0.0555     0.3525    17.9167    17.6692    -0.0389     0.0000  4234.8574     0.0441     0.0751
   8918.0000  1950.0000    60.0615   428.9715   408.5842   415.0841   203.4542    24.5221    23.5980    17.3637    17.5342  1950.0000    42.5238   124.2186   197.6378   138.0607    15.9196   997.9948 -7241.4907  8381.3369 15485.7598   110.2118     0.0000    53.1250    53.1250   112.0394     0.0000    84.2086   401.8318    83.7208     0.0317     0.0387     0.0078     0.0000     0.0374     0.0281     0.3550    17.5000    17.7035    -0.0338     0.0000  4186.8750     0.0352     0.0738
