~VERSION INFORMATION
VERS.           1.2   :CWLS Log ASCII Standard - VERSION 1.2
WRAP.           NO    :One Line per depth step
PROD.  Schlumberger   :LAS Producer
PROG.  DLIS to ASCII 2.3                               :LAS Program name and version
CREA.        2021/07/30 13:36                          :LAS Creation date {YYYY/MM/DD hh:mm}
DLIS_CREA.  2021-Jul-30 07:07                          :DLIS Creation date and time {YYYY-MMM-DD hh:mm}
SOURCE.     e39621fc-7919-4a62-8a2a-6ee9c8654461       :DLIS File Name
#--------------------------------------------------
~WELL INFORMATION
#MNEM.UNIT      DATA             DESCRIPTION
#---- ------ --------------   -----------------------------
STRT .F      8527.5000       :START DEPTH     
STOP .F      9107.0000       :STOP DEPTH     
STEP .F       0.5000         :STEP       
NULL .          -999.25      :NULL VALUE
COMP .                 COMPANY:  University Of Utah                 
WELL .                    WELL:  FORGE 78B-32                       
FLD  .                   FIELD:  None                               
LOC  .                LOCATION:  Lat: 38.500171, Long: -112.88221   
CNTY .                  COUNTY:  Beaver                             
STAT .                   STATE:  Utah                               
CTRY .                 COUNTRY:                                     
SRVC .         SERVICE COMPANY:  Schlumberger                       
LATI .DEG             LATITUDE:  38 30' 0.616" N                   
LONG .DEG            LONGITUDE:  112 52' 55.956" W                 
API  .              API NUMBER:  NRC 42-00090-03                    
DATE .                LOG DATE:  30-Jul-2021
UWI  .          UNIQUE WELL ID:                                     
#-----------------------------------------------------------------------------
~PARAMETER INFORMATION
#MNEM.UNIT    VALUE                      DESCRIPTION
#---- -----   --------------------       ------------------------
CN   .        University Of Utah         :Company Name
WN   .        FORGE 78B-32               :Well Name
FN   .        None                       :Field Name
FL   .        Lat  38.500171  Long  -112.88221 :Field Location
FL1  .                                   :Field Location, Line 1
COUN .        Beaver                     :County or Parish
STAT .        Utah                       :State or Province
NATI .                                   :Nation
DATE .        30-Jul-2021                :Tools Above Rotary Table Date
APIN .        NRC 42-00090-03            :API Well Number
SECT .                                   :Section
TOWN .                                   :Township
RANG .                                   :Range
DMF  .        KB                         :Drilling Measured From (Name of Drilling Elevation Reference)
LMF  .        KB                         :Logging Measured From (Name of Logging Elevation Reference)
PDAT .        GL                         :Permanent Datum
ENGI .        CSTILES                    :Engineer s Name
WITN .        Virgil  Welch              :Witness s Name
LATI .        38� 30' 0.616  N           :Latitude
LONG .        112� 52' 55.956  W         :Longitude
LUL  .        F.Morgan                   :Logging Unit Location
LUN  .        9108                       :Logging Unit Number
RUN  .        1B                         :Run Number
SON  .                                   :Service Order Number
BHT  .DEGF     419.00000                 :Bottom Hole Temperature
BS   .IN         5.75000                 :Bit Size
MDEN .G/C3       2.71000                 :Matrix Density for Density Porosity
DFD  .LB/G       8.30000                 :Drilling Fluid Density
DFV  .S         24.00000                 :Drilling Fluid Viscosity
DFL  .C3      -999.25000                 :Drilling Fluid Loss
RMFS .OHMM       4.42000                 :Resistivity of Mud Filtrate Sample
EKB  .F       5565.50000                 :Elevation of Kelly Bushing
EGL  .F       5536.00000                 :Elevation of Ground Level
BLI  .F       9532.00000                 :Bottom Log Interval
BSAL .PPM      700.00000                 :Borehole Salinity
FLEV .F          8.00000                 :Depth of Drilling Fluid Level to LMF (Log Measured From)
MCST .DEGF      62.00000                 :Mudcake Sample Temperature
MFST .DEGF      62.00000                 :Mud Filtrate Sample Temperature
MRT  .DEGF     419.00000                 :Maximum Recorded Temperature
MST  .DEGF      62.00000                 :Mud Sample Temperature
RMCS .OHMM       6.21000                 :Resistivity of Mud Cake Sample
RMS  .OHMM       5.20000                 :Resistivity of Mud Sample
RW   .OHMM       1.00000                 :Connate Water Resistivity
TDD  .F       9500.00000                 :Driller Total Depth
TDL  .F       9532.00000                 :Logger Total Depth
TLI  .F       8530.00000                 :Top Log Interval
HIDE .                                   :Header Identifier
MATR .        LIME                       :Rock Matrix for Neutron Porosity Corrections
FNUM .           1.00000                 :F-Numerator for Formation Factor Formula
FEXP .           2.00000                 :Exponent "m" for Formation Factor Formula
DFT  .        WATER                      :Drilling Fluid Type
DFPH .          11.00000                 :Drilling Fluid pH
MCSS .        Calculated                 :Mudcake Sample Source
MFSS .        Calculated                 :Mud Filtrate Sample Source
FD   .G/C3       1.00000                 :Fluid Density
MSS  .        Flowline                   :Mud Sample Source
OS1  .                                   :Other Services Line 1
OS2  .                                   :Other Services Line 2
OS3  .                                   :Other Services Line 3
OS4  .                                   :Other Services Line 4
OS5  .                                   :Other Services Line 5
R1   .                                   :Remarks Line 1
R2   .                                   :Remarks Line 2
R3   .                                   :Remarks Line 3
R4   .                                   :Remarks Line 4
R5   .                                   :Remarks Line 5
R6   .        Tool was run as per tool sketch :Remarks Line 6
R7   .        All logging intervals as per client request :Remarks Line 7
R8   .                                   :Remarks Line 8
TCS  .        20 00 00                   :Time Circulation Stopped
TLAB .        02 17 00                   :Time Logger At Bottom
NMT  .        NOBARITE                   :HRDD Mud Type for Nuclear Devices
EPD  .C3         5536.000000             :Elevation of Permanent Datum above Mean Sea Level
APD  .F          29.500000               :Elevation of Depth Reference (LMF) above Permanent Datum
#-----------------------------------------------------------------------------
~CURVE INFORMATION
#MNEM.UNIT   API CODE                                  DESCRIPTION
#---- -----  --------                                  -----------------------
DEPT .F                                                :DEPTH (BOREHOLE) {F12.4}
AF10 .OHMM                                             :Array Induction Four Foot Resistivity A10 {F11.4}
AF20 .OHMM                                             :Array Induction Four Foot Resistivity A20 {F11.4}
AF30 .OHMM                                             :Array Induction Four Foot Resistivity A30 {F11.4}
AF60 .OHMM                                             :Array Induction Four Foot Resistivity A60 {F11.4}
AF90 .OHMM                                             :Array Induction Four Foot Resistivity A90 {F11.4}
AO10 .OHMM                                             :Array Induction One Foot Resistivity A10 {F11.4}
AO20 .OHMM                                             :Array Induction One Foot Resistivity A20 {F11.4}
AO30 .OHMM                                             :Array Induction One Foot Resistivity A30 {F11.4}
AO60 .OHMM                                             :Array Induction One Foot Resistivity A60 {F11.4}
AO90 .OHMM                                             :Array Induction One Foot Resistivity A90 {F11.4}
AT10 .OHMM                                             :Array Induction Two Foot Resistivity A10 {F11.4}
AT20 .OHMM                                             :Array Induction Two Foot Resistivity A20 {F11.4}
AT30 .OHMM                                             :Array Induction Two Foot Resistivity A30 {F11.4}
AT60 .OHMM                                             :Array Induction Two Foot Resistivity A60 {F11.4}
AT90 .OHMM                                             :Array Induction Two Foot Resistivity A90 {F11.4}
AORT .OHMM                                             :Array Induction One Foot Rt {F11.4}
AORX .OHMM                                             :Array Induction One Foot Rxo {F11.4}
CDF  .LBF                                              :Calibrated Downhole Force {F11.4}
CFTC .HZ                                               :Corrected Far Thermal Count Rate {F11.4}
CNTC .HZ                                               :Corrected Near Thermal Count Rate {F11.4}
CTEM .DEGF                                             :Cartridge Temperature {F11.4}
DCAL .IN                                               :Differential Caliper {F11.4}
DT   .US/F                                             :Delta-T (also called Slowness or Interval Transit Time) {F11.4}
DTCO .US/F                                             :Delta-T Compressional {F11.4}
DTSM .US/F                                             :Delta-T Shear {F11.4}
ED   .F                                                :East Departure {F11.4}
GR_STGC.GAPI                                           :Gamma Ray {F11.4}
GTEM .DEGF                                             :Generalized Borehole Temperature {F11.4}
HGR_STGC.GAPI                                          :High Resolution Gamma Ray {F11.4}
HNPO .CFCF                                             :High Resolution Enhanced Thermal Neutron Porosity in Selected Lithology {F11.4}
HTNP .CFCF                                             :High Resolution Thermal Neutron Porosity (Ratio Method) in Selected Lithology {F11.4}
ITT  .S                                                :Integrated Transit Time {F11.4}
ND   .F                                                :North Departure {F11.4}
NPHI .CFCF                                             :Thermal Neutron Porosity (original Ratio Method) in Selected Lithology {F11.4}
NPOR .CFCF                                             :Enhanced Thermal Neutron Porosity in Selected Lithology {F11.4}
PR   .                                                 :Poisson s Ratio {F11.4}
SP   .MV                                               :Spontaneous Potential {F11.4}
SPAR .MV                                               :SP, Armor Return Compensated {F11.4}
SPHI .CFCF                                             :Sonic Porosity {F11.4}
STIT .F                                                :Stuck Tool Indicator, Total {F11.4}
TENS .LBF                                              :Cable Tension {F11.4}
TNPH .CFCF                                             :Thermal Neutron Porosity (Ratio Method) in Selected Lithology {F11.4}
HTNP_SAN.CFCF                                          :HiRes Thermal Neutron Porosity (matrix Sandstone) {F11.4}
#-----------------------------------------------------------------------------
# 
#      DEPT        AF10       AF20       AF30       AF60       AF90       AO10       AO20       AO30       AO60       AO90       AT10       AT20       AT30       AT60       AT90       AORT       AORX       CDF        CFTC       CNTC       CTEM       DCAL        DT        DTCO       DTSM        ED      GR_STGC      GTEM     HGR_STGC     HNPO       HTNP       ITT         ND        NPHI       NPOR        PR         SP        SPAR       SPHI       STIT       TENS       TNPH     HTNP_SAN
#
~A  
# ...
   8680.5000  1950.0000    48.5676   919.3128   343.3505   570.3822  1950.0000    54.0859   184.6286    51.6963    52.0921  1950.0000    58.8461   363.9560   228.7842   203.1461    51.6963  1786.1068 -8137.3452  9003.8135 15602.5771   112.1882     0.0000    52.7148    52.7148    93.4012     0.0000    85.4231   394.3727    85.1020     0.0355     0.0329     0.0201     0.0000     0.0348     0.0357     0.2663    22.9779    22.9372    -0.0389     0.0000  4131.3125     0.0336     0.0665
   8681.0000  1950.0000    42.7617   759.4279   265.0890   463.3918  1950.0000    34.9460    94.6692    51.3545    51.5400  1950.0000    41.6912   259.5645   168.0643   143.7680    51.3545  1924.1301 -8151.0742  9152.5615 15873.6572   112.1882     0.0000    52.7344    52.7344    92.7647     0.0000    88.4748   394.3825    87.8598     0.0335     0.0327     0.0201     0.0000     0.0350     0.0299     0.2613    22.6563    22.9775    -0.0387     0.0000  4107.0000     0.0328     0.0662
   8681.5000  1950.0000    38.4560   642.1075   225.6088   403.2341  1950.0000    27.6472    76.6170    64.9312    64.8158  1950.0000    34.8379   205.8111   154.2338   111.9369    64.9312  1950.0000 -8122.4805  8971.8320 15701.7930   112.1882     0.0000    50.9180    50.9180    91.5051     0.0000    87.1730   394.4100    92.2087     0.0317     0.0340     0.0201     0.0000     0.0343     0.0309     0.2757    23.1250    23.1024    -0.0624     0.0000  4114.1250     0.0320     0.0679
   8682.0000  1950.0000    35.9989   636.2039   208.0746   386.9753  1950.0000    31.0586   121.1697    98.6702    97.7039  1950.0000    35.6549   270.7545   166.3705   143.6642    98.6702  1950.0000 -8045.3599  9154.6738 15538.4141   112.1882     0.0000    50.5664    50.5664    89.9617     0.0000    86.1752   394.4469    81.2287     0.0278     0.0304     0.0201     0.0000     0.0350     0.0332     0.2691    23.6719    23.2073    -0.0672     0.0000  4165.3335     0.0332     0.0633
   8682.5000  1950.0000    35.3131   725.7524   210.1175   433.4905  1950.0000    39.9964   202.3569   124.6874   121.6356  1950.0000    37.1828   360.1814   170.4348   189.0448   124.6874  1950.0000 -8039.1460  8721.4902 15427.8154   112.1882     0.0000    50.2734    50.2734    89.7613     0.0000    87.0407   394.4701    84.8666     0.0307     0.0346     0.0200     0.0000     0.0348     0.0338     0.2715    23.8971    23.2765    -0.0712     0.0000  4157.0625     0.0334     0.0687
   8683.0000  1950.0000    35.1347   876.1297   225.4543   521.9950  1950.0000    42.2914   418.2545   141.8219   137.8875  1950.0000    38.6822   486.0640   186.2582   246.9053   141.8219  1950.0000 -8042.3496  8736.2471 15181.8037   112.1882     0.0000    50.2539    50.2539    89.6854     0.0000    89.6015   394.4837    95.1272     0.0307     0.0335     0.0200     0.0000     0.0362     0.0374     0.2712    23.4191    23.3483    -0.0715     0.0000  4145.2666     0.0348     0.0673
   8683.5000  1950.0000    34.2114  1096.2197   250.8156   666.6772  1950.0000    46.0923   673.9303   216.6069   210.0901  1950.0000    37.2736   656.1413   197.7803   306.3936   216.6069  1950.0000 -8038.6104  8704.8984 15409.9766   112.1882     0.0000    50.4004    50.4004    89.5266     0.0000    91.8361   394.4995    88.9112     0.0354     0.0348     0.0200     0.0000     0.0348     0.0323     0.2680    23.1250    23.3716    -0.0694     0.0000  4085.1877     0.0334     0.0689
   8684.0000  1950.0000    33.3539  1363.0513   292.5180   853.8932  1950.0000    40.6135   671.6902   180.8757   175.7618  1950.0000    35.0860   820.3064   263.8682   353.2856   180.8757  1950.0000 -8016.4707  8981.4990 15257.2266   112.1882     0.0000    50.0684    50.0684    89.2938     0.0000    85.8702   394.5064    91.2912     0.0305     0.0311     0.0200     0.0000     0.0344     0.0341     0.2707    23.3456    23.4055    -0.0740     0.0000  4139.0000     0.0326     0.0643
   8684.5000  1950.0000    32.6518  1587.8645   342.7100  1020.7237  1950.0000    33.4244   429.7039   246.8314   239.2434  1950.0000    32.6177   916.1165   317.1257   366.3175   246.8314  1950.0000 -7989.0625  8971.8369 15401.5049   112.1882     0.0000    50.0000    50.0000    89.3968     0.0000    81.1711   394.5279    77.1290     0.0330     0.0317     0.0199     0.0000     0.0342     0.0315     0.2724    23.2031    23.4747    -0.0750     0.0000  4191.0625     0.0319     0.0651
   8685.0000  1950.0000    32.3763  1686.9507   403.7604  1085.4945  1950.0000    26.5743   295.4560   301.3880   290.0408  1950.0000    30.6331   882.6273   355.6546   326.5216   301.3880  1950.0000 -8031.2900  8859.8936 15585.0723   112.1882     0.0000    50.1855    50.1855    89.6024     0.0000    78.3257   394.5469    74.7541     0.0329     0.0341     0.0199     0.0000     0.0355     0.0299     0.2715    23.7500    23.5042    -0.0724     0.0000  4141.8667     0.0333     0.0680
   8685.5000  1950.0000    32.8399  1595.0946   449.0720  1027.7200  1950.0000    23.7245   256.9117   292.7953   279.5307  1950.0000    31.1445   975.4267   413.5989   346.6340   292.7953  1950.0000 -7993.3218  8616.2656 15200.4824   112.1882     0.0000    50.3711    50.3711    89.6074     0.0000    79.7782   394.5545    83.0339     0.0393     0.0360     0.0199     0.0000     0.0362     0.0355     0.2690    23.6765    23.5239    -0.0698     0.0000  4123.9336     0.0341     0.0705
   8686.0000  1950.0000    34.2634  1357.5902   464.9133   918.6253  1950.0000    28.8248   382.8493   393.0038   371.4962  1950.0000    33.5645   991.0947   426.8589   389.3055   393.0038  1950.0000 -7950.1865  8704.2715 15262.0137   112.1882     0.0000    50.2344    50.2344    89.7456     0.0000    78.8599   394.5750    81.7288     0.0323     0.0335     0.0199     0.0000     0.0360     0.0349     0.2719    23.2422    23.5747    -0.0717     0.0000  4085.6875     0.0350     0.0673
   8686.5000  1950.0000    36.6719  1073.5653   449.9246   828.2315  1950.0000    38.9875   570.3604   483.0732   448.8145  1950.0000    38.4754   923.6248   406.8306   392.2261   483.0732  1950.0000 -7981.6973  8588.4023 15021.0283   112.1882     0.0000    49.9805    49.9805    89.6447     0.0000    74.5234   394.5877    72.0591     0.0377     0.0344     0.0198     0.0000     0.0364     0.0372     0.2745    23.3456    23.6210    -0.0753     0.0000  4086.5334     0.0349     0.0684
   8687.0000  1950.0000    40.2757   829.7401   419.2891   806.1206  1950.0000    53.8917   712.5056   521.1976   472.9589  1950.0000    46.2558   783.8492   310.4180   363.4874   521.1976  1950.0000 -7956.8940  8509.4688 15206.9180   112.1882     0.0000    49.0430    49.0430    89.1571     0.0000    70.9713   394.5995    70.0243     0.0376     0.0363     0.0198     0.0000     0.0373     0.0358     0.2831    23.5547    23.6548    -0.0887     0.0000  4175.9331     0.0361     0.0708
   8687.5000  1950.0000    44.4252   641.8503   378.4272   775.7685  1950.0000    71.1536   700.2892   641.2686   593.8515  1950.0000    57.2890   596.5080   373.0666   381.6316   641.2686  1950.0000 -7957.7061  8465.8242 15199.2363   112.1882     0.0000    49.3945    49.3945    89.2210     0.0000    75.6680   394.6079    70.8305     0.0359     0.0371     0.0198     0.0000     0.0388     0.0370     0.2790    23.7500    23.6794    -0.0836     0.0000  4175.1250     0.0372     0.0718
   8688.0000  1950.0000    48.7103   511.7385   334.6647   672.7108  1950.0000    81.9483   607.3828   883.3555   812.9163  1950.0000    66.8658   439.7224   326.7223   302.4194   883.3555  1950.0000 -7960.1924  8347.6465 15246.5137   112.1882     0.0000    49.9316    49.9316    89.2849     0.0000    75.3778   394.6224    85.9879     0.0376     0.0394     0.0198     0.0000     0.0391     0.0366     0.2725    23.7500    23.7129    -0.0760     0.0000  4116.3335     0.0374     0.0748
   8688.5000  1950.0000    53.3512   432.8781   290.5386   523.6743  1950.0000    94.3858   478.7774  1192.4106  1116.1283  1950.0000    73.9664   365.7624   287.4398   244.6423  1192.4106  1950.0000 -7903.7817  8479.1816 15244.7520   112.1882     0.0000    49.9609    49.9609    89.3590     0.0000    79.6890   394.6508    69.1537     0.0370     0.0365     0.0197     0.0000     0.0388     0.0351     0.2726    23.7500    23.7256    -0.0755     0.0000  4127.0630     0.0369     0.0711
