~VERSION INFORMATION
VERS.           1.2   :CWLS Log ASCII Standard - VERSION 1.2
WRAP.           NO    :One Line per depth step
PROD.  Schlumberger   :LAS Producer
PROG.  DLIS to ASCII 2.3                               :LAS Program name and version
CREA.        2021/07/30 13:36                          :LAS Creation date {YYYY/MM/DD hh:mm}
DLIS_CREA.  2021-Jul-30 07:08                          :DLIS Creation date and time {YYYY-MMM-DD hh:mm}
SOURCE.     6d1d3df9-7549-4232-acfc-119b5b71a716       :DLIS File Name
#--------------------------------------------------
~WELL INFORMATION
#MNEM.UNIT      DATA             DESCRIPTION
#---- ------ --------------   -----------------------------
STRT .F      7447.0000       :START DEPTH     
STOP .F      9553.0000       :STOP DEPTH     
STEP .F       0.5000         :STEP       
NULL .          -999.25      :NULL VALUE
COMP .                 COMPANY:  University Of Utah                 
WELL .                    WELL:  FORGE 78B-32                       
FLD  .                   FIELD:  None                               
LOC  .                LOCATION:  Lat: 38.500171, Long: -112.88221   
CNTY .                  COUNTY:  Beaver                             
STAT .                   STATE:  Utah                               
CTRY .                 COUNTRY:                                     
SRVC .         SERVICE COMPANY:  Schlumberger                       
LATI .DEG             LATITUDE:  38 30' 0.616" N                   
LONG .DEG            LONGITUDE:  112 52' 55.956" W                 
API  .              API NUMBER:  NRC 42-00090-03                    
DATE .                LOG DATE:  30-Jul-2021
UWI  .          UNIQUE WELL ID:                                     
#-----------------------------------------------------------------------------
~PARAMETER INFORMATION
#MNEM.UNIT    VALUE                      DESCRIPTION
#---- -----   --------------------       ------------------------
CN   .        University Of Utah         :Company Name
WN   .        FORGE 78B-32               :Well Name
FN   .        None                       :Field Name
FL   .        Lat  38.500171  Long  -112.88221 :Field Location
FL1  .                                   :Field Location, Line 1
COUN .        Beaver                     :County or Parish
STAT .        Utah                       :State or Province
NATI .                                   :Nation
DATE .        30-Jul-2021                :Tools Above Rotary Table Date
APIN .        NRC 42-00090-03            :API Well Number
SECT .                                   :Section
TOWN .                                   :Township
RANG .                                   :Range
DMF  .        KB                         :Drilling Measured From (Name of Drilling Elevation Reference)
LMF  .        KB                         :Logging Measured From (Name of Logging Elevation Reference)
PDAT .        GL                         :Permanent Datum
ENGI .        CSTILES                    :Engineer s Name
WITN .        Virgil  Welch              :Witness s Name
LATI .        38� 30' 0.616  N           :Latitude
LONG .        112� 52' 55.956  W         :Longitude
LUL  .        F.Morgan                   :Logging Unit Location
LUN  .        9108                       :Logging Unit Number
RUN  .        1B                         :Run Number
SON  .                                   :Service Order Number
BHT  .DEGF     419.00000                 :Bottom Hole Temperature
BS   .IN         5.75000                 :Bit Size
MDEN .G/C3       2.71000                 :Matrix Density for Density Porosity
DFD  .LB/G       8.30000                 :Drilling Fluid Density
DFV  .S         24.00000                 :Drilling Fluid Viscosity
DFL  .C3      -999.25000                 :Drilling Fluid Loss
RMFS .OHMM       4.42000                 :Resistivity of Mud Filtrate Sample
EKB  .F       5565.50000                 :Elevation of Kelly Bushing
EGL  .F       5536.00000                 :Elevation of Ground Level
BLI  .F       9532.00000                 :Bottom Log Interval
BSAL .PPM      700.00000                 :Borehole Salinity
FLEV .F          8.00000                 :Depth of Drilling Fluid Level to LMF (Log Measured From)
MCST .DEGF      62.00000                 :Mudcake Sample Temperature
MFST .DEGF      62.00000                 :Mud Filtrate Sample Temperature
MRT  .DEGF     419.00000                 :Maximum Recorded Temperature
MST  .DEGF      62.00000                 :Mud Sample Temperature
RMCS .OHMM       6.21000                 :Resistivity of Mud Cake Sample
RMS  .OHMM       5.20000                 :Resistivity of Mud Sample
RW   .OHMM       1.00000                 :Connate Water Resistivity
TDD  .F       9500.00000                 :Driller Total Depth
TDL  .F       9532.00000                 :Logger Total Depth
TLI  .F       8530.00000                 :Top Log Interval
HIDE .                                   :Header Identifier
MATR .        LIME                       :Rock Matrix for Neutron Porosity Corrections
FNUM .           1.00000                 :F-Numerator for Formation Factor Formula
FEXP .           2.00000                 :Exponent "m" for Formation Factor Formula
DFT  .        WATER                      :Drilling Fluid Type
DFPH .          11.00000                 :Drilling Fluid pH
MCSS .        Calculated                 :Mudcake Sample Source
MFSS .        Calculated                 :Mud Filtrate Sample Source
FD   .G/C3       1.00000                 :Fluid Density
MSS  .        Flowline                   :Mud Sample Source
OS1  .                                   :Other Services Line 1
OS2  .                                   :Other Services Line 2
OS3  .                                   :Other Services Line 3
OS4  .                                   :Other Services Line 4
OS5  .                                   :Other Services Line 5
R1   .                                   :Remarks Line 1
R2   .                                   :Remarks Line 2
R3   .                                   :Remarks Line 3
R4   .                                   :Remarks Line 4
R5   .                                   :Remarks Line 5
R6   .        Tool was run as per tool sketch :Remarks Line 6
R7   .        All logging intervals as per client request :Remarks Line 7
R8   .                                   :Remarks Line 8
TCS  .        20 00 00                   :Time Circulation Stopped
TLAB .        02 17 00                   :Time Logger At Bottom
NMT  .        NOBARITE                   :HRDD Mud Type for Nuclear Devices
EPD  .C3         5536.000000             :Elevation of Permanent Datum above Mean Sea Level
APD  .F          29.500000               :Elevation of Depth Reference (LMF) above Permanent Datum
#-----------------------------------------------------------------------------
~CURVE INFORMATION
#MNEM.UNIT   API CODE                                  DESCRIPTION
#---- -----  --------                                  -----------------------
DEPT .F                                                :DEPTH (BOREHOLE) {F12.4}
AF10 .OHMM                                             :Array Induction Four Foot Resistivity A10 {F11.4}
AF20 .OHMM                                             :Array Induction Four Foot Resistivity A20 {F11.4}
AF30 .OHMM                                             :Array Induction Four Foot Resistivity A30 {F11.4}
AF60 .OHMM                                             :Array Induction Four Foot Resistivity A60 {F11.4}
AF90 .OHMM                                             :Array Induction Four Foot Resistivity A90 {F11.4}
AO10 .OHMM                                             :Array Induction One Foot Resistivity A10 {F11.4}
AO20 .OHMM                                             :Array Induction One Foot Resistivity A20 {F11.4}
AO30 .OHMM                                             :Array Induction One Foot Resistivity A30 {F11.4}
AO60 .OHMM                                             :Array Induction One Foot Resistivity A60 {F11.4}
AO90 .OHMM                                             :Array Induction One Foot Resistivity A90 {F11.4}
AT10 .OHMM                                             :Array Induction Two Foot Resistivity A10 {F11.4}
AT20 .OHMM                                             :Array Induction Two Foot Resistivity A20 {F11.4}
AT30 .OHMM                                             :Array Induction Two Foot Resistivity A30 {F11.4}
AT60 .OHMM                                             :Array Induction Two Foot Resistivity A60 {F11.4}
AT90 .OHMM                                             :Array Induction Two Foot Resistivity A90 {F11.4}
AORT .OHMM                                             :Array Induction One Foot Rt {F11.4}
AORX .OHMM                                             :Array Induction One Foot Rxo {F11.4}
CDF  .LBF                                              :Calibrated Downhole Force {F11.4}
CFTC .HZ                                               :Corrected Far Thermal Count Rate {F11.4}
CNTC .HZ                                               :Corrected Near Thermal Count Rate {F11.4}
CTEM .DEGF                                             :Cartridge Temperature {F11.4}
DCAL .IN                                               :Differential Caliper {F11.4}
DT   .US/F                                             :Delta-T (also called Slowness or Interval Transit Time) {F11.4}
DTCO .US/F                                             :Delta-T Compressional {F11.4}
DTSM .US/F                                             :Delta-T Shear {F11.4}
ED   .F                                                :East Departure {F11.4}
GR_STGC.GAPI                                           :Gamma Ray {F11.4}
GTEM .DEGF                                             :Generalized Borehole Temperature {F11.4}
HGR_STGC.GAPI                                          :High Resolution Gamma Ray {F11.4}
HNPO .CFCF                                             :High Resolution Enhanced Thermal Neutron Porosity in Selected Lithology {F11.4}
HTNP .CFCF                                             :High Resolution Thermal Neutron Porosity (Ratio Method) in Selected Lithology {F11.4}
ITT  .S                                                :Integrated Transit Time {F11.4}
ND   .F                                                :North Departure {F11.4}
NPHI .CFCF                                             :Thermal Neutron Porosity (original Ratio Method) in Selected Lithology {F11.4}
NPOR .CFCF                                             :Enhanced Thermal Neutron Porosity in Selected Lithology {F11.4}
PR   .                                                 :Poisson s Ratio {F11.4}
SP   .MV                                               :Spontaneous Potential {F11.4}
SPAR .MV                                               :SP, Armor Return Compensated {F11.4}
SPHI .CFCF                                             :Sonic Porosity {F11.4}
STIT .F                                                :Stuck Tool Indicator, Total {F11.4}
TENS .LBF                                              :Cable Tension {F11.4}
TNPH .CFCF                                             :Thermal Neutron Porosity (Ratio Method) in Selected Lithology {F11.4}
HTNP_SAN.CFCF                                          :HiRes Thermal Neutron Porosity (matrix Sandstone) {F11.4}
#-----------------------------------------------------------------------------
# 
#      DEPT        AF10       AF20       AF30       AF60       AF90       AO10       AO20       AO30       AO60       AO90       AT10       AT20       AT30       AT60       AT90       AORT       AORX       CDF        CFTC       CNTC       CTEM       DCAL        DT        DTCO       DTSM        ED      GR_STGC      GTEM     HGR_STGC     HNPO       HTNP       ITT         ND        NPHI       NPOR        PR         SP        SPAR       SPHI       STIT       TENS       TNPH     HTNP_SAN
#
~A  
# ...
   9546.5000  1950.0000    35.2605   146.6439  1756.0581  1950.0000  1950.0000    46.2874   153.3153   342.5391   297.2147  1950.0000    41.6929   147.3153  1324.7291  1053.7367   129.3719  1924.0211 -8710.8320  -999.2500 19121.8027   118.1176     0.0000  -999.2500  -999.2500   183.1564     0.0000   132.3445   419.0000   133.4482  -999.2500  -999.2500  -999.2500     0.0000  -999.2500     0.0081  -999.2500   -12.9605   -13.4446  -999.2500     0.0000  3151.6665     0.0066  -999.2500
   9547.0000  1950.0000    35.2605   146.6439  1756.0581  1950.0000  1950.0000    46.2874   153.3153   342.5391   297.2147  1950.0000    41.6929   147.3153  1324.7291  1053.7367   129.3719  1924.0211 -8716.1406  -999.2500 19121.8027   118.1176     0.0000  -999.2500  -999.2500   183.1564     0.0000   132.3445   419.0000   133.4482  -999.2500  -999.2500  -999.2500     0.0000  -999.2500     0.0081  -999.2500   -16.6875   -14.9536  -999.2500     0.0000  3108.3333     0.0066  -999.2500
   9547.5000  1950.0000    35.2605   146.6439  1756.0581  1950.0000  1950.0000    46.2874   153.3153   342.5391   297.2147  1950.0000    41.6929   147.3153  1324.7291  1053.7367   129.3719  1924.0211 -8734.8320  -999.2500 19121.8027   118.1176     0.0000  -999.2500  -999.2500   183.1564     0.0000   132.3445   419.0000   133.4482  -999.2500  -999.2500  -999.2500     0.0000  -999.2500     0.0081  -999.2500   -18.2237   -16.3941  -999.2500     0.0000  3110.6667     0.0066  -999.2500
   9548.0000  1950.0000    35.2605   146.6439  1756.0581  1950.0000  1950.0000    46.2874   153.3153   342.5391   297.2147  1950.0000    41.6929   147.3153  1324.7291  1053.7367   129.3719  1924.0211 -8726.9453  -999.2500 19121.8027   118.1176     0.0000  -999.2500  -999.2500   183.1564     0.0000   132.3445   419.0000   133.4482  -999.2500  -999.2500  -999.2500     0.0000  -999.2500     0.0081  -999.2500   -23.3438   -17.5466  -999.2500     0.0000  3070.6667     0.0066  -999.2500
   9548.5000  1950.0000    35.2605   146.6439  1756.0581  1950.0000  1950.0000    46.2874   153.3153   342.5391   297.2147  1950.0000    41.6929   147.3153  1324.7291  1053.7367   129.3719  1924.0211 -8743.7529  -999.2500 19121.8027   118.1176     0.0000  -999.2500  -999.2500   183.1564     0.0000   132.3445   419.0000   133.4482  -999.2500  -999.2500  -999.2500     0.0000  -999.2500     0.0081  -999.2500   -22.2697   -18.3461  -999.2500     0.0000  3143.3333     0.0066  -999.2500
   9549.0000  1950.0000    35.2605   146.6439  1756.0581  1950.0000  1950.0000    46.2874   153.3153   342.5391   297.2147  1950.0000    41.6929   147.3153  1324.7291  1053.7367   129.3719  1924.0211 -8763.8145  -999.2500 19121.8027   118.1176     0.0000  -999.2500  -999.2500   183.1564     0.0000   132.3445   419.0000   133.4482  -999.2500  -999.2500  -999.2500     0.0000  -999.2500     0.0081  -999.2500   -18.5625   -18.9590  -999.2500     0.0000  3079.0000     0.0066  -999.2500
   9549.5000  1950.0000    35.2605   146.6439  1756.0581  1950.0000  1950.0000    46.2874   153.3153   342.5391   297.2147  1950.0000    41.6929   147.3153  1324.7291  1053.7367   129.3719  1924.0211 -8785.1299  -999.2500 19121.8027   118.1176     0.0000  -999.2500  -999.2500   183.1564     0.0000   132.3445   419.0000   133.4482  -999.2500  -999.2500  -999.2500     0.0000  -999.2500     0.0081  -999.2500   -22.9688   -19.3063  -999.2500     0.0000  3050.3333     0.0066  -999.2500
   9550.0000  1950.0000    35.2605   146.6439  1756.0581  1950.0000  1950.0000    46.2874   153.3153   342.5391   297.2147  1950.0000    41.6929   147.3153  1324.7291  1053.7367   129.3719  1924.0211 -8809.8916  -999.2500 19121.8027   118.1176     0.0000  -999.2500  -999.2500   183.1564     0.0000   132.3445   419.0000   133.4482  -999.2500  -999.2500  -999.2500     0.0000  -999.2500     0.0081  -999.2500   -19.5536   -19.3774  -999.2500     0.0000  3102.0000     0.0066  -999.2500
   9550.5000  1950.0000    35.2605   146.6439  1756.0581  1950.0000  1950.0000    46.2874   153.3153   342.5391   297.2147  1950.0000    41.6929   147.3153  1324.7291  1053.7367   129.3719  1924.0211 -8808.5830  -999.2500 19121.8027   118.1176     0.0000  -999.2500  -999.2500   183.1564     0.0000   132.3445   419.0000   133.4482  -999.2500  -999.2500  -999.2500     0.0000  -999.2500     0.0081  -999.2500   -20.0893   -19.0900  -999.2500     0.0000  2975.3335     0.0066  -999.2500
   9551.0000  1950.0000    35.2605   146.6439  1756.0581  1950.0000  1950.0000    46.2874   153.3153   342.5391   297.2147  1950.0000    41.6929   147.3153  1324.7291  1053.7367   129.3719  1924.0211 -8837.2705  -999.2500 19121.8027   118.1176     0.0000  -999.2500  -999.2500   183.1564     0.0000   132.3445   419.0000   133.4482  -999.2500  -999.2500  -999.2500     0.0000  -999.2500     0.0081  -999.2500   -23.0882   -18.6253  -999.2500     0.0000  2989.6667     0.0066  -999.2500
   9551.5000  1950.0000    35.2605   146.6439  1756.0581  1950.0000  1950.0000    46.2874   153.3153   342.5391   297.2147  1950.0000    41.6929   147.3153  1324.7291  1053.7367   129.3719  1924.0211 -8828.4385  -999.2500 19121.8027   118.1176     0.0000  -999.2500  -999.2500   183.1564     0.0000   132.3445   419.0000   133.4482  -999.2500  -999.2500  -999.2500     0.0000  -999.2500     0.0081  -999.2500   -20.0000   -18.0432  -999.2500     0.0000  3069.0000     0.0066  -999.2500
   9552.0000  1950.0000    35.2605   146.6439  1756.0581  1950.0000  1950.0000    46.2874   153.3153   342.5391   297.2147  1950.0000    41.6929   147.3153  1324.7291  1053.7367   129.3719  1924.0211 -8853.7275  -999.2500 19121.8027   118.1176     0.0000  -999.2500  -999.2500   183.1564     0.0000   132.3445   419.0000   133.4482  -999.2500  -999.2500  -999.2500     0.0000  -999.2500     0.0081  -999.2500    -8.5938   -17.2297  -999.2500     0.0000  3003.0000     0.0066  -999.2500
   9552.5000  1950.0000    35.2605   146.6439  1756.0581  1950.0000  1950.0000    46.2874   153.3153   342.5391   297.2147  1950.0000    41.6929   147.3153  1324.7291  1053.7367   129.3719  1924.0211 -8914.6797  -999.2500 19121.8027   118.1176     0.0000  -999.2500  -999.2500   183.1564     0.0000   132.3445   419.0000   133.4482  -999.2500  -999.2500  -999.2500     0.0000  -999.2500     0.0081  -999.2500    -9.0341   -16.2992  -999.2500     0.0000  2932.5000     0.0066  -999.2500
   9553.0000  1950.0000    35.2605   146.6439  1756.0581  1950.0000  1950.0000    46.2874   153.3153   342.5391   297.2147  1950.0000    41.6929   147.3153  1324.7291  1053.7367   129.3719  1924.0211 -8835.3652  -999.2500 19121.8027   118.1176     0.0000  -999.2500  -999.2500   183.1564     0.0000   132.3445   419.0000   133.4482  -999.2500  -999.2500  -999.2500     0.0000  -999.2500     0.0081  -999.2500    -9.0341   -16.2992  -999.2500     0.0000  2788.5000     0.0066  -999.2500
