~VERSION INFORMATION
VERS.           1.2   :CWLS Log ASCII Standard - VERSION 1.2
WRAP.           NO    :One Line per depth step
PROD.  Schlumberger   :LAS Producer
PROG.  DLIS to ASCII 2.3                               :LAS Program name and version
CREA.        2021/07/30 13:36                          :LAS Creation date {YYYY/MM/DD hh:mm}
DLIS_CREA.  2021-Jul-30 07:07                          :DLIS Creation date and time {YYYY-MMM-DD hh:mm}
SOURCE.     e39621fc-7919-4a62-8a2a-6ee9c8654461       :DLIS File Name
#--------------------------------------------------
~WELL INFORMATION
#MNEM.UNIT      DATA             DESCRIPTION
#---- ------ --------------   -----------------------------
STRT .F      8527.5000       :START DEPTH     
STOP .F      9107.0000       :STOP DEPTH     
STEP .F       0.5000         :STEP       
NULL .          -999.25      :NULL VALUE
COMP .                 COMPANY:  University Of Utah                 
WELL .                    WELL:  FORGE 78B-32                       
FLD  .                   FIELD:  None                               
LOC  .                LOCATION:  Lat: 38.500171, Long: -112.88221   
CNTY .                  COUNTY:  Beaver                             
STAT .                   STATE:  Utah                               
CTRY .                 COUNTRY:                                     
SRVC .         SERVICE COMPANY:  Schlumberger                       
LATI .DEG             LATITUDE:  38 30' 0.616" N                   
LONG .DEG            LONGITUDE:  112 52' 55.956" W                 
API  .              API NUMBER:  NRC 42-00090-03                    
DATE .                LOG DATE:  30-Jul-2021
UWI  .          UNIQUE WELL ID:                                     
#-----------------------------------------------------------------------------
~PARAMETER INFORMATION
#MNEM.UNIT    VALUE                      DESCRIPTION
#---- -----   --------------------       ------------------------
CN   .        University Of Utah         :Company Name
WN   .        FORGE 78B-32               :Well Name
FN   .        None                       :Field Name
FL   .        Lat  38.500171  Long  -112.88221 :Field Location
FL1  .                                   :Field Location, Line 1
COUN .        Beaver                     :County or Parish
STAT .        Utah                       :State or Province
NATI .                                   :Nation
DATE .        30-Jul-2021                :Tools Above Rotary Table Date
APIN .        NRC 42-00090-03            :API Well Number
SECT .                                   :Section
TOWN .                                   :Township
RANG .                                   :Range
DMF  .        KB                         :Drilling Measured From (Name of Drilling Elevation Reference)
LMF  .        KB                         :Logging Measured From (Name of Logging Elevation Reference)
PDAT .        GL                         :Permanent Datum
ENGI .        CSTILES                    :Engineer s Name
WITN .        Virgil  Welch              :Witness s Name
LATI .        38� 30' 0.616  N           :Latitude
LONG .        112� 52' 55.956  W         :Longitude
LUL  .        F.Morgan                   :Logging Unit Location
LUN  .        9108                       :Logging Unit Number
RUN  .        1B                         :Run Number
SON  .                                   :Service Order Number
BHT  .DEGF     419.00000                 :Bottom Hole Temperature
BS   .IN         5.75000                 :Bit Size
MDEN .G/C3       2.71000                 :Matrix Density for Density Porosity
DFD  .LB/G       8.30000                 :Drilling Fluid Density
DFV  .S         24.00000                 :Drilling Fluid Viscosity
DFL  .C3      -999.25000                 :Drilling Fluid Loss
RMFS .OHMM       4.42000                 :Resistivity of Mud Filtrate Sample
EKB  .F       5565.50000                 :Elevation of Kelly Bushing
EGL  .F       5536.00000                 :Elevation of Ground Level
BLI  .F       9532.00000                 :Bottom Log Interval
BSAL .PPM      700.00000                 :Borehole Salinity
FLEV .F          8.00000                 :Depth of Drilling Fluid Level to LMF (Log Measured From)
MCST .DEGF      62.00000                 :Mudcake Sample Temperature
MFST .DEGF      62.00000                 :Mud Filtrate Sample Temperature
MRT  .DEGF     419.00000                 :Maximum Recorded Temperature
MST  .DEGF      62.00000                 :Mud Sample Temperature
RMCS .OHMM       6.21000                 :Resistivity of Mud Cake Sample
RMS  .OHMM       5.20000                 :Resistivity of Mud Sample
RW   .OHMM       1.00000                 :Connate Water Resistivity
TDD  .F       9500.00000                 :Driller Total Depth
TDL  .F       9532.00000                 :Logger Total Depth
TLI  .F       8530.00000                 :Top Log Interval
HIDE .                                   :Header Identifier
MATR .        LIME                       :Rock Matrix for Neutron Porosity Corrections
FNUM .           1.00000                 :F-Numerator for Formation Factor Formula
FEXP .           2.00000                 :Exponent "m" for Formation Factor Formula
DFT  .        WATER                      :Drilling Fluid Type
DFPH .          11.00000                 :Drilling Fluid pH
MCSS .        Calculated                 :Mudcake Sample Source
MFSS .        Calculated                 :Mud Filtrate Sample Source
FD   .G/C3       1.00000                 :Fluid Density
MSS  .        Flowline                   :Mud Sample Source
OS1  .                                   :Other Services Line 1
OS2  .                                   :Other Services Line 2
OS3  .                                   :Other Services Line 3
OS4  .                                   :Other Services Line 4
OS5  .                                   :Other Services Line 5
R1   .                                   :Remarks Line 1
R2   .                                   :Remarks Line 2
R3   .                                   :Remarks Line 3
R4   .                                   :Remarks Line 4
R5   .                                   :Remarks Line 5
R6   .        Tool was run as per tool sketch :Remarks Line 6
R7   .        All logging intervals as per client request :Remarks Line 7
R8   .                                   :Remarks Line 8
TCS  .        20 00 00                   :Time Circulation Stopped
TLAB .        02 17 00                   :Time Logger At Bottom
NMT  .        NOBARITE                   :HRDD Mud Type for Nuclear Devices
EPD  .C3         5536.000000             :Elevation of Permanent Datum above Mean Sea Level
APD  .F          29.500000               :Elevation of Depth Reference (LMF) above Permanent Datum
#-----------------------------------------------------------------------------
~CURVE INFORMATION
#MNEM.UNIT   API CODE                                  DESCRIPTION
#---- -----  --------                                  -----------------------
DEPT .F                                                :DEPTH (BOREHOLE) {F12.4}
AF10 .OHMM                                             :Array Induction Four Foot Resistivity A10 {F11.4}
AF20 .OHMM                                             :Array Induction Four Foot Resistivity A20 {F11.4}
AF30 .OHMM                                             :Array Induction Four Foot Resistivity A30 {F11.4}
AF60 .OHMM                                             :Array Induction Four Foot Resistivity A60 {F11.4}
AF90 .OHMM                                             :Array Induction Four Foot Resistivity A90 {F11.4}
AO10 .OHMM                                             :Array Induction One Foot Resistivity A10 {F11.4}
AO20 .OHMM                                             :Array Induction One Foot Resistivity A20 {F11.4}
AO30 .OHMM                                             :Array Induction One Foot Resistivity A30 {F11.4}
AO60 .OHMM                                             :Array Induction One Foot Resistivity A60 {F11.4}
AO90 .OHMM                                             :Array Induction One Foot Resistivity A90 {F11.4}
AT10 .OHMM                                             :Array Induction Two Foot Resistivity A10 {F11.4}
AT20 .OHMM                                             :Array Induction Two Foot Resistivity A20 {F11.4}
AT30 .OHMM                                             :Array Induction Two Foot Resistivity A30 {F11.4}
AT60 .OHMM                                             :Array Induction Two Foot Resistivity A60 {F11.4}
AT90 .OHMM                                             :Array Induction Two Foot Resistivity A90 {F11.4}
AORT .OHMM                                             :Array Induction One Foot Rt {F11.4}
AORX .OHMM                                             :Array Induction One Foot Rxo {F11.4}
CDF  .LBF                                              :Calibrated Downhole Force {F11.4}
CFTC .HZ                                               :Corrected Far Thermal Count Rate {F11.4}
CNTC .HZ                                               :Corrected Near Thermal Count Rate {F11.4}
CTEM .DEGF                                             :Cartridge Temperature {F11.4}
DCAL .IN                                               :Differential Caliper {F11.4}
DT   .US/F                                             :Delta-T (also called Slowness or Interval Transit Time) {F11.4}
DTCO .US/F                                             :Delta-T Compressional {F11.4}
DTSM .US/F                                             :Delta-T Shear {F11.4}
ED   .F                                                :East Departure {F11.4}
GR_STGC.GAPI                                           :Gamma Ray {F11.4}
GTEM .DEGF                                             :Generalized Borehole Temperature {F11.4}
HGR_STGC.GAPI                                          :High Resolution Gamma Ray {F11.4}
HNPO .CFCF                                             :High Resolution Enhanced Thermal Neutron Porosity in Selected Lithology {F11.4}
HTNP .CFCF                                             :High Resolution Thermal Neutron Porosity (Ratio Method) in Selected Lithology {F11.4}
ITT  .S                                                :Integrated Transit Time {F11.4}
ND   .F                                                :North Departure {F11.4}
NPHI .CFCF                                             :Thermal Neutron Porosity (original Ratio Method) in Selected Lithology {F11.4}
NPOR .CFCF                                             :Enhanced Thermal Neutron Porosity in Selected Lithology {F11.4}
PR   .                                                 :Poisson s Ratio {F11.4}
SP   .MV                                               :Spontaneous Potential {F11.4}
SPAR .MV                                               :SP, Armor Return Compensated {F11.4}
SPHI .CFCF                                             :Sonic Porosity {F11.4}
STIT .F                                                :Stuck Tool Indicator, Total {F11.4}
TENS .LBF                                              :Cable Tension {F11.4}
TNPH .CFCF                                             :Thermal Neutron Porosity (Ratio Method) in Selected Lithology {F11.4}
HTNP_SAN.CFCF                                          :HiRes Thermal Neutron Porosity (matrix Sandstone) {F11.4}
#-----------------------------------------------------------------------------
# 
#      DEPT        AF10       AF20       AF30       AF60       AF90       AO10       AO20       AO30       AO60       AO90       AT10       AT20       AT30       AT60       AT90       AORT       AORX       CDF        CFTC       CNTC       CTEM       DCAL        DT        DTCO       DTSM        ED      GR_STGC      GTEM     HGR_STGC     HNPO       HTNP       ITT         ND        NPHI       NPOR        PR         SP        SPAR       SPHI       STIT       TENS       TNPH     HTNP_SAN
#
~A  
# ...
   8833.5000  1950.0000    42.0366   167.7449   278.2615   349.8806   114.8105    10.5819    17.0235    14.0102    14.0230  1950.0000    27.0000    78.7216   106.4540   130.1655    13.7905   141.3217 -7117.7065  6136.5215 13332.0732   110.2118     0.0000    53.6426    53.6426    96.0663     0.0000   113.5367   398.7872   106.8949     0.0585     0.0591     0.0122     0.0000     0.0506     0.0624     0.2735    18.1250    17.5879    -0.0275     0.0000  4236.5000     0.0494     0.0999
   8834.0000  1950.0000    40.3862   224.6562   390.8149   483.2465   256.7643    21.4040    37.4356    28.6478    28.6639  1950.0000    41.1773   119.6217   153.3992   184.7541    26.8490   242.9326 -7053.1201  9713.5723 15064.5928   110.2118     0.0000    53.0762    53.0762    95.9494     0.0000   142.9216   398.7960   148.6664     0.0211     0.0220     0.0122     0.0000     0.0330     0.0276     0.2795    17.8125    17.5740    -0.0344     0.0000  4227.4287     0.0241     0.0528
   8834.5000  1950.0000    40.2768   302.8039   572.5161   685.9364  1950.0000    60.4620    65.5112    49.8741    49.8753  1950.0000    36.9820   168.2064   225.2356   291.1143    42.3986   468.6664 -7046.7544 12598.6953 17533.8262   110.2118     0.0000    52.2070    52.2070    95.0380     0.0000   165.1221   398.7944   173.1421     0.0082     0.0112     0.0122     0.0000     0.0186    -0.0013     0.2839    17.5000    17.5684    -0.0454     0.0000  4195.0000     0.0120     0.0396
   8835.0000  1950.0000    44.9179   417.3690   785.9698   904.8208  1950.0000    58.5753    85.2443    60.3993    60.2600  1950.0000    49.6844   264.8180   340.6911   463.0729    56.2567   875.5114 -7102.6680 12800.7227 18149.2754   110.2118     0.0000    51.2988    51.2988    95.1069     0.0000   174.7139   398.8202   173.4017     0.0104     0.0131     0.0121     0.0000     0.0164    -0.0014     0.2948    17.5000    17.5275    -0.0573     0.0000  4165.7139     0.0098     0.0419
   8835.5000  1950.0000    48.3157   563.4587   892.1356  1020.1137  1950.0000    68.3255   115.8763    69.9013    69.5447  1950.0000    59.0063   377.7365   417.9847   586.9758    66.8919  1418.4275 -7166.2266 12452.1436 17886.0527   110.2118     0.0000    51.0645    51.0645    93.3806     0.0000   180.1148   398.8667   177.3267     0.0105     0.0135     0.0121     0.0000     0.0167     0.0103     0.2867    17.5000    17.4605    -0.0604     0.0000  4219.3750     0.0130     0.0423
   8836.0000  1950.0000    52.7338   617.8578   766.3545   945.7792  1950.0000    77.2045   139.4234    75.2971    74.9509  1950.0000    67.1982   396.2970   369.6948   527.3814    72.5314  1858.4629 -7085.5737 12220.5645 17202.7070   110.2118     0.0000    50.8008    50.8008    92.6736     0.0000   181.1173   398.8685   189.3271     0.0135     0.0131     0.0121     0.0000     0.0167     0.0184     0.2852    17.0313    17.3773    -0.0640     0.0000  4214.0000     0.0136     0.0419
   8836.5000  1950.0000    56.9795   545.2551   578.1385   825.2819  1950.0000    74.1175   177.5225    79.3580    78.9338  1950.0000    74.5909   318.5460   275.0440   396.5264    76.2112  1950.0000 -7132.8213 12391.6875 17540.6426   110.2118     0.0000    51.3379    51.3379    92.8980     0.0000   175.6290   398.8700   176.9134     0.0095     0.0120     0.0121     0.0000     0.0156     0.0123     0.2802    16.8750    17.2919    -0.0568     0.0000  4246.3755     0.0129     0.0405
   8837.0000  1950.0000    59.3598   444.8182   441.9533   664.5890  1950.0000    60.2723   202.2418    68.5594    67.9883  1950.0000    60.0176   238.9850   198.7937   289.8678    67.4496  1950.0000 -7085.2041 12501.8145 17200.6055   110.2118     0.0000    52.1094    52.1094    92.7009     0.0000   168.1678   398.9168   160.8891     0.0143     0.0114     0.0120     0.0000     0.0161     0.0151     0.2690    16.8750    17.2025    -0.0467     0.0000  4332.7144     0.0125     0.0399
   8837.5000  1950.0000    62.7824   347.0779   337.7903   654.8701  1950.0000    49.6520   160.4301    86.5938    86.4065  1950.0000    50.2038   138.1754   107.6884   167.9852    79.9727  1945.1292 -7104.9316 12252.4424 17610.8340   110.2118     0.0000    51.7383    51.7383    92.0161     0.0000   165.9056   398.9397   166.8740     0.0243     0.0147     0.0120     0.0000     0.0162     0.0121     0.2688    17.1875    17.1233    -0.0515     0.0000  4319.1250     0.0131     0.0439
   8838.0000  1950.0000    69.3504   306.6487   300.7299   765.6494  1950.0000    42.7472    96.6987   111.8259   111.9373  1950.0000    51.5107   121.5048   113.7899   158.4747    81.5312  1923.6428 -7068.8955 12348.4521 17528.2012   110.2118     0.0000    51.5039    51.5039    91.9407     0.0000   166.9059   398.9312   169.4389     0.0160     0.0131     0.0120     0.0000     0.0169     0.0143     0.2713    17.5000    17.0496    -0.0546     0.0000  4310.2500     0.0134     0.0419
   8838.5000  1950.0000    87.6217   372.8618   357.2314   878.1589  1950.0000    68.5491   114.8929   127.2794   127.7143  1950.0000    87.9829   215.8219   202.1763   228.6458   104.2590  1919.8574 -7171.3682 12547.1631 17734.5762   110.2118     0.0000    51.2793    51.2793    91.9256     0.0000   167.3309   398.9457   163.7850     0.0079     0.0126     0.0120     0.0000     0.0156     0.0125     0.2741    17.0313    16.9571    -0.0575     0.0000  4313.4287     0.0122     0.0413
   8839.0000  1950.0000   105.3851   424.5357   402.0687  1050.2114  1950.0000   145.5666   138.1185   124.5152   124.9487  1950.0000   151.5135   364.5455   325.5561   314.4441   101.7700  1913.3365 -7143.7285 13120.9404 17926.7246   110.2118     0.0000    51.3770    51.3770    91.9113     0.0000   170.6459   398.9858   168.7023     0.0101     0.0101     0.0119     0.0000     0.0144     0.0104     0.2728    16.8750    16.8850    -0.0562     0.0000  4233.5000     0.0108     0.0383
   8839.5000  1950.0000   120.8905   577.0967   499.5309  1200.2454  1950.0000   221.9808    96.7519    69.9945    70.1055  1950.0000   179.0758   891.0047   363.4030   311.5553    64.6840  1902.1951 -7113.4863 13309.8525 18000.4434   110.2118     0.0000    51.1230    51.1230    91.9735     0.0000   177.4804   399.0206   180.1211     0.0099     0.0101     0.0119     0.0000     0.0138     0.0091     0.2764    16.9444    16.7995    -0.0596     0.0000  4182.7144     0.0097     0.0383
   8840.0000  1950.0000   116.2528   840.3058   787.1226  1013.9568  1950.0000   207.0043    67.0832    45.4686    45.4810  1950.0000   155.3226   499.3494   420.3028   371.8900    46.1681  1893.3467 -7089.6567 13191.6084 18273.7168   110.2118     0.0000    50.9375    50.9375    92.5670     0.0000   177.4647   399.0127   183.8705     0.0133     0.0109     0.0119     0.0000     0.0146     0.0055     0.2828    16.8750    16.7225    -0.0621     0.0000  4158.3755     0.0103     0.0393
   8840.5000  1950.0000    92.5236   969.5617   904.9283  1341.5164  1950.0000   211.9040   106.7050    51.9907    51.9476  1950.0000   111.5987   752.9368   398.0735   408.3130    57.8739  1865.0739 -7122.1870 12625.5947 17786.9570   110.2118     0.0000    51.7773    51.7773    92.8599     0.0000   174.6759   399.0295   167.5891     0.0197     0.0136     0.0119     0.0000     0.0151     0.0099     0.2744    16.8750    16.6598    -0.0510     0.0000  4136.7144     0.0111     0.0425
   8841.0000  1950.0000    69.5911  1162.8236  1126.5187  1495.2019  1950.0000   130.0815   178.4823    99.5898    99.5050  1950.0000    74.9578  1007.0593   748.0521   768.2649    83.9820  1815.3115 -7167.0752 12562.0039 17285.5195   110.2118     0.0000    50.8594    50.8594    92.4035     0.0000   177.7124   399.0759   171.4770     0.0162     0.0105     0.0118     0.0000     0.0148     0.0154     0.2827    16.7188    16.5994    -0.0632     0.0000  4131.0000     0.0121     0.0388
   8841.5000  1950.0000    54.1135  1167.5383  1211.1293  1578.6885  1950.0000    55.0500   202.4310   151.3525   151.5521  1950.0000    52.1333   840.8361   619.9939   380.4898   102.4217  1779.6664 -7155.0571 12468.8496 17074.9629   110.2118     0.0000    51.7578    51.7578    92.7145     0.0000   180.4452   399.0842   193.6642     0.0112     0.0104     0.0118     0.0000     0.0142     0.0128     0.2736    16.2500    16.5500    -0.0512     0.0000  4167.1431     0.0106     0.0387
