~Version
 VERS              .         2.0                           : CWLS LOG ASCII STANDARD - VERSION 2.0
 WRAP              .         NO                            : ONE LINE PER DEPTH STEP
 DLM               .         SPACE                         : DELIMITING CHARACTER(SPACE TAB OR COMMA)
~Well Information
#_______________________________________________________________________________
#
#PARAMETER_NAME    .UNIT     VALUE                         : DESCRIPTION
#_______________________________________________________________________________
STRT               .ft       7493                          : First reference value
STOP               .ft       9543.25                       : Last reference value
STEP               .ft       0.25                          : Step increment
NULL               .         -9999                         : Missing value
COMP               .         University Of Utah            : Company
WELL               .         FORGE 78B-32                  : Well name
FLD                .         None                          : Field
LOC                .                                       : Location
CNTY               .         Beaver                        : County
STAT               .         Utah                          : State
CTRY               .         USA                           : Country
SRVC               .         Schlumberger                  : Service Company
DATE               .         19-Jul-2021                   : Date
API                .         NRC 42-00090-03               : API number
APD                .ft       29.5                          : Elevation of Depth Reference (LMF) Above Permanent Datum
BHS                .         OPEN                          : Borehole Status (Open or Cased Hole)
BHT                .degF     320.87                        : Bottom Hole Temperature
BLI                .ft       -999.25                       : Bottom Log Interval
BS                 .in       8.75                          : Bit Size
CBDR               .ft       2989                          : Casing Bottom of Driller
CBLO               .ft       2988                          : Logger Casing Shoe Depth
CSIZ               .in       11.75                         : Current Casing Size
CWEI               .lbm/ft   54                            : Casing Weight
DCS                .         19-Jul-2021                   : Date Circulation Stopped
DFD                .lbm/gal  8.3                           : Drilling Fluid Density
DFT                .         WATER                         : Drilling Fluid Type
DLAB               .         19-Jul-2021                   : Date Logger At Bottom
EDF                .ft       5536                          : Elevation of Drill Floor
EGL                .ft       5536                          : Elevation of Ground Level
EKB                .ft       5565.5                        : Elevation of Kelly Bushing
EPD                .ft       5536                          : Elevation of Permanent Datum (PDAT) above Mean Sea Level
LMF                .         KB                            : Logging Measured From (Name of Logging Elevation Reference)
LUL                .         F.Morgan                      : Logging Unit Location
LUN                .         9108                          : Logging Unit Number
LATI               .         38.500171 degrees             : Latitude
LONG               .         -112.88221 degrees            : Longitude
MCST               .degF     68                            : Mudcake Sample Temperature
MFST               .degF     68                            : Mud Filtrate Sample Temperature
MRT                .degF     321.43                        : Maximum Recorded Temperature
MST                .degF     68                            : Mud Sample Temperature
ORIGINALWELLNAME   .         FORGE 78B-32                  : 
PDAT               .         GL                            : Permanent Datum
PRODUCER-CODE      .         440                           : 
PRODUCER-NAME      .         Schlumberger                  : 
RMB                .ohm.m    0.04564156                    : Resistivity of Mud at Bottom Hole Temperature
RMCS               .ohm.m    -999.25                       : Resistivity of Mud Cake Sample
RMFS               .ohm.m    0.15                          : Resistivity of Mud Filtrate Sample
RMS                .ohm.m    0.2                           : Resistivity of Mud Sample
RUN                .         1A                            : Run Number
TCS                .         03_00_00                      : Time Circulation Stopped
TDD                .ft       8540                          : Driller Total Depth
TDL                .ft       8540                          : Logger Total Depth
TLAB               .         07_53_00                      : Time Logger At Bottom
TLI                .ft       -999.25                       : Top Log Interval
~Parameter Information Block
#_______________________________________________________________________________
#
#PARAMETER_NAME    .UNIT     VALUE                         : DESCRIPTION
#_______________________________________________________________________________
SET                .         QSLT                          : 
TLFamily_AT10      .         Resistivity - Induction Array 10: 
TLFamily_AT20      .         Resistivity - Induction Array 20: 
TLFamily_AT30      .         Resistivity - Induction Array 30: 
TLFamily_AT60      .         Resistivity - Induction Array 60: 
TLFamily_AT90      .         Resistivity - Induction Array 90: 
TLFamily_BS        .         Bit Size                      : 
TLFamily_DTCO_FINAL .         Compressional Slowness        : 
TLFamily_DTSH_FINAL .         Shear Slowness                : 
TLFamily_GR_STGC   .         Gamma Ray                     : 
TLFamily_HDAR      .         Borehole Diameter             : 
TLFamily_PR        .         Poisson Ratio (Dynamic)       : 
TLFamily_SPHI      .         Total Porosity                : 
TLFamily_TDEP      .         Measured Depth                : 
TLFamily_TENS      .         Tension                       : 
TLFamily_TNPH      .         Thermal Neutron Porosity      : 
TLFamily_VPVS      .         VpVs (Compressional To Shear) Ratio: 
~Curve Information
#_______________________________________________________________________________
#
#LOGNAME           .UNIT     LOG_ID                        : DESCRIPTION
#_______________________________________________________________________________
TDEP               .ft                                     : Measured Depth 
AT10               .ohm.m                                  : Array Induction Two Foot Resistivity A10 
AT20               .ohm.m                                  : Array Induction Two Foot Resistivity A20 
AT30               .ohm.m                                  : Array Induction Two Foot Resistivity A30 
AT60               .ohm.m                                  : Array Induction Two Foot Resistivity A60 
AT90               .ohm.m                                  : Array Induction Two Foot Resistivity A90 
BS                 .in                                     : Bit Size 
DTCO_FINAL         .us/ft                                  : Compressional Slowness 
DTSH_FINAL         .us/ft                                  : Shear Slowness 
GR_STGC            .gAPI                                   : Gamma Ray 
HDAR               .in                                     : Hole Diameter from Area 
PR                 .unitless                               : Possion's Ratio 
SPHI               .ft3/ft3                                : Total porosity from Sonic 
TENS               .lbf                                    : Cable Tension 
TNPH               .ft3/ft3                                : Thermal Neutron Porosity (Ratio Method) in Selected Lithology 
VPVS               .unitless                               : VpVs Ratio 
~Ascii
# ...
8850       1950       58.30754   971.2152   571.7865   517.2217   5.75       52.0958    93.18325   108.4622   5.75       0.2726666  0.03247917 4312.4     0.0253492  1.78869   
8850.25    1950       54.93399   1020.05    511.3201   472.8663   5.75       51.80676   92.87035   97.70424   5.75       0.2741157  0.03043643 4287.233   0.02709102 1.79263   
8850.5     1950       52.85608   1038.122   444.5724   419.3598   5.75       51.67975   92.60413   86.94631   5.75       0.2738425  0.02953889 4262.067   0.02883283 1.791884  
8850.75    1950       51.08802   1022.991   377.5548   359.8566   5.75       51.69165   92.39906   76.62622   5.75       0.2722275  0.02962297 4226.934   0.03081052 1.787505  
8851       1950       49.23101   976.6489   320.7148   304.3387   5.75       51.78301   92.24746   66.30613   5.75       0.269953   0.03026861 4191.8     0.03278822 1.781423  
8851.25    1950       48.10183   902.0749   269.8976   250.4528   5.75       51.8793    92.13847   60.67136   5.75       0.2678989  0.03094908 4204.167   0.03297988 1.776016  
8851.5     1950       47.15532   796.5178   228.9201   201.139    5.75       51.92259   92.07225   55.03659   5.75       0.2668401  0.03125504 4216.533   0.03317155 1.77326   
8851.75    1950       45.89818   677.658    196.3284   161.819    5.75       51.90119   92.0564    53.4045    5.75       0.2670041  0.03110383 4243.133   0.03340824 1.773686  
8852       1950       46.14583   571.6798   169.729    133.8931   5.75       51.84325   92.0909    51.77242   5.75       0.2680203  0.03069435 4269.733   0.03364493 1.776334  
8852.25    1950       48.95556   509.3739   138.9892   110.507    5.75       51.78592   92.16046   51.03375   5.75       0.2692801  0.03028918 4297.6     0.03400528 1.779643  
8852.5     1950       50.54782   438.4308   136.7923   103.4193   5.75       51.7454    92.24034   50.29508   5.75       0.2703887  0.03000282 4325.467   0.03436564 1.78258   
8852.75    1950       52.00786   381.6509   126.0694   94.02915   5.75       51.73045   92.30966   51.17931   5.75       0.2710843  0.0298972  4286.6     0.03480525 1.784436  
8853       1950       49.62606   343.2814   114.5753   83.09667   5.75       51.7485    92.35883   52.06353   5.75       0.2712069  0.03002474 4247.733   0.03524485 1.784763  
8853.25    1950       58.05405   297.9002   100.4914   68.19295   5.75       51.79901   92.38798   55.24372   5.75       0.2707661  0.03038171 4220.967   0.03489035 1.783586  
8853.5     1950       62.61414   242.6441   82.13661   60.22512   5.75       51.85808   92.40214   58.4239    5.75       0.2701053  0.03079914 4194.2     0.03453584 1.781827  
8853.75    1950       79.07325   253.5163   99.88446   66.19433   5.75       51.88754   92.40654   60.79398   5.75       0.2697556  0.03100737 4192.533   0.0347194  1.7809    
8854       1950       72.7872    327.8944   113.0014   69.82758   5.75       51.86902   92.40559   63.16406   5.75       0.2699887  0.03087646 4190.867   0.03490296 1.781518  
8854.25    1950       71.04449   354.2857   126.2562   73.82803   5.75       51.8256    92.40425   63.75477   5.75       0.2705405  0.03056964 4218.533   0.035098   1.782985  
8854.5     1950       92.35045   413.4691   167.5159   84.75986   5.75       51.79318   92.40762   64.34548   5.75       0.2709833  0.03034051 4246.2     0.03529304 1.784166  
8854.75    1950       146.9647   508.6134   234.3037   97.34105   5.75       51.78616   92.41694   62.28517   5.75       0.2711412  0.03029085 4288.533   0.03521687 1.784588  
8855       1950       150.7431   502.7266   211.3915   110.4929   5.75       51.79188   92.42573   60.22486   5.75       0.2711309  0.03033132 4330.867   0.03514069 1.78456   
8855.25    1950       164.351    950.3277   328.4139   130.5488   5.75       51.80096   92.42206   57.09389   5.75       0.2709873  0.03039551 4323.1     0.03513993 1.784176  
8855.5     1950       165.0952   1237.181   550.8302   162.0485   5.75       51.81333   92.39568   53.96292   5.75       0.2706369  0.03048291 4315.333   0.03513917 1.783241  
8855.75    1950       152.7989   699.752    380.9794   213.7291   5.75       51.83072   92.34194   52.1862    5.75       0.270022   0.03060579 4270.899   0.03379508 1.781606  
8856       1950       136.1272   675.847    398.0485   173.8363   5.75       51.83447   92.2586    50.40949   5.75       0.2693659  0.03063226 4226.466   0.03245099 1.77987   
8856.25    1950       110.472    741.9817   502.5506   140.9941   5.75       51.80682   92.13978   51.35767   5.75       0.2688561  0.03043692 4217.3     0.03184813 1.778526  
8856.5     1908.794   100.8268   797.4103   598.4597   154.2828   5.75       51.75722   91.97835   52.30584   5.75       0.2683175  0.03008634 4208.133   0.03124527 1.777112  
8856.75    1723.123   88.33527   844.9355   775.2115   157.3357   5.75       51.72307   91.77715   51.57056   5.75       0.267277   0.029845   4213.767   0.03092596 1.774395  
8857       1578.493   76.12785   815.4433   992.2596   196.7883   5.75       51.74417   91.55702   50.83529   5.75       0.2653504  0.02999414 4219.4     0.03060665 1.769417  
8857.25    1345.956   77.6884    1039.308   1220.297   261.2591   5.75       51.83099   91.35009   50.65015   5.75       0.2626133  0.03060773 4258.5     0.03129832 1.762461  
8857.5     1248.878   74.63979   1125.04    1442.66    295.0614   5.75       51.95647   91.18079   50.46502   5.75       0.2595963  0.03149449 4297.6     0.03199    1.754946  
8857.75    1261.905   72.99308   1211.924   1632.251   348.9929   5.75       52.07363   91.05379   47.71915   5.75       0.2569816  0.03232246 4300.6     0.03238162 1.748559  
8858       1231.465   71.96138   1305.041   1765.958   423.4673   5.75       52.14436   90.95952   44.97329   5.75       0.2552448  0.03282233 4303.6     0.03277325 1.744379  
8858.25    1003.473   71.37206   1402.972   1836.792   521.0357   5.75       52.1527    90.88842   46.69514   5.75       0.2545567  0.03288129 4275.033   0.0331341  1.742737  
8858.5     826.2278   71.20228   1526.721   1862.996   649.158    5.75       52.09889   90.83981   48.41699   5.75       0.2549204  0.032501   4246.467   0.03349495 1.743604  
8858.75    698.1536   71.26543   1629.73    1841.232   782.398    5.75       51.99983   90.82342   48.3215    5.75       0.2561744  0.03180091 4219.134   0.03400324 1.74661   
8859       604.7424   71.55473   1721.17    1796.969   882.1381   5.75       51.88277   90.86012   48.22601   5.75       0.2580924  0.03097362 4191.8     0.03451154 1.751258  
8859.25    539.3541   72.04893   1793.751   1725.673   921.5512   5.75       51.78237   90.97629   49.43913   5.75       0.2603857  0.03026411 4219.8     0.03470806 1.756897  
8859.5     495.0927   72.67433   1835.909   1615.064   868.7351   5.75       51.72596   91.18782   50.65224   5.75       0.2627887  0.02986544 4247.8     0.03490457 1.762902  
8859.75    465.1342   73.84302   1866.711   1493.507   775.669    5.75       51.72596   91.48056   49.79088   5.75       0.2650167  0.02986544 4261.533   0.03449164 1.768562  
8860       444.6538   75.29807   1878.383   1374.733   678.4183   5.75       51.78237   91.80611   48.92951   5.75       0.2667097  0.03026411 4275.267   0.03407872 1.772922  
8860.25    429.4202   77.17406   1873.792   1260.476   583.7847   5.75       51.88277   92.10403   50.12898   5.75       0.267599   0.03097362 4295.467   0.03474069 1.775234  
8860.5     416.0086   79.39358   1859.96    1157.654   503.7488   5.75       52.00116   92.33237   51.32845   5.75       0.2677329  0.03181032 4315.667   0.03540265 1.775583  
8860.75    401.931    81.69472   1837.257   1077.398   448.9121   5.75       52.10548   92.4829    51.63851   5.75       0.2674775  0.03254759 4297.233   0.03481473 1.774917  
8861       386.0165   83.59641   1815.323   1015.435   423.5692   5.75       52.17284   92.57532   51.94857   5.75       0.2672778  0.03302358 4278.8     0.03422681 1.774397  
8861.25    368.7288   84.53008   1800.817   966.5122   418.6936   5.75       52.1955    92.63908   50.77507   5.75       0.2674511  0.03318374 4240.3     0.03435326 1.774848  
