~VERSION INFORMATION
VERS.           1.2   :CWLS Log ASCII Standard - VERSION 1.2
WRAP.           NO    :One Line per depth step
PROD.  Schlumberger   :LAS Producer
PROG.  DLIS to ASCII 2.3                               :LAS Program name and version
CREA.        2021/07/30 13:36                          :LAS Creation date {YYYY/MM/DD hh:mm}
DLIS_CREA.  2021-Jul-30 07:08                          :DLIS Creation date and time {YYYY-MMM-DD hh:mm}
SOURCE.     9adb19af-6988-40d6-a86c-1e71535bb624       :DLIS File Name
#--------------------------------------------------
~WELL INFORMATION
#MNEM.UNIT      DATA             DESCRIPTION
#---- ------ --------------   -----------------------------
STRT .F        5785.0000     :START DEPTH     
STOP .F        9045.0000     :STOP DEPTH     
STEP .F           0.5000       :STEP     
NULL .          -999.25      :NULL VALUE
COMP .                 COMPANY:  University Of Utah                 
WELL .                    WELL:  FORGE 78B-32                       
FLD  .                   FIELD:  None                               
LOC  .                LOCATION:  Lat: 38.500171, Long: -112.88221   
CNTY .                  COUNTY:  Beaver                             
STAT .                   STATE:  Utah                               
CTRY .                 COUNTRY:                                     
SRVC .         SERVICE COMPANY:  Schlumberger                       
LATI .DEG             LATITUDE:  38 30' 0.616" N                   
LONG .DEG            LONGITUDE:  112 52' 55.956" W                 
API  .              API NUMBER:  NRC 42-00090-03                    
DATE .                LOG DATE:  30-Jul-2021
UWI  .          UNIQUE WELL ID:                                     
#-----------------------------------------------------------------------------
~PARAMETER INFORMATION
#MNEM.UNIT    VALUE                      DESCRIPTION
#---- -----   --------------------       ------------------------
CN   .        University Of Utah         :Company Name
WN   .        FORGE 78B-32               :Well Name
FN   .        None                       :Field Name
FL   .        Lat  38.500171  Long  -112.88221 :Field Location
FL1  .                                   :Field Location, Line 1
COUN .        Beaver                     :County or Parish
STAT .        Utah                       :State or Province
NATI .                                   :Nation
DATE .        30-Jul-2021                :Tools Above Rotary Table Date
APIN .        NRC 42-00090-03            :API Well Number
SECT .                                   :Section
TOWN .                                   :Township
RANG .                                   :Range
DMF  .        KB                         :Drilling Measured From (Name of Drilling Elevation Reference)
LMF  .        KB                         :Logging Measured From (Name of Logging Elevation Reference)
PDAT .        GL                         :Permanent Datum
ENGI .        CSTILES                    :Engineer s Name
WITN .        Virgil  Welch              :Witness s Name
LATI .        38� 30' 0.616  N           :Latitude
LONG .        112� 52' 55.956  W         :Longitude
LUL  .        F.Morgan                   :Logging Unit Location
LUN  .        9108                       :Logging Unit Number
RUN  .        1B                         :Run Number
SON  .                                   :Service Order Number
BHT  .DEGF     419.00000                 :Bottom Hole Temperature
BS   .IN         5.75000                 :Bit Size
MDEN .G/C3       2.71000                 :Matrix Density for Density Porosity
DFD  .LB/G       8.30000                 :Drilling Fluid Density
DFV  .S         24.00000                 :Drilling Fluid Viscosity
DFL  .C3      -999.25000                 :Drilling Fluid Loss
RMFS .OHMM       4.42000                 :Resistivity of Mud Filtrate Sample
EKB  .F       5565.50000                 :Elevation of Kelly Bushing
EGL  .F       5536.00000                 :Elevation of Ground Level
BLI  .F       9532.00000                 :Bottom Log Interval
BSAL .PPM      700.00000                 :Borehole Salinity
FLEV .F          8.00000                 :Depth of Drilling Fluid Level to LMF (Log Measured From)
MCST .DEGF      62.00000                 :Mudcake Sample Temperature
MFST .DEGF      62.00000                 :Mud Filtrate Sample Temperature
MRT  .DEGF     419.00000                 :Maximum Recorded Temperature
MST  .DEGF      62.00000                 :Mud Sample Temperature
RMCS .OHMM       6.21000                 :Resistivity of Mud Cake Sample
RMS  .OHMM       5.20000                 :Resistivity of Mud Sample
RW   .OHMM       1.00000                 :Connate Water Resistivity
TDD  .F       9500.00000                 :Driller Total Depth
TDL  .F       9532.00000                 :Logger Total Depth
TLI  .F       8530.00000                 :Top Log Interval
HIDE .                                   :Header Identifier
MATR .        LIME                       :Rock Matrix for Neutron Porosity Corrections
FNUM .           1.00000                 :F-Numerator for Formation Factor Formula
FEXP .           2.00000                 :Exponent "m" for Formation Factor Formula
DFT  .        WATER                      :Drilling Fluid Type
DFPH .          11.00000                 :Drilling Fluid pH
MCSS .        Calculated                 :Mudcake Sample Source
MFSS .        Calculated                 :Mud Filtrate Sample Source
FD   .G/C3       1.00000                 :Fluid Density
MSS  .        Flowline                   :Mud Sample Source
OS1  .                                   :Other Services Line 1
OS2  .                                   :Other Services Line 2
OS3  .                                   :Other Services Line 3
OS4  .                                   :Other Services Line 4
OS5  .                                   :Other Services Line 5
R1   .                                   :Remarks Line 1
R2   .                                   :Remarks Line 2
R3   .                                   :Remarks Line 3
R4   .                                   :Remarks Line 4
R5   .                                   :Remarks Line 5
R6   .        Tool was run as per tool sketch :Remarks Line 6
R7   .        All logging intervals as per client request :Remarks Line 7
R8   .                                   :Remarks Line 8
TCS  .        20 00 00                   :Time Circulation Stopped
TLAB .        02 17 00                   :Time Logger At Bottom
NMT  .        NOBARITE                   :HRDD Mud Type for Nuclear Devices
EPD  .C3         5536.000000             :Elevation of Permanent Datum above Mean Sea Level
APD  .F          29.500000               :Elevation of Depth Reference (LMF) above Permanent Datum
#-----------------------------------------------------------------------------
~CURVE INFORMATION
#MNEM.UNIT   API CODE                                  DESCRIPTION
#---- -----  --------                                  -----------------------
DEPT .F                                                :DEPTH (BOREHOLE) {F12.4}
AF10 .OHMM                                             :Array Induction Four Foot Resistivity A10 {F11.4}
AF20 .OHMM                                             :Array Induction Four Foot Resistivity A20 {F11.4}
AF30 .OHMM                                             :Array Induction Four Foot Resistivity A30 {F11.4}
AF60 .OHMM                                             :Array Induction Four Foot Resistivity A60 {F11.4}
AF90 .OHMM                                             :Array Induction Four Foot Resistivity A90 {F11.4}
AO10 .OHMM                                             :Array Induction One Foot Resistivity A10 {F11.4}
AO20 .OHMM                                             :Array Induction One Foot Resistivity A20 {F11.4}
AO30 .OHMM                                             :Array Induction One Foot Resistivity A30 {F11.4}
AO60 .OHMM                                             :Array Induction One Foot Resistivity A60 {F11.4}
AO90 .OHMM                                             :Array Induction One Foot Resistivity A90 {F11.4}
AT10 .OHMM                                             :Array Induction Two Foot Resistivity A10 {F11.4}
AT20 .OHMM                                             :Array Induction Two Foot Resistivity A20 {F11.4}
AT30 .OHMM                                             :Array Induction Two Foot Resistivity A30 {F11.4}
AT60 .OHMM                                             :Array Induction Two Foot Resistivity A60 {F11.4}
AT90 .OHMM                                             :Array Induction Two Foot Resistivity A90 {F11.4}
AORT .OHMM                                             :Array Induction One Foot Rt {F11.4}
AORX .OHMM                                             :Array Induction One Foot Rxo {F11.4}
CDF  .LBF                                              :Calibrated Downhole Force {F11.4}
CFTC .HZ                                               :Corrected Far Thermal Count Rate {F11.4}
CNTC .HZ                                               :Corrected Near Thermal Count Rate {F11.4}
CTEM .DEGF                                             :Cartridge Temperature {F11.4}
DCAL .IN                                               :Differential Caliper {F11.4}
DT   .US/F                                             :Delta-T (also called Slowness or Interval Transit Time) {F11.4}
DTCO .US/F                                             :Delta-T Compressional {F11.4}
DTSM .US/F                                             :Delta-T Shear {F11.4}
ED   .F                                                :East Departure {F11.4}
GR_STGC.GAPI                                           :Gamma Ray {F11.4}
GTEM .DEGF                                             :Generalized Borehole Temperature {F11.4}
HGR_STGC.GAPI                                          :High Resolution Gamma Ray {F11.4}
HNPO .CFCF                                             :High Resolution Enhanced Thermal Neutron Porosity in Selected Lithology {F11.4}
HTNP .CFCF                                             :High Resolution Thermal Neutron Porosity (Ratio Method) in Selected Lithology {F11.4}
ITT  .S                                                :Integrated Transit Time {F11.4}
ND   .F                                                :North Departure {F11.4}
NPHI .CFCF                                             :Thermal Neutron Porosity (original Ratio Method) in Selected Lithology {F11.4}
NPOR .CFCF                                             :Enhanced Thermal Neutron Porosity in Selected Lithology {F11.4}
PR   .                                                 :Poisson s Ratio {F11.4}
SP   .MV                                               :Spontaneous Potential {F11.4}
SPAR .MV                                               :SP, Armor Return Compensated {F11.4}
SPHI .CFCF                                             :Sonic Porosity {F11.4}
STIT .F                                                :Stuck Tool Indicator, Total {F11.4}
TENS .LBF                                              :Cable Tension {F11.4}
TNPH .CFCF                                             :Thermal Neutron Porosity (Ratio Method) in Selected Lithology {F11.4}
HTNP_SAN.CFCF                                          :HiRes Thermal Neutron Porosity (matrix Sandstone) {F11.4}
#-----------------------------------------------------------------------------
# 
#      DEPT        AF10       AF20       AF30       AF60       AF90       AO10       AO20       AO30       AO60       AO90       AT10       AT20       AT30       AT60       AT90       AORT       AORX       CDF        CFTC       CNTC       CTEM       DCAL        DT        DTCO       DTSM        ED      GR_STGC      GTEM     HGR_STGC     HNPO       HTNP       ITT         ND        NPHI       NPOR        PR         SP        SPAR       SPHI       STIT       TENS       TNPH     HTNP_SAN
#
~A  
# ...
   8386.0000     0.3065  1950.0000  1950.0000     9.5439    50.5917     0.3127  1950.0000  1950.0000     4.5094    23.4144     0.3141  1034.7764  1950.0000    11.3177    75.2736     3.7918     0.3133  2052.9417  2539.6033  5724.0737   102.3059     0.0000    51.8750    51.8750   111.3382     0.0000    84.3083   367.8448    84.8068     0.0452     0.0452     0.2163     0.0000     0.0167     0.0602     0.3614   -16.8750   -16.6513    -0.0497     0.0000  3076.4998     0.0497     0.0821
   8386.5000     0.3043  1407.4573  1950.0000     8.4335    64.6178     0.3068  1950.0000  1950.0000     4.6560    40.9678     0.3102   162.5206  1950.0000     9.8989    54.7734     4.0361     0.3109 -9999.9999  2671.5046  5858.4849   102.3059     0.0000    52.3242    52.3242   102.6449     0.0000    87.3670   367.7968    85.0817     0.0460     0.0432     0.2163     0.0000     0.0191     0.0423     0.3245   -17.5000   -16.1944    -0.0439     0.0000  3072.0002     0.0425     0.0795
   8387.0000     0.3024   503.1061  1950.0000     7.3782    87.3552     0.3011  1950.0000  1950.0000     4.5019    39.9934     0.3077    44.8899  1950.0000     7.9179    55.7146     4.1238     0.3101 -9999.9999  2720.8167  6528.5088   102.3059     0.0000    52.7734    52.7734   102.6449     0.0000    89.5397   367.7990    91.9631     0.0347     0.0460     0.2164     0.0000     0.0189     0.0279     0.3203   -16.8750   -15.4367    -0.0382     0.0000  3077.0000     0.0468     0.0832
   8387.5000     0.3007   195.3168  1950.0000     6.4558   113.0554     0.3002   257.0004  1950.0000     4.5769    29.6857     0.3074    16.7139  1950.0000     7.5272    36.4754     3.9820     0.3116  6154.5591  2415.9109  5417.7686   102.3059     0.0000    52.7734    52.7734   102.6449     0.0000    92.2363   367.8357    91.9575     0.0682     0.0506     0.2164     0.0000     0.0345     0.0864     0.3203   -16.2500   -13.8513    -0.0382     0.0000  3082.0000     0.0616     0.0890
   8388.0000     0.2989    84.3861  1950.0000     5.8721    82.3778     0.3070    26.8567  1950.0000     5.2903    30.9069     0.3092     7.4954  1950.0000     5.9993    30.9631     3.7288     0.3147 10256.1758  2061.3459  6193.5005   102.3059     0.0000    53.5938    53.5938   107.7225     0.0000    92.5848   367.8654    93.1898     0.0620     0.0826     0.2164     0.0000     0.0347     0.0546     0.3355   -15.6250   -12.4506    -0.0281     0.0000  3081.0000     0.0621     0.1296
   8388.5000     0.2968    41.7206  1950.0000     5.2666    59.8253     0.3205     6.2274  1950.0000     4.4247    12.9271     0.3121     3.9502  1950.0000     5.6848    42.5216     3.3008     0.3184 10256.1758  2605.4136  6279.6211   102.3059     0.0000    54.4141    54.4141   120.3545     0.0000    91.9091   367.8357    93.6120     0.0653     0.0577     0.2164     0.0000     0.0344     0.0350     0.3715   -13.1250   -10.7507    -0.0182     0.0000  3083.0000     0.0542     0.0981
   8389.0000     0.2944    24.1809  1950.0000     5.0138    57.4502     0.3375     2.1818  1950.0000     2.2325     4.3495     0.3146     2.4488  1950.0000     4.9917    17.7984     2.9145     0.3217 -9999.9999  2457.1248  5475.2544   102.3059     0.0000    54.6387    54.6387   109.8537     0.0000    89.8398   367.8540    90.3515     0.0606     0.0485     0.2165     0.0000     0.0187     0.0593     0.3357   -10.0000    -8.7958    -0.0156     0.0000  3080.0000     0.0487     0.0863
   8389.5000     0.2921    16.5576  1950.0000     4.5102    65.1513     0.3453     1.1145  1950.0000     2.7502     5.4816     0.3156     1.7805  1950.0000     3.9159     9.0393     2.6390     0.3228 -9999.9999  2391.1614  5226.6357   102.3059     0.0000    54.5801    54.5801   107.9383     0.0000    86.5085   367.8884    87.3566     0.0519     0.0450     0.2165     0.0000     0.0215     0.0768     0.3282    -6.8750    -4.6667    -0.0163     0.0000  3083.0000     0.0565     0.0819
   8390.0000     0.2907    13.4287  1950.0000     4.3895    59.2025     0.3309     0.8200  1950.0000     1.4000     2.2724     0.3149     1.5119  1950.0000     3.1325     3.1553     2.4783     0.3220     1.4222  2193.2837  5609.5396   102.3059     0.0000    54.2969    54.2969   105.6276     0.0000    83.1111   367.9318    83.6845     0.0601     0.0599     0.2165     0.0000     0.0228     0.0516     0.3204    -3.1250    -2.4105    -0.0196     0.0000  3077.5000     0.0501     0.1010
   8390.5000     0.2908    12.9098  1950.0000     4.5853    52.3543     0.3104     0.8574  1950.0000     2.4811     4.6157     0.3141     1.4885  1950.0000     3.8273     3.4690     2.4079     0.3205 10256.1758  2655.0139  6097.7710   102.3059     0.0000    54.2969    54.2969   105.6276     0.0000    78.9166   367.9250    80.1591     0.0702     0.0706     0.2165     0.0000     0.0235     0.0389     0.3204     0.0000    -0.1351    -0.0196     0.0000  3074.0000     0.0493     0.1145
   8391.0000     0.2926    14.7119  1950.0000     5.0464    43.6520     0.3010     1.2384  1950.0000     3.5366     6.8398     0.3153     1.6597  1950.0000     4.0370     4.2806     2.3911     0.3199 10256.1758  2622.0579  5839.2822   102.3059     0.0000    55.3418    55.3418   105.3254     0.0000    74.8230   367.9296    74.6358     0.0424     0.0470     0.2166     0.0000     0.0199     0.0576     0.3093     5.6250     5.4791    -0.0074     0.0000  3072.0002     0.0487     0.0845
   8391.5000     0.2956    19.8631  1950.0000     6.1774    35.4178     0.3047     2.1677  1950.0000     2.1364     4.0339     0.3196     1.9903  1950.0000     4.6579     7.7152     2.3955     0.3214  2564.0439  2622.0322  6203.1011   102.3059     0.0000    55.3418    55.3418   105.3327     0.0000    70.3395   367.9135    71.4418     0.0519     0.0467     0.2166     0.0000     0.0274     0.0523     0.3093    10.6250     7.5072    -0.0074     0.0000  3076.0000     0.0535     0.0841
   8392.0000     0.2994    31.7195  1950.0000     7.1961    32.1792     0.3226     2.6980  1950.0000     2.3782     6.4389     0.3266     2.3621  1950.0000    12.7616    16.2806     2.4051     0.3245     0.0000  2490.1060  6700.8154   102.3059     0.0000    54.2969    54.2969   105.3327     0.0000    67.2829   367.9502    66.2979     0.0526     0.0638     0.2166     0.0000     0.0248     0.0341     0.3191    12.5000     9.2791    -0.0196     0.0000  3078.0000     0.0499     0.1058
   8392.5000     0.3033    59.6269  1950.0000     8.9182    37.3499     0.3493     1.9119  1950.0000     2.7722     4.9728     0.3338     2.5998  1950.0000    15.4346    28.1205     2.4300     0.3279 -2050.9507  2869.3188  5992.4434   102.3059     0.0000    54.2969    54.2969   104.2374     0.0000    64.8060   367.9456    65.4670     0.0460     0.0378     0.2167     0.0000     0.0219     0.0574     0.3138    13.7500    10.7239    -0.0196     0.0000  3079.0000     0.0477     0.0727
   8393.0000     0.3076   130.0791  1950.0000    10.6131    40.8558     0.3560     1.4106  1950.0000     1.3857     2.3796     0.3390     2.7250  1950.0000     7.4843    11.0592     2.4967     0.3303 -9999.9999  2836.4121  6289.0337   102.3059     0.0000    54.2969    54.2969   105.2145     0.0000    63.8366   367.9318    63.4305     0.0351     0.0441     0.2167     0.0000     0.0122     0.0459     0.3185    14.3750    11.5235    -0.0196     0.0000  3084.0000     0.0436     0.0807
   8393.5000     0.3125   315.0702  1950.0000    11.8374    48.2552     0.3330     1.4190  1950.0000     3.4949     6.0142     0.3414     2.9734  1950.0000     8.7560    12.7975     2.6267     0.3316 -9999.9999  2861.0750  6183.8955   102.3059     0.0000    54.4531    54.4531   105.2145     0.0000    62.8184   367.9730    63.2740     0.0391     0.0403     0.2167     0.0000     0.0231     0.0595     0.3171    14.0625    12.1805    -0.0178     0.0000  3085.0000     0.0515     0.0758
   8394.0000     0.3185   882.6361  1950.0000    12.7014    49.7517     0.3127     2.0077  1874.5494     3.7427    10.2119     0.3433     3.6197  1950.0000    13.3643    44.6751     2.8236     0.3331 -9999.9999  2473.6152  6624.0586   102.3059     0.0000    55.2734    55.2734   100.9448     0.0000    63.1410   368.0142    61.6487     0.0695     0.0594     0.2167     0.0000     0.0266     0.0536     0.2859    12.5000    12.4228    -0.0082     0.0000  3082.4998     0.0543     0.1002
