~VERSION INFORMATION
VERS.           1.2   :CWLS Log ASCII Standard - VERSION 1.2
WRAP.           NO    :One Line per depth step
PROD.  Schlumberger   :LAS Producer
PROG.  DLIS to ASCII 2.3                               :LAS Program name and version
CREA.        2021/07/30 13:36                          :LAS Creation date {YYYY/MM/DD hh:mm}
DLIS_CREA.  2021-Jul-30 07:07                          :DLIS Creation date and time {YYYY-MMM-DD hh:mm}
SOURCE.     e39621fc-7919-4a62-8a2a-6ee9c8654461       :DLIS File Name
#--------------------------------------------------
~WELL INFORMATION
#MNEM.UNIT      DATA             DESCRIPTION
#---- ------ --------------   -----------------------------
STRT .F      8527.5000       :START DEPTH     
STOP .F      9107.0000       :STOP DEPTH     
STEP .F       0.5000         :STEP       
NULL .          -999.25      :NULL VALUE
COMP .                 COMPANY:  University Of Utah                 
WELL .                    WELL:  FORGE 78B-32                       
FLD  .                   FIELD:  None                               
LOC  .                LOCATION:  Lat: 38.500171, Long: -112.88221   
CNTY .                  COUNTY:  Beaver                             
STAT .                   STATE:  Utah                               
CTRY .                 COUNTRY:                                     
SRVC .         SERVICE COMPANY:  Schlumberger                       
LATI .DEG             LATITUDE:  38 30' 0.616" N                   
LONG .DEG            LONGITUDE:  112 52' 55.956" W                 
API  .              API NUMBER:  NRC 42-00090-03                    
DATE .                LOG DATE:  30-Jul-2021
UWI  .          UNIQUE WELL ID:                                     
#-----------------------------------------------------------------------------
~PARAMETER INFORMATION
#MNEM.UNIT    VALUE                      DESCRIPTION
#---- -----   --------------------       ------------------------
CN   .        University Of Utah         :Company Name
WN   .        FORGE 78B-32               :Well Name
FN   .        None                       :Field Name
FL   .        Lat  38.500171  Long  -112.88221 :Field Location
FL1  .                                   :Field Location, Line 1
COUN .        Beaver                     :County or Parish
STAT .        Utah                       :State or Province
NATI .                                   :Nation
DATE .        30-Jul-2021                :Tools Above Rotary Table Date
APIN .        NRC 42-00090-03            :API Well Number
SECT .                                   :Section
TOWN .                                   :Township
RANG .                                   :Range
DMF  .        KB                         :Drilling Measured From (Name of Drilling Elevation Reference)
LMF  .        KB                         :Logging Measured From (Name of Logging Elevation Reference)
PDAT .        GL                         :Permanent Datum
ENGI .        CSTILES                    :Engineer s Name
WITN .        Virgil  Welch              :Witness s Name
LATI .        38� 30' 0.616  N           :Latitude
LONG .        112� 52' 55.956  W         :Longitude
LUL  .        F.Morgan                   :Logging Unit Location
LUN  .        9108                       :Logging Unit Number
RUN  .        1B                         :Run Number
SON  .                                   :Service Order Number
BHT  .DEGF     419.00000                 :Bottom Hole Temperature
BS   .IN         5.75000                 :Bit Size
MDEN .G/C3       2.71000                 :Matrix Density for Density Porosity
DFD  .LB/G       8.30000                 :Drilling Fluid Density
DFV  .S         24.00000                 :Drilling Fluid Viscosity
DFL  .C3      -999.25000                 :Drilling Fluid Loss
RMFS .OHMM       4.42000                 :Resistivity of Mud Filtrate Sample
EKB  .F       5565.50000                 :Elevation of Kelly Bushing
EGL  .F       5536.00000                 :Elevation of Ground Level
BLI  .F       9532.00000                 :Bottom Log Interval
BSAL .PPM      700.00000                 :Borehole Salinity
FLEV .F          8.00000                 :Depth of Drilling Fluid Level to LMF (Log Measured From)
MCST .DEGF      62.00000                 :Mudcake Sample Temperature
MFST .DEGF      62.00000                 :Mud Filtrate Sample Temperature
MRT  .DEGF     419.00000                 :Maximum Recorded Temperature
MST  .DEGF      62.00000                 :Mud Sample Temperature
RMCS .OHMM       6.21000                 :Resistivity of Mud Cake Sample
RMS  .OHMM       5.20000                 :Resistivity of Mud Sample
RW   .OHMM       1.00000                 :Connate Water Resistivity
TDD  .F       9500.00000                 :Driller Total Depth
TDL  .F       9532.00000                 :Logger Total Depth
TLI  .F       8530.00000                 :Top Log Interval
HIDE .                                   :Header Identifier
MATR .        LIME                       :Rock Matrix for Neutron Porosity Corrections
FNUM .           1.00000                 :F-Numerator for Formation Factor Formula
FEXP .           2.00000                 :Exponent "m" for Formation Factor Formula
DFT  .        WATER                      :Drilling Fluid Type
DFPH .          11.00000                 :Drilling Fluid pH
MCSS .        Calculated                 :Mudcake Sample Source
MFSS .        Calculated                 :Mud Filtrate Sample Source
FD   .G/C3       1.00000                 :Fluid Density
MSS  .        Flowline                   :Mud Sample Source
OS1  .                                   :Other Services Line 1
OS2  .                                   :Other Services Line 2
OS3  .                                   :Other Services Line 3
OS4  .                                   :Other Services Line 4
OS5  .                                   :Other Services Line 5
R1   .                                   :Remarks Line 1
R2   .                                   :Remarks Line 2
R3   .                                   :Remarks Line 3
R4   .                                   :Remarks Line 4
R5   .                                   :Remarks Line 5
R6   .        Tool was run as per tool sketch :Remarks Line 6
R7   .        All logging intervals as per client request :Remarks Line 7
R8   .                                   :Remarks Line 8
TCS  .        20 00 00                   :Time Circulation Stopped
TLAB .        02 17 00                   :Time Logger At Bottom
NMT  .        NOBARITE                   :HRDD Mud Type for Nuclear Devices
EPD  .C3         5536.000000             :Elevation of Permanent Datum above Mean Sea Level
APD  .F          29.500000               :Elevation of Depth Reference (LMF) above Permanent Datum
#-----------------------------------------------------------------------------
~CURVE INFORMATION
#MNEM.UNIT   API CODE                                  DESCRIPTION
#---- -----  --------                                  -----------------------
DEPT .F                                                :DEPTH (BOREHOLE) {F12.4}
AF10 .OHMM                                             :Array Induction Four Foot Resistivity A10 {F11.4}
AF20 .OHMM                                             :Array Induction Four Foot Resistivity A20 {F11.4}
AF30 .OHMM                                             :Array Induction Four Foot Resistivity A30 {F11.4}
AF60 .OHMM                                             :Array Induction Four Foot Resistivity A60 {F11.4}
AF90 .OHMM                                             :Array Induction Four Foot Resistivity A90 {F11.4}
AO10 .OHMM                                             :Array Induction One Foot Resistivity A10 {F11.4}
AO20 .OHMM                                             :Array Induction One Foot Resistivity A20 {F11.4}
AO30 .OHMM                                             :Array Induction One Foot Resistivity A30 {F11.4}
AO60 .OHMM                                             :Array Induction One Foot Resistivity A60 {F11.4}
AO90 .OHMM                                             :Array Induction One Foot Resistivity A90 {F11.4}
AT10 .OHMM                                             :Array Induction Two Foot Resistivity A10 {F11.4}
AT20 .OHMM                                             :Array Induction Two Foot Resistivity A20 {F11.4}
AT30 .OHMM                                             :Array Induction Two Foot Resistivity A30 {F11.4}
AT60 .OHMM                                             :Array Induction Two Foot Resistivity A60 {F11.4}
AT90 .OHMM                                             :Array Induction Two Foot Resistivity A90 {F11.4}
AORT .OHMM                                             :Array Induction One Foot Rt {F11.4}
AORX .OHMM                                             :Array Induction One Foot Rxo {F11.4}
CDF  .LBF                                              :Calibrated Downhole Force {F11.4}
CFTC .HZ                                               :Corrected Far Thermal Count Rate {F11.4}
CNTC .HZ                                               :Corrected Near Thermal Count Rate {F11.4}
CTEM .DEGF                                             :Cartridge Temperature {F11.4}
DCAL .IN                                               :Differential Caliper {F11.4}
DT   .US/F                                             :Delta-T (also called Slowness or Interval Transit Time) {F11.4}
DTCO .US/F                                             :Delta-T Compressional {F11.4}
DTSM .US/F                                             :Delta-T Shear {F11.4}
ED   .F                                                :East Departure {F11.4}
GR_STGC.GAPI                                           :Gamma Ray {F11.4}
GTEM .DEGF                                             :Generalized Borehole Temperature {F11.4}
HGR_STGC.GAPI                                          :High Resolution Gamma Ray {F11.4}
HNPO .CFCF                                             :High Resolution Enhanced Thermal Neutron Porosity in Selected Lithology {F11.4}
HTNP .CFCF                                             :High Resolution Thermal Neutron Porosity (Ratio Method) in Selected Lithology {F11.4}
ITT  .S                                                :Integrated Transit Time {F11.4}
ND   .F                                                :North Departure {F11.4}
NPHI .CFCF                                             :Thermal Neutron Porosity (original Ratio Method) in Selected Lithology {F11.4}
NPOR .CFCF                                             :Enhanced Thermal Neutron Porosity in Selected Lithology {F11.4}
PR   .                                                 :Poisson s Ratio {F11.4}
SP   .MV                                               :Spontaneous Potential {F11.4}
SPAR .MV                                               :SP, Armor Return Compensated {F11.4}
SPHI .CFCF                                             :Sonic Porosity {F11.4}
STIT .F                                                :Stuck Tool Indicator, Total {F11.4}
TENS .LBF                                              :Cable Tension {F11.4}
TNPH .CFCF                                             :Thermal Neutron Porosity (Ratio Method) in Selected Lithology {F11.4}
HTNP_SAN.CFCF                                          :HiRes Thermal Neutron Porosity (matrix Sandstone) {F11.4}
#-----------------------------------------------------------------------------
# 
#      DEPT        AF10       AF20       AF30       AF60       AF90       AO10       AO20       AO30       AO60       AO90       AT10       AT20       AT30       AT60       AT90       AORT       AORX       CDF        CFTC       CNTC       CTEM       DCAL        DT        DTCO       DTSM        ED      GR_STGC      GTEM     HGR_STGC     HNPO       HTNP       ITT         ND        NPHI       NPOR        PR         SP        SPAR       SPHI       STIT       TENS       TNPH     HTNP_SAN
#
~A  
# ...
   9020.5000  1950.0000    54.1151   157.2829   590.8115   704.6284  1851.8567    72.0137    43.5015    45.0370    43.7472   794.5591    60.4291   164.4707   168.2619   173.2483    33.4856   357.6998 -8276.9463 10999.1084 17006.1445   108.2353     0.0000    58.6523    58.6523  -999.2500     0.0000   141.8317   419.0000   135.3907     0.0288     0.0225     0.0023     0.0000     0.0225     0.0293  -999.2500    32.9688    32.4609     0.0283     0.0000  4292.0000     0.0198     0.0535
   9021.0000  1950.0000    57.7494   146.2977   521.7782   663.2859   390.0128    44.7875    31.4464    23.0505    22.7272   904.3571    63.8020    94.7943    98.3508    83.8375    20.6452   450.7234 -8220.4990 14198.3457 19385.4609   108.2353     0.0000    56.1719    56.1719  -999.2500     0.0000   126.7580   419.0000   123.9968     0.0110     0.0097     0.0023     0.0000     0.0144     0.0032  -999.2500    31.6406    31.5244     0.0019     0.0000  4308.4287     0.0086     0.0378
   9021.5000  1950.0000    59.4937   145.4332   415.9387   530.0890   149.5765    16.1237    12.7840    12.1252    12.0193   807.7711    49.4380    79.0244    98.8975    83.7076    11.7917   405.1685 -8173.5420 16962.4922 20742.1504   108.2353     0.0000    53.1641    53.1641  -999.2500     0.0000   124.4038   419.0000   120.6163     0.0017     0.0020     0.0022     0.0000     0.0082    -0.0046  -999.2500    30.7813    30.5516    -0.0333     0.0000  4349.6250     0.0027     0.0286
   9022.0000  1950.0000    58.5399   155.7001   311.1048   386.9656    67.4218    25.8854    15.7731    15.4507    15.2015   580.8724    61.7233   124.0111   119.8646   122.6504    14.9331   284.3958 -8239.0225 17543.0742 21131.0684   108.2353     0.0000    53.3301    53.3301  -999.2500     0.0000   128.8412   419.0000   129.5387     0.0021     0.0014     0.0022     0.0000     0.0052     0.0001  -999.2500    29.7656    29.6631    -0.0313     0.0000  4385.2856     0.0010     0.0279
   9022.5000  1950.0000    57.2087   160.1864   231.4461   283.4738   143.3426    52.6845    39.0542    35.9123    34.9461   821.2439    79.7410   140.0260   107.9783   110.7844    31.4253   204.2083 -8282.8311 18149.7969 21701.7500   108.2353     0.0000    53.0469    53.0469  -999.2500     0.0000   128.8412   419.0000   129.5387    -0.0007     0.0011     0.0022     0.0000     0.0050     0.0002  -999.2500    28.3594    28.7732    -0.0348     0.0000  4426.1431     0.0010     0.0276
   9023.0000  1950.0000    53.5358   156.2930   183.6118   212.3746    94.8537    65.4202    69.6435    80.3105    74.7225   583.8808    73.2266   156.1017   172.0281   118.5605    54.3067   175.9356 -8285.2373 18360.8770 22191.2227   108.2353     0.0000    53.0566    53.0566  -999.2500     0.0000   128.8412   419.0000   129.5387     0.0019     0.0011     0.0022     0.0000     0.0054    -0.0019  -999.2500    27.5000    27.8501    -0.0347     0.0000  4434.0000     0.0011     0.0276
   9023.5000  1950.0000    49.5774   160.0684   152.3970   167.0529    42.4949    30.1215    36.0614    33.8643    32.0524   553.4832    53.1949   108.4232    65.9989    63.8993    33.8398   100.0270 -8251.7510 18153.9199 22284.4980   108.2353     0.0000    52.4316    52.4316  -999.2500     0.0000   128.8412   419.0000   129.5387    -0.0001     0.0019     0.0021     0.0000     0.0051    -0.0011  -999.2500    26.8750    27.0481    -0.0425     0.0000  4404.5713     0.0009     0.0285
   9024.0000  1870.3174    46.2274   144.8990   143.2793   147.6622    49.4884    26.9517    37.8202    78.6035    72.9447   300.1540    48.7973    99.5640    64.4301    57.8040    45.2555   173.4398 -8295.4502 18743.6133 22088.3223   108.2353     0.0000    52.7832    52.7832  -999.2500     0.0000   128.8412   419.0000   129.5387    -0.0048     0.0004     0.0021     0.0000     0.0047     0.0019  -999.2500    26.3281    26.3636    -0.0381     0.0000  4422.7144     0.0011     0.0267
   9024.5000  1572.2399    43.2062   140.3886   156.9860   156.9327    90.0184    30.5699    49.1201    66.6841    62.7776   325.2453    38.5373    83.9723    85.2982    47.2103    49.2020   110.5125 -8306.7168 18542.1504 22057.4160   108.2353     0.0000    53.9063    53.9063  -999.2500     0.0000   128.8412   419.0000   129.5387     0.0045     0.0007     0.0021     0.0000     0.0043    -0.0002  -999.2500    25.9375    25.7472    -0.0243     0.0000  4344.0005     0.0002     0.0271
   9025.0000  1094.6650    47.9661   179.8888   233.0397   200.0731   343.5417    52.0234    40.6727    43.6855    42.0251   331.7849    57.0011    60.3250   103.8407    36.4911    36.9365    94.4753 -8249.9053 18506.3984 22254.4688   108.2353     0.0000    61.5332    61.5332   181.9605     0.0000   128.8412   419.0000   129.5387    -0.0053     0.0006     0.0021     0.0000     0.0046    -0.0030     0.4354    25.3125    25.2232     0.0562     0.0000  4298.2861     0.0007     0.0270
   9025.5000   683.7411    56.5112   256.2260   323.7295   293.5634    70.6791    42.1227    37.7732    28.9403    28.1882   362.9114    51.8675   104.9836   131.8650    46.5451    27.0408    73.9470 -8275.8506 17934.4766 21391.9277   108.2353     0.0000    89.8926    89.8926   180.4055     0.0000   128.8412   419.0000   129.5387     0.0052     0.0011     0.0020     0.0000     0.0058     0.0037     0.3349    24.1406    24.6390     0.2356     0.0000  4299.5000     0.0016     0.0276
   9026.0000   507.2324    63.0903   343.7211   495.8156   413.9597    53.3867    58.2895    27.4144    22.1218    21.3634   211.5473    49.2467   112.0415   172.2249    57.4088    22.4151    62.3534 -8220.5596 17102.7988 21529.6484   108.2353     0.0000    58.2617    58.2617   177.0273     0.0000   128.8412   419.0000   129.5387     0.0033     0.0041     0.0020     0.0000     0.0079    -0.0003     0.4393    23.2143    24.1340     0.0243     0.0000  4287.7144     0.0037     0.0311
   9026.5000   286.5628    60.3568   447.8157   775.5521   621.5535    32.5980    36.4786    37.7067    27.4916    26.3969  1210.9572    77.5694   160.1342   238.1549    72.5645    30.0846    42.2599 -8316.0693 15741.3965 20784.2637   108.2353     0.0000    56.6211    56.6211   177.7037     0.0000   128.8412   419.0000   129.5387     0.0109     0.0083     0.0020     0.0000     0.0107     0.0046     0.4435    23.5938    23.9087     0.0069     0.0000  4316.8574     0.0067     0.0361
   9027.0000   157.9359    56.8209   458.5917  1143.2317   890.0046    57.8374    43.9788    58.6262    43.3046    39.8859   298.5847    66.4735   201.9572   281.4193    89.2628    31.2621    41.8771 -8313.4932 14537.7100 19664.5586   108.2353     0.0000    47.8516    47.8516   177.4148     0.0000   128.8412   419.0000   129.5387     0.0158     0.0105     0.0019     0.0000     0.0145     0.0160     0.4608    24.3750    23.8216    -0.1064     0.0000  4351.3750     0.0114     0.0387
   9027.5000   101.7248    49.2637   344.5790  1410.4667  1038.0165    37.7051    14.9398    37.3912    42.4605    38.0986   113.1061    49.9774   172.4626   245.0850   101.9563    39.1384    28.2218 -8331.8545 13291.3730 19491.3379   108.2353     0.0000    60.1074    60.1074   167.6915     0.0000   128.8412   419.0000   129.5387     0.0159     0.0156     0.0019     0.0000     0.0180     0.0123     0.4263    23.9063    23.6965     0.0427     0.0000  4390.2861     0.0145     0.0450
   9028.0000    64.6937    44.9221   228.3577  1434.0935   946.8306    26.3153    18.3649    27.0703    37.2680    33.7213    62.8500    46.8521   124.4499   165.7621    90.5815    40.4957    26.3878 -8270.5420 12509.1455 18912.4453   108.2353     0.0000    53.2617    53.2617   167.8893     0.0000   128.8412   419.0000   129.5387     0.0146     0.0188     0.0019     0.0000     0.0216     0.0122     0.4440    23.7500    23.5439    -0.0321     0.0000  4439.2856     0.0176     0.0489
   9028.5000    46.5997    42.8277   157.4996  1275.7791   756.7122    32.2281    20.4739    42.4871    51.0562    47.0367    43.0225    47.4258    93.1596   167.1099   163.1908    50.2356    26.0995 -8294.6865 11370.2451 17555.7363   108.2353     0.0000    52.9297    52.9297   167.7773     0.0000   128.8412   419.0000   129.5387     0.0186     0.0210     0.0018     0.0000     0.0237     0.0221     0.4447    23.7500    23.4630    -0.0363     0.0000  4457.5000     0.0209     0.0516
