~Version
 VERS              .         2.0                           : CWLS LOG ASCII STANDARD - VERSION 2.0
 WRAP              .         NO                            : ONE LINE PER DEPTH STEP
 DLM               .         SPACE                         : DELIMITING CHARACTER(SPACE TAB OR COMMA)
~Well Information
#_______________________________________________________________________________
#
#PARAMETER_NAME    .UNIT     VALUE                         : DESCRIPTION
#_______________________________________________________________________________
STRT               .ft       7493                          : First reference value
STOP               .ft       9543.25                       : Last reference value
STEP               .ft       0.25                          : Step increment
NULL               .         -9999                         : Missing value
COMP               .         University Of Utah            : Company
WELL               .         FORGE 78B-32                  : Well name
FLD                .         None                          : Field
LOC                .                                       : Location
CNTY               .         Beaver                        : County
STAT               .         Utah                          : State
CTRY               .         USA                           : Country
SRVC               .         Schlumberger                  : Service Company
DATE               .         19-Jul-2021                   : Date
API                .         NRC 42-00090-03               : API number
APD                .ft       29.5                          : Elevation of Depth Reference (LMF) Above Permanent Datum
BHS                .         OPEN                          : Borehole Status (Open or Cased Hole)
BHT                .degF     320.87                        : Bottom Hole Temperature
BLI                .ft       -999.25                       : Bottom Log Interval
BS                 .in       8.75                          : Bit Size
CBDR               .ft       2989                          : Casing Bottom of Driller
CBLO               .ft       2988                          : Logger Casing Shoe Depth
CSIZ               .in       11.75                         : Current Casing Size
CWEI               .lbm/ft   54                            : Casing Weight
DCS                .         19-Jul-2021                   : Date Circulation Stopped
DFD                .lbm/gal  8.3                           : Drilling Fluid Density
DFT                .         WATER                         : Drilling Fluid Type
DLAB               .         19-Jul-2021                   : Date Logger At Bottom
EDF                .ft       5536                          : Elevation of Drill Floor
EGL                .ft       5536                          : Elevation of Ground Level
EKB                .ft       5565.5                        : Elevation of Kelly Bushing
EPD                .ft       5536                          : Elevation of Permanent Datum (PDAT) above Mean Sea Level
LMF                .         KB                            : Logging Measured From (Name of Logging Elevation Reference)
LUL                .         F.Morgan                      : Logging Unit Location
LUN                .         9108                          : Logging Unit Number
LATI               .         38.500171 degrees             : Latitude
LONG               .         -112.88221 degrees            : Longitude
MCST               .degF     68                            : Mudcake Sample Temperature
MFST               .degF     68                            : Mud Filtrate Sample Temperature
MRT                .degF     321.43                        : Maximum Recorded Temperature
MST                .degF     68                            : Mud Sample Temperature
ORIGINALWELLNAME   .         FORGE 78B-32                  : 
PDAT               .         GL                            : Permanent Datum
PRODUCER-CODE      .         440                           : 
PRODUCER-NAME      .         Schlumberger                  : 
RMB                .ohm.m    0.04564156                    : Resistivity of Mud at Bottom Hole Temperature
RMCS               .ohm.m    -999.25                       : Resistivity of Mud Cake Sample
RMFS               .ohm.m    0.15                          : Resistivity of Mud Filtrate Sample
RMS                .ohm.m    0.2                           : Resistivity of Mud Sample
RUN                .         1A                            : Run Number
TCS                .         03_00_00                      : Time Circulation Stopped
TDD                .ft       8540                          : Driller Total Depth
TDL                .ft       8540                          : Logger Total Depth
TLAB               .         07_53_00                      : Time Logger At Bottom
TLI                .ft       -999.25                       : Top Log Interval
~Parameter Information Block
#_______________________________________________________________________________
#
#PARAMETER_NAME    .UNIT     VALUE                         : DESCRIPTION
#_______________________________________________________________________________
SET                .         QSLT                          : 
TLFamily_AT10      .         Resistivity - Induction Array 10: 
TLFamily_AT20      .         Resistivity - Induction Array 20: 
TLFamily_AT30      .         Resistivity - Induction Array 30: 
TLFamily_AT60      .         Resistivity - Induction Array 60: 
TLFamily_AT90      .         Resistivity - Induction Array 90: 
TLFamily_BS        .         Bit Size                      : 
TLFamily_DTCO_FINAL .         Compressional Slowness        : 
TLFamily_DTSH_FINAL .         Shear Slowness                : 
TLFamily_GR_STGC   .         Gamma Ray                     : 
TLFamily_HDAR      .         Borehole Diameter             : 
TLFamily_PR        .         Poisson Ratio (Dynamic)       : 
TLFamily_SPHI      .         Total Porosity                : 
TLFamily_TDEP      .         Measured Depth                : 
TLFamily_TENS      .         Tension                       : 
TLFamily_TNPH      .         Thermal Neutron Porosity      : 
TLFamily_VPVS      .         VpVs (Compressional To Shear) Ratio: 
~Curve Information
#_______________________________________________________________________________
#
#LOGNAME           .UNIT     LOG_ID                        : DESCRIPTION
#_______________________________________________________________________________
TDEP               .ft                                     : Measured Depth 
AT10               .ohm.m                                  : Array Induction Two Foot Resistivity A10 
AT20               .ohm.m                                  : Array Induction Two Foot Resistivity A20 
AT30               .ohm.m                                  : Array Induction Two Foot Resistivity A30 
AT60               .ohm.m                                  : Array Induction Two Foot Resistivity A60 
AT90               .ohm.m                                  : Array Induction Two Foot Resistivity A90 
BS                 .in                                     : Bit Size 
DTCO_FINAL         .us/ft                                  : Compressional Slowness 
DTSH_FINAL         .us/ft                                  : Shear Slowness 
GR_STGC            .gAPI                                   : Gamma Ray 
HDAR               .in                                     : Hole Diameter from Area 
PR                 .unitless                               : Possion's Ratio 
SPHI               .ft3/ft3                                : Total porosity from Sonic 
TENS               .lbf                                    : Cable Tension 
TNPH               .ft3/ft3                                : Thermal Neutron Porosity (Ratio Method) in Selected Lithology 
VPVS               .unitless                               : VpVs Ratio 
~Ascii
# ...
8033.5     0.4422116  1950       1950       6.899287   20.39104   10.625     53.59026   96.03507   85.93022   10.625     0.2738941  0.0430407  4040       0.04102109 1.792025  
8033.75    0.4468585  1950       1950       7.017976   21.19101   10.625     54.33022   95.59814   86.52525   10.625     0.2614626  0.0482701  4049.875   0.03996769 1.759576  
8034       0.4494214  1950       1950       7.084864   21.84921   10.625     54.93021   95.16155   87.12028   10.625     0.2501547  0.05251035 4059.75    0.0389143  1.732408  
8034.25    0.4500681  1950       1950       7.102537   22.35162   10.625     55.22497   94.76903   87.01511   10.625     0.2429096  0.05459341 4060.875   0.0372389  1.716054  
8034.5     0.4492728  1950       1950       7.082016   22.76029   10.625     55.15633   94.4896    86.90993   10.625     0.2415743  0.05410834 4062       0.0355635  1.713123  
8034.75    0.4476868  1950       1950       7.038726   23.17369   10.625     54.75097   94.44028   85.98289   10.625     0.246874   0.05124362 4061.5     0.03712173 1.724906  
8035       0.4459623  1950       1950       6.987628   23.68874   10.625     54.05708   94.77055   85.05587   10.625     0.2588687  0.04633981 4061       0.03867996 1.753157  
8035.25    0.4446053  1950       1950       6.939646   24.37479   10.625     53.1385    95.55815   84.22742   10.625     0.276169   0.03984806 4050.833   0.04018214 1.798285  
8035.5     0.4438901  1950       1950       6.900605   25.24537   10.625     52.10873   96.69608   83.39896   10.625     0.2953733  0.03257053 4040.667   0.04168432 1.85566   
8035.75    0.4438392  1950       1950       6.872251   26.25001   10.625     51.10939   97.88251   83.30839   10.625     0.3125815  0.02550809 4030.167   0.04341502 1.915157  
8036       0.444291   1950       1950       6.854034   27.27817   10.625     50.26138   98.80325   83.21782   10.625     0.3254388  0.01951505 4019.667   0.04514573 1.965789  
8036.25    0.4450355  1950       1950       6.844633   28.17617   10.625     49.62693   99.34965   83.43301   10.625     0.3337614  0.01503131 3993.083   0.04587891 2.00193   
8036.5     0.4459501  1950       1950       6.842714   28.74734   10.625     49.26516   99.6484    83.64819   10.625     0.3382555  0.01247465 3966.5     0.04661209 2.022695  
8036.75    0.4470747  1950       1950       6.846848   28.83722   10.625     49.26083   99.91457   84.95484   10.625     0.3394299  0.01244403 3951.583   0.04807461 2.028276  
8037       0.4486144  1950       1950       6.854879   28.4104    10.625     49.66887   100.3009   86.26149   10.625     0.3375538  0.0153277  3936.667   0.04953713 2.019392  
8037.25    0.4508697  1950       1950       6.863711   27.5461    10.625     50.4238    100.846    88.42877   10.625     0.3333261  0.02066288 3915       0.05160111 1.999968  
8037.5     0.4541196  1950       1950       6.870118   26.33054   10.625     51.30664   101.4442   90.59605   10.625     0.3281419  0.02690205 3893.333   0.05366509 1.977214  
8037.75    0.4585102  1950       1950       6.87206    24.93032   10.625     52.06364   101.8821   91.43885   10.625     0.3232817  0.03225191 3882.167   0.05081531 1.956876  
8038       0.4639744  1950       1950       6.869362   23.52339   10.625     52.55748   101.8952   92.28165   10.625     0.3187558  0.03574191 3871       0.04796554 1.938739  
8038.25    0.4702081  1950       1950       6.863441   22.25438   10.625     52.82804   101.3119   93.11705   10.625     0.3132818  0.03765398 3865.167   0.04357084 1.917768  
8038.5     0.4767191  1950       1950       6.8568     21.17145   10.625     52.99852   100.1546   93.95245   10.625     0.3055385  0.03885882 3859.333   0.03917614 1.889763  
8038.75    0.4829604  1950       1950       6.852759   20.27429   10.625     53.15639   98.64091   94.95776   10.625     0.2953775  0.0399745  3829.417   0.03862613 1.855674  
8039       0.4885081  1950       1950       6.854805   19.5348    10.625     53.31288   97.06316   95.96309   10.625     0.2839895  0.04108043 3799.5     0.03807613 1.820632  
8039.25    0.4932021  1950       1950       6.864993   18.90087   10.625     53.44312   95.63067   96.63158   10.625     0.2729256  0.04200087 3794.417   0.03732833 1.789392  
8039.5     0.4971809  1950       1950       6.8823     18.29018   10.625     53.53997   94.36961   97.30006   10.625     0.262669   0.04268533 3789.333   0.03658051 1.762601  
8039.75    0.5008104  1950       1950       6.902706   17.61569   10.625     53.6147    93.19681   97.61077   10.625     0.2526689  0.0432134  3789.5     0.03722618 1.73827   
8040       0.5045723  1950       1950       6.921756   16.82798   10.625     53.68946   92.03963   97.92148   10.625     0.24211    0.04374177 3789.667   0.03787184 1.714296  
8040.25    0.5089612  1950       1950       6.938071   15.94      10.625     53.7877    90.89382   97.59634   10.625     0.2305506  0.04443602 3789.333   0.03945222 1.689863  
8040.5     0.5143883  1950       1950       6.954813   15.0186    10.625     53.93108   89.76112   97.27121   10.625     0.2175329  0.04544933 3789       0.0410326  1.664367  
8040.75    0.5211038  1339.574   1950       6.993888   14.20589   10.625     54.12122   88.63139   97.13152   10.625     0.2027143  0.04679307 3804.333   0.04099097 1.637646  
8041       0.529176   591.863    1950       7.095817   13.66299   10.625     54.32161   87.51115   96.99182   10.625     0.1865721  0.04820928 3819.667   0.04094933 1.610982  
8041.25    0.5385556  259.7291   1950       7.315256   13.5495    10.625     54.44699   86.47736   97.21788   10.625     0.1716253  0.04909531 3829.958   0.04139438 1.588285  
8041.5     0.5491952  126.7178   1950       7.735659   14.09913   10.625     54.38695   85.62747   97.44395   10.625     0.161882   0.04867101 3840.25    0.04183943 1.574412  
8041.75    0.5611516  68.41813   1950       8.505396   15.79829   10.625     54.06884   85.02152   96.7373    10.625     0.1604773  0.0464229  3855.292   0.04075629 1.572468  
8042       0.5746008  39.95821   1950       9.945415   20.10815   10.625     53.48524   84.64143   96.03065   10.625     0.1676344  0.04229852 3870.333   0.03967316 1.582519  
8042.25    0.5897558  24.77504   1950       9.845017   23.29829   10.625     52.68528   84.48317   95.7114    10.625     0.1818031  0.03664506 3885       0.0412593  1.603544  
8042.5     0.6067013  16.10343   1950       9.646896   19.4001    10.625     51.72567   84.62      95.39216   10.625     0.201723   0.02986336 3899.667   0.04284544 1.635938  
8042.75    0.6251664  10.88503   1950       10.79774   20.45082   10.625     50.65941   85.20963   94.1571    10.625     0.2266501  0.02232798 3909.167   0.04341112 1.68201   
8043       0.644289   7.656546   1950       14.81719   35.61177   10.625     49.57243   86.36598   92.92204   10.625     0.2543389  0.01464612 3918.667   0.04397679 1.742218  
8043.25    0.6624491  5.606227   1950       14.69337   61.68242   10.625     48.61814   87.98489   90.50655   10.625     0.2802257  0.007902085 3930.5     0.04330933 1.809713  
8043.5     0.6772956  4.273773   1950       17.72464   110.9394   10.625     48.00663   89.6835    88.09106   10.625     0.299195   0.003580424 3942.333   0.04264186 1.868148  
8043.75    0.6861042  3.392235   1950       41.04613   65.27273   10.625     47.92781   90.93845   84.52306   10.625     0.307703   0.00302337 3967.167   0.04034475 1.897405  
8044       0.686485   2.803534   1950       29.87651   75.30961   10.625     48.47193   91.36662   80.95504   10.625     0.3041515  0.006868774 3992       0.03804764 1.884939  
8044.25    0.6772181  2.41254    1950       9.086781   69.36478   10.625     49.55806   90.97632   77.8656    10.625     0.2890283  0.01454459 4007.75    0.03581136 1.835752  
8044.5     0.6588035  2.161687   1950       10.68763   94.58224   10.625     50.95392   90.15363   74.77615   10.625     0.2653114  0.02440932 4023.5     0.03357507 1.769317  
8044.75    0.6333905  2.016798   1950       12.98585   115.608    10.625     52.37302   89.41234   72.93107   10.625     0.2388494  0.03443833 4033.583   0.03332328 1.707221  
