~VERSION INFORMATION
VERS.           1.2   :CWLS Log ASCII Standard - VERSION 1.2
WRAP.           NO    :One Line per depth step
PROD.  Schlumberger   :LAS Producer
PROG.  DLIS to ASCII 2.3                               :LAS Program name and version
CREA.        2021/07/30 13:36                          :LAS Creation date {YYYY/MM/DD hh:mm}
DLIS_CREA.  2021-Jul-30 07:08                          :DLIS Creation date and time {YYYY-MMM-DD hh:mm}
SOURCE.     9adb19af-6988-40d6-a86c-1e71535bb624       :DLIS File Name
#--------------------------------------------------
~WELL INFORMATION
#MNEM.UNIT      DATA             DESCRIPTION
#---- ------ --------------   -----------------------------
STRT .F        5785.0000     :START DEPTH     
STOP .F        9045.0000     :STOP DEPTH     
STEP .F           0.5000       :STEP     
NULL .          -999.25      :NULL VALUE
COMP .                 COMPANY:  University Of Utah                 
WELL .                    WELL:  FORGE 78B-32                       
FLD  .                   FIELD:  None                               
LOC  .                LOCATION:  Lat: 38.500171, Long: -112.88221   
CNTY .                  COUNTY:  Beaver                             
STAT .                   STATE:  Utah                               
CTRY .                 COUNTRY:                                     
SRVC .         SERVICE COMPANY:  Schlumberger                       
LATI .DEG             LATITUDE:  38 30' 0.616" N                   
LONG .DEG            LONGITUDE:  112 52' 55.956" W                 
API  .              API NUMBER:  NRC 42-00090-03                    
DATE .                LOG DATE:  30-Jul-2021
UWI  .          UNIQUE WELL ID:                                     
#-----------------------------------------------------------------------------
~PARAMETER INFORMATION
#MNEM.UNIT    VALUE                      DESCRIPTION
#---- -----   --------------------       ------------------------
CN   .        University Of Utah         :Company Name
WN   .        FORGE 78B-32               :Well Name
FN   .        None                       :Field Name
FL   .        Lat  38.500171  Long  -112.88221 :Field Location
FL1  .                                   :Field Location, Line 1
COUN .        Beaver                     :County or Parish
STAT .        Utah                       :State or Province
NATI .                                   :Nation
DATE .        30-Jul-2021                :Tools Above Rotary Table Date
APIN .        NRC 42-00090-03            :API Well Number
SECT .                                   :Section
TOWN .                                   :Township
RANG .                                   :Range
DMF  .        KB                         :Drilling Measured From (Name of Drilling Elevation Reference)
LMF  .        KB                         :Logging Measured From (Name of Logging Elevation Reference)
PDAT .        GL                         :Permanent Datum
ENGI .        CSTILES                    :Engineer s Name
WITN .        Virgil  Welch              :Witness s Name
LATI .        38� 30' 0.616  N           :Latitude
LONG .        112� 52' 55.956  W         :Longitude
LUL  .        F.Morgan                   :Logging Unit Location
LUN  .        9108                       :Logging Unit Number
RUN  .        1B                         :Run Number
SON  .                                   :Service Order Number
BHT  .DEGF     419.00000                 :Bottom Hole Temperature
BS   .IN         5.75000                 :Bit Size
MDEN .G/C3       2.71000                 :Matrix Density for Density Porosity
DFD  .LB/G       8.30000                 :Drilling Fluid Density
DFV  .S         24.00000                 :Drilling Fluid Viscosity
DFL  .C3      -999.25000                 :Drilling Fluid Loss
RMFS .OHMM       4.42000                 :Resistivity of Mud Filtrate Sample
EKB  .F       5565.50000                 :Elevation of Kelly Bushing
EGL  .F       5536.00000                 :Elevation of Ground Level
BLI  .F       9532.00000                 :Bottom Log Interval
BSAL .PPM      700.00000                 :Borehole Salinity
FLEV .F          8.00000                 :Depth of Drilling Fluid Level to LMF (Log Measured From)
MCST .DEGF      62.00000                 :Mudcake Sample Temperature
MFST .DEGF      62.00000                 :Mud Filtrate Sample Temperature
MRT  .DEGF     419.00000                 :Maximum Recorded Temperature
MST  .DEGF      62.00000                 :Mud Sample Temperature
RMCS .OHMM       6.21000                 :Resistivity of Mud Cake Sample
RMS  .OHMM       5.20000                 :Resistivity of Mud Sample
RW   .OHMM       1.00000                 :Connate Water Resistivity
TDD  .F       9500.00000                 :Driller Total Depth
TDL  .F       9532.00000                 :Logger Total Depth
TLI  .F       8530.00000                 :Top Log Interval
HIDE .                                   :Header Identifier
MATR .        LIME                       :Rock Matrix for Neutron Porosity Corrections
FNUM .           1.00000                 :F-Numerator for Formation Factor Formula
FEXP .           2.00000                 :Exponent "m" for Formation Factor Formula
DFT  .        WATER                      :Drilling Fluid Type
DFPH .          11.00000                 :Drilling Fluid pH
MCSS .        Calculated                 :Mudcake Sample Source
MFSS .        Calculated                 :Mud Filtrate Sample Source
FD   .G/C3       1.00000                 :Fluid Density
MSS  .        Flowline                   :Mud Sample Source
OS1  .                                   :Other Services Line 1
OS2  .                                   :Other Services Line 2
OS3  .                                   :Other Services Line 3
OS4  .                                   :Other Services Line 4
OS5  .                                   :Other Services Line 5
R1   .                                   :Remarks Line 1
R2   .                                   :Remarks Line 2
R3   .                                   :Remarks Line 3
R4   .                                   :Remarks Line 4
R5   .                                   :Remarks Line 5
R6   .        Tool was run as per tool sketch :Remarks Line 6
R7   .        All logging intervals as per client request :Remarks Line 7
R8   .                                   :Remarks Line 8
TCS  .        20 00 00                   :Time Circulation Stopped
TLAB .        02 17 00                   :Time Logger At Bottom
NMT  .        NOBARITE                   :HRDD Mud Type for Nuclear Devices
EPD  .C3         5536.000000             :Elevation of Permanent Datum above Mean Sea Level
APD  .F          29.500000               :Elevation of Depth Reference (LMF) above Permanent Datum
#-----------------------------------------------------------------------------
~CURVE INFORMATION
#MNEM.UNIT   API CODE                                  DESCRIPTION
#---- -----  --------                                  -----------------------
DEPT .F                                                :DEPTH (BOREHOLE) {F12.4}
AF10 .OHMM                                             :Array Induction Four Foot Resistivity A10 {F11.4}
AF20 .OHMM                                             :Array Induction Four Foot Resistivity A20 {F11.4}
AF30 .OHMM                                             :Array Induction Four Foot Resistivity A30 {F11.4}
AF60 .OHMM                                             :Array Induction Four Foot Resistivity A60 {F11.4}
AF90 .OHMM                                             :Array Induction Four Foot Resistivity A90 {F11.4}
AO10 .OHMM                                             :Array Induction One Foot Resistivity A10 {F11.4}
AO20 .OHMM                                             :Array Induction One Foot Resistivity A20 {F11.4}
AO30 .OHMM                                             :Array Induction One Foot Resistivity A30 {F11.4}
AO60 .OHMM                                             :Array Induction One Foot Resistivity A60 {F11.4}
AO90 .OHMM                                             :Array Induction One Foot Resistivity A90 {F11.4}
AT10 .OHMM                                             :Array Induction Two Foot Resistivity A10 {F11.4}
AT20 .OHMM                                             :Array Induction Two Foot Resistivity A20 {F11.4}
AT30 .OHMM                                             :Array Induction Two Foot Resistivity A30 {F11.4}
AT60 .OHMM                                             :Array Induction Two Foot Resistivity A60 {F11.4}
AT90 .OHMM                                             :Array Induction Two Foot Resistivity A90 {F11.4}
AORT .OHMM                                             :Array Induction One Foot Rt {F11.4}
AORX .OHMM                                             :Array Induction One Foot Rxo {F11.4}
CDF  .LBF                                              :Calibrated Downhole Force {F11.4}
CFTC .HZ                                               :Corrected Far Thermal Count Rate {F11.4}
CNTC .HZ                                               :Corrected Near Thermal Count Rate {F11.4}
CTEM .DEGF                                             :Cartridge Temperature {F11.4}
DCAL .IN                                               :Differential Caliper {F11.4}
DT   .US/F                                             :Delta-T (also called Slowness or Interval Transit Time) {F11.4}
DTCO .US/F                                             :Delta-T Compressional {F11.4}
DTSM .US/F                                             :Delta-T Shear {F11.4}
ED   .F                                                :East Departure {F11.4}
GR_STGC.GAPI                                           :Gamma Ray {F11.4}
GTEM .DEGF                                             :Generalized Borehole Temperature {F11.4}
HGR_STGC.GAPI                                          :High Resolution Gamma Ray {F11.4}
HNPO .CFCF                                             :High Resolution Enhanced Thermal Neutron Porosity in Selected Lithology {F11.4}
HTNP .CFCF                                             :High Resolution Thermal Neutron Porosity (Ratio Method) in Selected Lithology {F11.4}
ITT  .S                                                :Integrated Transit Time {F11.4}
ND   .F                                                :North Departure {F11.4}
NPHI .CFCF                                             :Thermal Neutron Porosity (original Ratio Method) in Selected Lithology {F11.4}
NPOR .CFCF                                             :Enhanced Thermal Neutron Porosity in Selected Lithology {F11.4}
PR   .                                                 :Poisson s Ratio {F11.4}
SP   .MV                                               :Spontaneous Potential {F11.4}
SPAR .MV                                               :SP, Armor Return Compensated {F11.4}
SPHI .CFCF                                             :Sonic Porosity {F11.4}
STIT .F                                                :Stuck Tool Indicator, Total {F11.4}
TENS .LBF                                              :Cable Tension {F11.4}
TNPH .CFCF                                             :Thermal Neutron Porosity (Ratio Method) in Selected Lithology {F11.4}
HTNP_SAN.CFCF                                          :HiRes Thermal Neutron Porosity (matrix Sandstone) {F11.4}
#-----------------------------------------------------------------------------
# 
#      DEPT        AF10       AF20       AF30       AF60       AF90       AO10       AO20       AO30       AO60       AO90       AT10       AT20       AT30       AT60       AT90       AORT       AORX       CDF        CFTC       CNTC       CTEM       DCAL        DT        DTCO       DTSM        ED      GR_STGC      GTEM     HGR_STGC     HNPO       HTNP       ITT         ND        NPHI       NPOR        PR         SP        SPAR       SPHI       STIT       TENS       TNPH     HTNP_SAN
#
~A  
# ...
   6873.0000     0.3169  1950.0000  1950.0000     8.2853    37.4672     0.3525  1950.0000  1950.0000     3.2984    15.9094     0.3413  1950.0000  1950.0000     8.4879   107.8000     3.4365     0.3434 -5127.5547  3495.8369  6451.9277   100.3294     0.0000    51.5039    51.5039    91.2138     0.0000   100.4642   328.8364   100.9754     0.0241     0.0226     0.0887     0.0000    -0.0062     0.0357     0.2660   -10.0000    -9.1437    -0.0546     0.0000  2696.0000     0.0239     0.0536
   6873.5000     0.3167  1950.0000  1950.0000     8.6978    47.5506     0.3466  1950.0000  1950.0000     3.9324    31.5565     0.3401  1525.4767  1950.0000     9.4271   122.7654     3.7357     0.3444 10255.3223  3413.6062  6489.8359   100.3294     0.0000    52.0313    52.0313   107.5297     0.0000    97.4724   328.8773    99.0868     0.0294     0.0259     0.0887     0.0000     0.0001     0.0274     0.3471   -10.6250   -10.0373    -0.0477     0.0000  2695.0000     0.0253     0.0578
   6874.0000     0.3172   610.0171  1950.0000     8.9573    69.0371     0.3347  1950.0000  1950.0000     4.7522    54.3742     0.3403   187.9136  1950.0000    10.5955   310.5378     4.0787     0.3469 10254.0420  3397.0981  6921.0195   100.3294     0.0000    52.0898    52.0898   107.5081     0.0000    95.0779   328.8092    95.3467     0.0252     0.0328     0.0887     0.0000     0.0017     0.0183     0.3466   -11.8750   -10.8558    -0.0469     0.0000  2692.0000     0.0284     0.0664
   6874.5000     0.3184   164.5996  1950.0000     9.0728   144.2921     0.3325  1950.0000  1950.0000     5.3672    45.4290     0.3436    43.5532  1950.0000    12.6674   939.3115     4.3790     0.3516  5127.5537  3232.2224  6260.4761   100.3294     0.0000    57.5879    57.5879   107.5081     0.0000    94.5694   328.8773    93.1947     0.0225     0.0281     0.0887     0.0000     0.0055     0.0473     0.2988   -12.5000   -11.9812     0.0172     0.0000  2688.0002     0.0334     0.0605
   6875.0000     0.3202    56.7558  1950.0000     8.6766   181.8611     0.3458   177.7020  1950.0000     5.1749    29.1197     0.3509    14.6098  1950.0000    11.7680   258.1350     4.3671     0.3587 -9999.9999  3182.5308  6739.1719   100.3294     0.0000    61.5430    61.5430   110.6804     0.0000    96.7470   328.8637    95.6752     0.0374     0.0314     0.0888     0.0000     0.0038     0.0348     0.2762   -13.1250   -12.5487     0.0563     0.0000  2685.0002     0.0324     0.0646
   6875.5000     0.3215    23.7941  1950.0000     7.5641   183.3048     0.3680    23.7089  1950.0000     4.7167    25.1166     0.3616     6.1233  1950.0000     7.5543    67.2324     4.2281     0.3669 -9999.9999  3660.9507  7102.4453   100.3294     0.0000    60.6738    60.6738   110.6804     0.0000    98.3788   328.9251   100.2652     0.0258     0.0299     0.0888     0.0000     0.0040     0.0219     0.2852   -13.7500   -12.9580     0.0481     0.0000  2684.0000     0.0287     0.0627
   6876.0000     0.3212    11.7195  1950.0000     6.5563    77.2321     0.3897     5.4098  1950.0000     3.8497    17.7941     0.3719     3.0294  1950.0000     8.2397   213.8005     4.0022     0.3726  2052.1599  3628.0046  7083.7188   100.3294     0.0000    60.2148    60.2148   110.5122     0.0000    96.3435   328.9592    97.8212     0.0280     0.0278     0.0888     0.0000    -0.0022     0.0198     0.2889   -14.0625   -13.2011     0.0437     0.0000  2683.0000     0.0222     0.0601
   6876.5000     0.3182     6.7550  1950.0000     6.0604    64.7984     0.4148     1.8295  1950.0000     3.0861    11.1833     0.3764     1.7570  1950.0000     5.4764    17.3025     3.7770     0.3720 10255.4639  4056.7290  7122.0796   100.3294     0.0000    58.0664    58.0664    87.8827     0.0000    92.5382   328.9592    90.9441     0.0150     0.0165     0.0889     0.0000    -0.0023     0.0223     0.1126   -14.3750   -13.3376     0.0222     0.0000  2679.0000     0.0240     0.0460
   6877.0000     0.3125     4.5604  1950.0000     5.2997    75.3007     0.4300     0.8650  1950.0000     3.1035    10.8516     0.3696     1.1932  1950.0000     5.2441    29.1747     3.5618     0.3619 10255.1084  3578.2859  6930.5576   100.3294     0.0000    56.9922    56.9922    87.8827     0.0000    89.4110   329.0365    88.8491     0.0300     0.0281     0.0889     0.0000     0.0059     0.0232     0.1371   -13.7500   -13.2656     0.0109     0.0000  2673.0000     0.0268     0.0605
   6877.5000     0.3053     3.6049  1950.0000     5.4804    66.3148     0.3951     0.5593  1950.0000     4.8140    16.8281     0.3511     0.9461  1950.0000     5.5686    22.3964     3.3297     0.3434 -5124.8882  2910.6338  7064.1572   100.3294     0.0000    56.9922    56.9922    85.2600     0.0000    87.8986   329.0501    88.3039     0.0336     0.0448     0.0889     0.0000     0.0084     0.0259     0.0961   -13.1250   -13.0617     0.0109     0.0000  2672.0000     0.0364     0.0817
   6878.0000     0.2982     3.3346  1950.0000     5.8462    56.5743     0.3261     0.4901  1950.0000     3.1073    11.4943     0.3275     0.8739  1950.0000     5.3321    16.9550     3.0678     0.3218 -9999.9999  3067.2830  5801.0229   100.3294     0.0000    56.9922    56.9922   110.7586     0.0000    87.8314   329.0592    88.0338     0.0673     0.0385     0.0889     0.0000     0.0124     0.0715     0.3199   -12.5000   -12.7516     0.0109     0.0000  2666.0000     0.0427     0.0737
   6878.5000     0.2924     3.6082  1950.0000     6.0509    46.1085     0.2715     0.5780  1904.8831     3.3578     8.2973     0.3066     0.9326  1950.0000     7.3481    21.5949     2.7777     0.3026 -9999.9999  3034.1226  6566.7988   100.3294     0.0000    56.9922    56.9922   110.7586     0.0000    85.7931   329.0365    87.1539     0.0393     0.0362     0.0890     0.0000     0.0103     0.0476     0.3199   -11.2500   -11.6476     0.0109     0.0000  2666.0000     0.0434     0.0706
   6879.0000     0.2883     4.5661  1950.0000     6.0929    34.5224     0.2484     0.8816  1950.0000     2.1270     4.2597     0.2930     1.1266  1950.0000     5.7413    16.9208     2.4883     0.2886 -9999.9999  2951.8765  6815.2847   100.3294     0.0000    56.9922    56.9922   117.7627     0.0000    85.2491   329.0865    86.5399     0.0463     0.0432     0.0890     0.0000     0.0130     0.0301     0.3471   -10.6250   -11.2111     0.0109     0.0000  2674.0000     0.0355     0.0796
   6879.5000     0.2852     6.7581  1950.0000     6.8130    32.0469     0.2599     1.4109  1950.0000     2.2681     5.4605     0.2865     1.4763  1950.0000     5.4601    11.8704     2.2396     0.2794 -9999.9999  3545.5151  7236.9517   100.3294     0.0000    56.7090    56.7090   117.8648     0.0000    83.9736   329.0729    83.1415     0.0406     0.0356     0.0890     0.0000     0.0105     0.0226     0.3494    -9.0625   -10.7534     0.0078     0.0000  2682.0000     0.0349     0.0700
   6880.0000     0.2824    11.6969  1950.0000     7.5092    37.1895     0.2954     1.5817   738.7935     2.6483     4.4398     0.2831     1.9603  1950.0000     9.4062   127.0490     2.0611     0.2725 -6153.2075  3331.1353  6739.1055   100.3294     0.0000    56.1426    56.1426   117.8648     0.0000    84.7928   329.1683    84.8057     0.0388     0.0329     0.0891     0.0000     0.0028     0.0330     0.3533    -8.1250   -10.0830     0.0016     0.0000  2689.0002     0.0292     0.0665
   6880.5000     0.2792    23.6457  1950.0000     9.1822    49.0383     0.3113     1.3903   441.0289     1.1118     1.6359     0.2773     2.4887  1950.0000     7.9806    26.2643     1.9679     0.2648 10256.3535  3545.5500  6643.3799   100.3294     0.0000    55.8594    55.8594   113.2349     0.0000    84.5568   329.1638    84.7951     0.0273     0.0262     0.0891     0.0000     0.0044     0.0333     0.3392    -8.1250    -9.6500    -0.0016     0.0000  2694.0000     0.0305     0.0581
   6881.0000     0.2762    56.0401  1950.0000    10.6866    52.9781     0.2801     1.4197   441.0247     1.7896     3.2951     0.2668     3.0609  1950.0000     9.5126    40.4464     1.9610     0.2555 10253.6865  3232.1907  6892.3350   100.3294     0.0000    55.8594    55.8594   108.6050     0.0000    86.3438   329.1592    84.3056     0.0266     0.0338     0.0891     0.0000     0.0023     0.0168     0.3202    -8.1250    -9.2529    -0.0016     0.0000  2701.0000     0.0277     0.0676
