~VERSION INFORMATION
VERS.           1.2   :CWLS Log ASCII Standard - VERSION 1.2
WRAP.           NO    :One Line per depth step
PROD.  Schlumberger   :LAS Producer
PROG.  DLIS to ASCII 2.3                               :LAS Program name and version
CREA.        2021/07/30 13:36                          :LAS Creation date {YYYY/MM/DD hh:mm}
DLIS_CREA.  2021-Jul-30 07:08                          :DLIS Creation date and time {YYYY-MMM-DD hh:mm}
SOURCE.     9adb19af-6988-40d6-a86c-1e71535bb624       :DLIS File Name
#--------------------------------------------------
~WELL INFORMATION
#MNEM.UNIT      DATA             DESCRIPTION
#---- ------ --------------   -----------------------------
STRT .F        5785.0000     :START DEPTH     
STOP .F        9045.0000     :STOP DEPTH     
STEP .F           0.5000       :STEP     
NULL .          -999.25      :NULL VALUE
COMP .                 COMPANY:  University Of Utah                 
WELL .                    WELL:  FORGE 78B-32                       
FLD  .                   FIELD:  None                               
LOC  .                LOCATION:  Lat: 38.500171, Long: -112.88221   
CNTY .                  COUNTY:  Beaver                             
STAT .                   STATE:  Utah                               
CTRY .                 COUNTRY:                                     
SRVC .         SERVICE COMPANY:  Schlumberger                       
LATI .DEG             LATITUDE:  38 30' 0.616" N                   
LONG .DEG            LONGITUDE:  112 52' 55.956" W                 
API  .              API NUMBER:  NRC 42-00090-03                    
DATE .                LOG DATE:  30-Jul-2021
UWI  .          UNIQUE WELL ID:                                     
#-----------------------------------------------------------------------------
~PARAMETER INFORMATION
#MNEM.UNIT    VALUE                      DESCRIPTION
#---- -----   --------------------       ------------------------
CN   .        University Of Utah         :Company Name
WN   .        FORGE 78B-32               :Well Name
FN   .        None                       :Field Name
FL   .        Lat  38.500171  Long  -112.88221 :Field Location
FL1  .                                   :Field Location, Line 1
COUN .        Beaver                     :County or Parish
STAT .        Utah                       :State or Province
NATI .                                   :Nation
DATE .        30-Jul-2021                :Tools Above Rotary Table Date
APIN .        NRC 42-00090-03            :API Well Number
SECT .                                   :Section
TOWN .                                   :Township
RANG .                                   :Range
DMF  .        KB                         :Drilling Measured From (Name of Drilling Elevation Reference)
LMF  .        KB                         :Logging Measured From (Name of Logging Elevation Reference)
PDAT .        GL                         :Permanent Datum
ENGI .        CSTILES                    :Engineer s Name
WITN .        Virgil  Welch              :Witness s Name
LATI .        38� 30' 0.616  N           :Latitude
LONG .        112� 52' 55.956  W         :Longitude
LUL  .        F.Morgan                   :Logging Unit Location
LUN  .        9108                       :Logging Unit Number
RUN  .        1B                         :Run Number
SON  .                                   :Service Order Number
BHT  .DEGF     419.00000                 :Bottom Hole Temperature
BS   .IN         5.75000                 :Bit Size
MDEN .G/C3       2.71000                 :Matrix Density for Density Porosity
DFD  .LB/G       8.30000                 :Drilling Fluid Density
DFV  .S         24.00000                 :Drilling Fluid Viscosity
DFL  .C3      -999.25000                 :Drilling Fluid Loss
RMFS .OHMM       4.42000                 :Resistivity of Mud Filtrate Sample
EKB  .F       5565.50000                 :Elevation of Kelly Bushing
EGL  .F       5536.00000                 :Elevation of Ground Level
BLI  .F       9532.00000                 :Bottom Log Interval
BSAL .PPM      700.00000                 :Borehole Salinity
FLEV .F          8.00000                 :Depth of Drilling Fluid Level to LMF (Log Measured From)
MCST .DEGF      62.00000                 :Mudcake Sample Temperature
MFST .DEGF      62.00000                 :Mud Filtrate Sample Temperature
MRT  .DEGF     419.00000                 :Maximum Recorded Temperature
MST  .DEGF      62.00000                 :Mud Sample Temperature
RMCS .OHMM       6.21000                 :Resistivity of Mud Cake Sample
RMS  .OHMM       5.20000                 :Resistivity of Mud Sample
RW   .OHMM       1.00000                 :Connate Water Resistivity
TDD  .F       9500.00000                 :Driller Total Depth
TDL  .F       9532.00000                 :Logger Total Depth
TLI  .F       8530.00000                 :Top Log Interval
HIDE .                                   :Header Identifier
MATR .        LIME                       :Rock Matrix for Neutron Porosity Corrections
FNUM .           1.00000                 :F-Numerator for Formation Factor Formula
FEXP .           2.00000                 :Exponent "m" for Formation Factor Formula
DFT  .        WATER                      :Drilling Fluid Type
DFPH .          11.00000                 :Drilling Fluid pH
MCSS .        Calculated                 :Mudcake Sample Source
MFSS .        Calculated                 :Mud Filtrate Sample Source
FD   .G/C3       1.00000                 :Fluid Density
MSS  .        Flowline                   :Mud Sample Source
OS1  .                                   :Other Services Line 1
OS2  .                                   :Other Services Line 2
OS3  .                                   :Other Services Line 3
OS4  .                                   :Other Services Line 4
OS5  .                                   :Other Services Line 5
R1   .                                   :Remarks Line 1
R2   .                                   :Remarks Line 2
R3   .                                   :Remarks Line 3
R4   .                                   :Remarks Line 4
R5   .                                   :Remarks Line 5
R6   .        Tool was run as per tool sketch :Remarks Line 6
R7   .        All logging intervals as per client request :Remarks Line 7
R8   .                                   :Remarks Line 8
TCS  .        20 00 00                   :Time Circulation Stopped
TLAB .        02 17 00                   :Time Logger At Bottom
NMT  .        NOBARITE                   :HRDD Mud Type for Nuclear Devices
EPD  .C3         5536.000000             :Elevation of Permanent Datum above Mean Sea Level
APD  .F          29.500000               :Elevation of Depth Reference (LMF) above Permanent Datum
#-----------------------------------------------------------------------------
~CURVE INFORMATION
#MNEM.UNIT   API CODE                                  DESCRIPTION
#---- -----  --------                                  -----------------------
DEPT .F                                                :DEPTH (BOREHOLE) {F12.4}
AF10 .OHMM                                             :Array Induction Four Foot Resistivity A10 {F11.4}
AF20 .OHMM                                             :Array Induction Four Foot Resistivity A20 {F11.4}
AF30 .OHMM                                             :Array Induction Four Foot Resistivity A30 {F11.4}
AF60 .OHMM                                             :Array Induction Four Foot Resistivity A60 {F11.4}
AF90 .OHMM                                             :Array Induction Four Foot Resistivity A90 {F11.4}
AO10 .OHMM                                             :Array Induction One Foot Resistivity A10 {F11.4}
AO20 .OHMM                                             :Array Induction One Foot Resistivity A20 {F11.4}
AO30 .OHMM                                             :Array Induction One Foot Resistivity A30 {F11.4}
AO60 .OHMM                                             :Array Induction One Foot Resistivity A60 {F11.4}
AO90 .OHMM                                             :Array Induction One Foot Resistivity A90 {F11.4}
AT10 .OHMM                                             :Array Induction Two Foot Resistivity A10 {F11.4}
AT20 .OHMM                                             :Array Induction Two Foot Resistivity A20 {F11.4}
AT30 .OHMM                                             :Array Induction Two Foot Resistivity A30 {F11.4}
AT60 .OHMM                                             :Array Induction Two Foot Resistivity A60 {F11.4}
AT90 .OHMM                                             :Array Induction Two Foot Resistivity A90 {F11.4}
AORT .OHMM                                             :Array Induction One Foot Rt {F11.4}
AORX .OHMM                                             :Array Induction One Foot Rxo {F11.4}
CDF  .LBF                                              :Calibrated Downhole Force {F11.4}
CFTC .HZ                                               :Corrected Far Thermal Count Rate {F11.4}
CNTC .HZ                                               :Corrected Near Thermal Count Rate {F11.4}
CTEM .DEGF                                             :Cartridge Temperature {F11.4}
DCAL .IN                                               :Differential Caliper {F11.4}
DT   .US/F                                             :Delta-T (also called Slowness or Interval Transit Time) {F11.4}
DTCO .US/F                                             :Delta-T Compressional {F11.4}
DTSM .US/F                                             :Delta-T Shear {F11.4}
ED   .F                                                :East Departure {F11.4}
GR_STGC.GAPI                                           :Gamma Ray {F11.4}
GTEM .DEGF                                             :Generalized Borehole Temperature {F11.4}
HGR_STGC.GAPI                                          :High Resolution Gamma Ray {F11.4}
HNPO .CFCF                                             :High Resolution Enhanced Thermal Neutron Porosity in Selected Lithology {F11.4}
HTNP .CFCF                                             :High Resolution Thermal Neutron Porosity (Ratio Method) in Selected Lithology {F11.4}
ITT  .S                                                :Integrated Transit Time {F11.4}
ND   .F                                                :North Departure {F11.4}
NPHI .CFCF                                             :Thermal Neutron Porosity (original Ratio Method) in Selected Lithology {F11.4}
NPOR .CFCF                                             :Enhanced Thermal Neutron Porosity in Selected Lithology {F11.4}
PR   .                                                 :Poisson s Ratio {F11.4}
SP   .MV                                               :Spontaneous Potential {F11.4}
SPAR .MV                                               :SP, Armor Return Compensated {F11.4}
SPHI .CFCF                                             :Sonic Porosity {F11.4}
STIT .F                                                :Stuck Tool Indicator, Total {F11.4}
TENS .LBF                                              :Cable Tension {F11.4}
TNPH .CFCF                                             :Thermal Neutron Porosity (Ratio Method) in Selected Lithology {F11.4}
HTNP_SAN.CFCF                                          :HiRes Thermal Neutron Porosity (matrix Sandstone) {F11.4}
#-----------------------------------------------------------------------------
# 
#      DEPT        AF10       AF20       AF30       AF60       AF90       AO10       AO20       AO30       AO60       AO90       AT10       AT20       AT30       AT60       AT90       AORT       AORX       CDF        CFTC       CNTC       CTEM       DCAL        DT        DTCO       DTSM        ED      GR_STGC      GTEM     HGR_STGC     HNPO       HTNP       ITT         ND        NPHI       NPOR        PR         SP        SPAR       SPHI       STIT       TENS       TNPH     HTNP_SAN
#
~A  
# ...
   8173.5000     0.2948  1950.0000  1950.0000     6.2950    44.1721     0.2808  1950.0000  1950.0000     2.2972     6.1272     0.2725  1950.0000  1950.0000     6.2052    53.4776     2.3258     0.2771 -2049.8127  2267.4919  5303.2168   102.3059     0.0000   120.1953   120.1953    93.1264     0.0000    55.7351   362.0292    55.4293     0.0728     0.0591     0.1955     0.0000     0.0422     0.0931  -999.2500    -6.2500    -5.7637     0.3338     0.0000  2997.0000     0.0722     0.0998
   8174.0000     0.2936  1950.0000  1950.0000     6.4363    43.4285     0.2899  1950.0000  1950.0000     2.4222     7.1457     0.2742  1950.0000  1950.0000     6.3603    54.2267     2.4108     0.2782 -9999.9999  2160.1633  5906.3208   101.1200     0.0000   130.5078   130.5078    92.5726     0.0000    53.4953   362.0566    53.6990     0.0487     0.0661     0.1956     0.0000     0.0283     0.0557  -999.2500    -5.6250    -4.5894     0.3568     0.0000  2999.0000     0.0586     0.1088
   8174.5000     0.2921  1950.0000  1950.0000     6.5613    42.5656     0.2892  1950.0000  1950.0000     2.4938     7.8989     0.2746  1950.0000  1950.0000     6.4890    55.3611     2.5149     0.2785 -9999.9999  2622.0579  5915.5142   100.3294     0.0000   138.6328   138.6328    92.5726     0.0000    53.2417   362.1298    52.9865     0.0630     0.0571     0.1957     0.0000     0.0405     0.0566  -999.2500    -5.0000    -3.9934     0.3725     0.0000  3002.0000     0.0624     0.0974
   8175.0000     0.2904  1950.0000  1950.0000     6.6653    41.7682     0.2756  1950.0000  1950.0000     2.5974     9.1552     0.2740  1950.0000  1950.0000     6.6113    58.8994     2.6335     0.2780  6154.3457  2011.8738  5954.2119   102.3059     0.0000   104.4727   104.4727    91.7499     0.0000    53.4954   362.1207    53.4968     0.0717     0.0711     0.1957     0.0000     0.0367     0.0590  -999.2500    -3.4375    -3.3936     0.2900     0.0000  3005.0000     0.0630     0.1151
   8175.5000     0.2888  1950.0000  1950.0000     6.7456    41.1135     0.2649  1950.0000  1950.0000     2.7925    12.1925     0.2736  1950.0000  1950.0000     6.7422    67.6029     2.7600     0.2776 10256.5313  2242.7446  5705.2661   101.9106     0.0000   105.0000   105.0000    95.0251     0.0000    55.7353   362.1115    54.2586     0.0751     0.0712     0.1958     0.0000     0.0466     0.0804  -999.2500    -1.8750    -2.0037     0.2917     0.0000  3008.0000     0.0758     0.1153
   8176.0000     0.2874  1950.0000  1950.0000     6.7973    40.5705     0.2698  1950.0000  1950.0000     2.9999    17.1363     0.2743  1950.0000  1950.0000     6.8659    83.8170     2.8840     0.2776  5129.0654  2094.3481  5743.5557   100.3294     0.0000   107.7344   107.7344    95.0251     0.0000    55.5798   362.1161    57.2106     0.0748     0.0750     0.1958     0.0000     0.0515     0.0816  -999.2500    -1.2500    -1.4879     0.3001     0.0000  3001.0000     0.0801     0.1201
   8176.5000     0.2862  1950.0000  1950.0000     6.8142    40.0733     0.2837  1950.0000  1950.0000     3.1392    21.8572     0.2756  1950.0000  1950.0000     6.9381   107.0261     2.9934     0.2782 -9999.9999  1813.9272  5801.0483   100.3294     0.0000   101.4844   101.4844    94.8153     0.0000    52.7112   362.1207    53.7948     0.0977     0.0988     0.1959     0.0000     0.0625     0.0887  -999.2500     0.0000    -1.0549     0.2801     0.0000  3008.0000     0.0909     0.1496
   8177.0000     0.2849  1950.0000  1950.0000     6.7953    39.6088     0.2891  1950.0000  1950.0000     3.2023    23.9636     0.2768  1950.0000  1950.0000     6.9208   128.1078     3.0772     0.2788 -9999.9999  1863.4752  5705.0972   100.3294     0.0000    98.9844    98.9844    92.5140     0.0000    48.2804   362.1527    45.6515     0.1104     0.1104     0.1959     0.0000     0.0582     0.0938  -999.2500     0.0000    -0.7264     0.2714     0.0000  3011.0000     0.0882     0.1636
   8177.5000     0.2838  1950.0000  1950.0000     6.7513    39.2491     0.2828  1950.0000  1950.0000     3.2107    23.9176     0.2771  1950.0000  1950.0000     6.8255   135.6904     3.1312     0.2791     1.4226  2275.5920  5781.9033   100.3294     0.0000    88.8086    88.8086    92.5140     0.0000    46.1411   362.2121    45.0385     0.0842     0.0827     0.1960     0.0000     0.0550     0.0859  -999.2500     0.0000    -0.2591     0.2309     0.0000  3009.0000     0.0825     0.1297
   8178.0000     0.2829  1950.0000  1950.0000     6.7034    39.1055     0.2751  1950.0000  1950.0000     3.1981    23.6160     0.2770  1950.0000  1950.0000     6.7134   135.2759     3.1589     0.2796 10256.2471  2028.3645  6183.5313   100.3294     0.0000    76.2305    76.2305    91.6810     0.0000    48.5862   362.1481    46.7680     0.0862     0.0800     0.1960     0.0000     0.0536     0.0620  -999.2500     0.0000    -0.1825     0.1659     0.0000  3011.0000     0.0768     0.1263
   8178.5000     0.2825  1950.0000  1950.0000     6.6751    39.2447     0.2714  1950.0000  1950.0000     3.1932    23.6707     0.2776  1950.0000  1950.0000     6.6536   141.2829     3.1697     0.2808 10255.8203  1962.4015  5877.5728   101.9106     0.0000    74.5117    74.5117    90.6392     0.0000    50.2669   362.1939    49.2470     0.0984     0.0935     0.1960     0.0000     0.0487     0.0766  -999.2500     0.0000    -0.2400     0.1553     0.0000  3004.0000     0.0776     0.1432
   8179.0000     0.2830  1950.0000  1950.0000     6.6827    39.6312     0.2740  1950.0000  1950.0000     3.1631    21.4070     0.2803  1950.0000  1950.0000     6.6795   165.2684     3.1750     0.2836 -9999.9999  2325.2212  5360.6523   102.3059     0.0000    92.4219    92.4219    90.6392     0.0000    50.2686   362.1710    51.2868     0.0705     0.0570     0.1961     0.0000     0.0432     0.0948  -999.2500    -0.6250    -0.7558     0.2463     0.0000  3011.0000     0.0741     0.0972
   8179.5000     0.2842  1950.0000  1950.0000     6.7299    40.1291     0.2834  1950.0000  1950.0000     3.0980    17.0430     0.2852  1950.0000  1950.0000     6.7763   219.6781     3.1838     0.2882 -9999.9999  2176.7188  6049.9385   100.3294     0.0000   111.8359   111.8359    90.2963     0.0000    48.1452   362.1847    48.4005     0.0660     0.0717     0.1961     0.0000     0.0360     0.0560  -999.2500    -1.2500    -1.0606     0.3120     0.0000  3018.0002     0.0652     0.1159
   8180.0000     0.2861  1950.0000  1950.0000     6.8093    40.5638     0.2949  1950.0000  1950.0000     3.1104    14.5028     0.2918  1950.0000  1950.0000     6.9026   331.5786     3.1994     0.2940 -6151.7856  2226.2756  5877.4014   100.7247     0.0000   116.3086   116.3086    91.5323     0.0000    47.6357   362.2442    46.8718     0.0733     0.0749     0.1962     0.0000     0.0393     0.0602  -999.2500    -1.5625    -1.4649     0.3241     0.0000  3019.0002     0.0639     0.1199
   8180.5000     0.2882  1950.0000  1950.0000     6.9070    40.8081     0.3050  1950.0000  1950.0000     3.2408    14.2872     0.2992  1950.0000  1950.0000     7.0163   549.3443     3.2168     0.3003 10255.9619  2358.1799  5820.1938   102.3059     0.0000   111.1230   111.1230    91.5323     0.0000    49.1624   362.2076    48.9081     0.0608     0.0605     0.1962     0.0000     0.0353     0.0643  -999.2500    -2.5000    -1.9443     0.3100     0.0000  3015.0000     0.0638     0.1017
   8181.0000     0.2904  1950.0000  1950.0000     7.0095    40.8347     0.3143  1950.0000  1950.0000     3.3491    14.8266     0.3060  1950.0000  1950.0000     7.1047   921.0948     3.2233     0.3059 10256.1758  2242.7446  5781.8462   102.3059     0.0000   101.1816   101.1816    93.4080     0.0000    50.7402   362.2258    51.9626     0.0630     0.0625     0.1963     0.0000     0.0281     0.0616  -999.2500    -3.1250    -2.8119     0.2791     0.0000  3011.0000     0.0589     0.1042
   8181.5000     0.2922  1950.0000  1950.0000     7.1062    40.6934     0.3198  1950.0000  1950.0000     3.3539    14.9497     0.3110  1950.0000  1950.0000     7.1893  1393.3322     3.2029     0.3098  4102.4702  2473.6396  5628.6851   101.1200     0.0000    96.2109    96.2109    90.4188     0.0000    52.3708   362.2487    51.6220     0.0544     0.0521     0.1963     0.0000     0.0230     0.0603  -999.2500    -3.1250    -3.3515     0.2612     0.0000  3004.0000     0.0507     0.0909
