~VERSION INFORMATION
VERS.           1.2   :CWLS Log ASCII Standard - VERSION 1.2
WRAP.           NO    :One Line per depth step
PROD.  Schlumberger   :LAS Producer
PROG.  DLIS to ASCII 2.3                               :LAS Program name and version
CREA.        2021/07/30 13:36                          :LAS Creation date {YYYY/MM/DD hh:mm}
DLIS_CREA.  2021-Jul-30 07:07                          :DLIS Creation date and time {YYYY-MMM-DD hh:mm}
SOURCE.     dc707e3c-4962-4d77-8314-dc20fe7b42b8       :DLIS File Name
#--------------------------------------------------
~WELL INFORMATION
#MNEM.UNIT      DATA             DESCRIPTION
#---- ------ --------------   -----------------------------
STRT .F        8616.5000     :START DEPTH     
STOP .F        9518.5000     :STOP DEPTH     
STEP .F           0.5000       :STEP     
NULL .          -999.25      :NULL VALUE
COMP .                 COMPANY:  University Of Utah                 
WELL .                    WELL:  FORGE 78B-32                       
FLD  .                   FIELD:  None                               
LOC  .                LOCATION:  Lat: 38.500171, Long: -112.88221   
CNTY .                  COUNTY:  Beaver                             
STAT .                   STATE:  Utah                               
CTRY .                 COUNTRY:                                     
SRVC .         SERVICE COMPANY:  Schlumberger                       
LATI .DEG             LATITUDE:  38 30' 0.616" N                   
LONG .DEG            LONGITUDE:  112 52' 55.956" W                 
API  .              API NUMBER:  NRC 42-00090-03                    
DATE .                LOG DATE:  30-Jul-2021
UWI  .          UNIQUE WELL ID:                                     
#-----------------------------------------------------------------------------
~PARAMETER INFORMATION
#MNEM.UNIT    VALUE                      DESCRIPTION
#---- -----   --------------------       ------------------------
CN   .        University Of Utah         :Company Name
WN   .        FORGE 78B-32               :Well Name
FN   .        None                       :Field Name
FL   .        Lat  38.500171  Long  -112.88221 :Field Location
FL1  .                                   :Field Location, Line 1
COUN .        Beaver                     :County or Parish
STAT .        Utah                       :State or Province
NATI .                                   :Nation
DATE .        30-Jul-2021                :Tools Above Rotary Table Date
APIN .        NRC 42-00090-03            :API Well Number
SECT .                                   :Section
TOWN .                                   :Township
RANG .                                   :Range
DMF  .        KB                         :Drilling Measured From (Name of Drilling Elevation Reference)
LMF  .        KB                         :Logging Measured From (Name of Logging Elevation Reference)
PDAT .        GL                         :Permanent Datum
ENGI .        CSTILES                    :Engineer s Name
WITN .        Virgil  Welch              :Witness s Name
LATI .        38� 30' 0.616  N           :Latitude
LONG .        112� 52' 55.956  W         :Longitude
LUL  .        F.Morgan                   :Logging Unit Location
LUN  .        9108                       :Logging Unit Number
RUN  .        1B                         :Run Number
SON  .                                   :Service Order Number
BHT  .DEGF     419.00000                 :Bottom Hole Temperature
BS   .IN         5.75000                 :Bit Size
MDEN .G/C3       2.71000                 :Matrix Density for Density Porosity
DFD  .LB/G       8.30000                 :Drilling Fluid Density
DFV  .S         24.00000                 :Drilling Fluid Viscosity
DFL  .C3      -999.25000                 :Drilling Fluid Loss
RMFS .OHMM       4.42000                 :Resistivity of Mud Filtrate Sample
EKB  .F       5565.50000                 :Elevation of Kelly Bushing
EGL  .F       5536.00000                 :Elevation of Ground Level
BLI  .F       9532.00000                 :Bottom Log Interval
BSAL .PPM      700.00000                 :Borehole Salinity
FLEV .F          8.00000                 :Depth of Drilling Fluid Level to LMF (Log Measured From)
MCST .DEGF      62.00000                 :Mudcake Sample Temperature
MFST .DEGF      62.00000                 :Mud Filtrate Sample Temperature
MRT  .DEGF     419.00000                 :Maximum Recorded Temperature
MST  .DEGF      62.00000                 :Mud Sample Temperature
RMCS .OHMM       6.21000                 :Resistivity of Mud Cake Sample
RMS  .OHMM       5.20000                 :Resistivity of Mud Sample
RW   .OHMM       1.00000                 :Connate Water Resistivity
TDD  .F       9500.00000                 :Driller Total Depth
TDL  .F       9532.00000                 :Logger Total Depth
TLI  .F       8530.00000                 :Top Log Interval
HIDE .                                   :Header Identifier
MATR .        LIME                       :Rock Matrix for Neutron Porosity Corrections
FNUM .           1.00000                 :F-Numerator for Formation Factor Formula
FEXP .           2.00000                 :Exponent "m" for Formation Factor Formula
DFT  .        WATER                      :Drilling Fluid Type
DFPH .          11.00000                 :Drilling Fluid pH
MCSS .        Calculated                 :Mudcake Sample Source
MFSS .        Calculated                 :Mud Filtrate Sample Source
FD   .G/C3       1.00000                 :Fluid Density
MSS  .        Flowline                   :Mud Sample Source
OS1  .                                   :Other Services Line 1
OS2  .                                   :Other Services Line 2
OS3  .                                   :Other Services Line 3
OS4  .                                   :Other Services Line 4
OS5  .                                   :Other Services Line 5
R1   .                                   :Remarks Line 1
R2   .                                   :Remarks Line 2
R3   .                                   :Remarks Line 3
R4   .                                   :Remarks Line 4
R5   .                                   :Remarks Line 5
R6   .        Tool was run as per tool sketch :Remarks Line 6
R7   .        All logging intervals as per client request :Remarks Line 7
R8   .                                   :Remarks Line 8
TCS  .        20 00 00                   :Time Circulation Stopped
TLAB .        02 17 00                   :Time Logger At Bottom
NMT  .        NOBARITE                   :HRDD Mud Type for Nuclear Devices
EPD  .C3         5536.000000             :Elevation of Permanent Datum above Mean Sea Level
APD  .F          29.500000               :Elevation of Depth Reference (LMF) above Permanent Datum
#-----------------------------------------------------------------------------
~CURVE INFORMATION
#MNEM.UNIT   API CODE                                  DESCRIPTION
#---- -----  --------                                  -----------------------
DEPT .F                                                :DEPTH (BOREHOLE) {F12.4}
AF10 .OHMM                                             :Array Induction Four Foot Resistivity A10 {F11.4}
AF20 .OHMM                                             :Array Induction Four Foot Resistivity A20 {F11.4}
AF30 .OHMM                                             :Array Induction Four Foot Resistivity A30 {F11.4}
AF60 .OHMM                                             :Array Induction Four Foot Resistivity A60 {F11.4}
AF90 .OHMM                                             :Array Induction Four Foot Resistivity A90 {F11.4}
AO10 .OHMM                                             :Array Induction One Foot Resistivity A10 {F11.4}
AO20 .OHMM                                             :Array Induction One Foot Resistivity A20 {F11.4}
AO30 .OHMM                                             :Array Induction One Foot Resistivity A30 {F11.4}
AO60 .OHMM                                             :Array Induction One Foot Resistivity A60 {F11.4}
AO90 .OHMM                                             :Array Induction One Foot Resistivity A90 {F11.4}
AT10 .OHMM                                             :Array Induction Two Foot Resistivity A10 {F11.4}
AT20 .OHMM                                             :Array Induction Two Foot Resistivity A20 {F11.4}
AT30 .OHMM                                             :Array Induction Two Foot Resistivity A30 {F11.4}
AT60 .OHMM                                             :Array Induction Two Foot Resistivity A60 {F11.4}
AT90 .OHMM                                             :Array Induction Two Foot Resistivity A90 {F11.4}
AORT .OHMM                                             :Array Induction One Foot Rt {F11.4}
AORX .OHMM                                             :Array Induction One Foot Rxo {F11.4}
CDF  .LBF                                              :Calibrated Downhole Force {F11.4}
CFTC .HZ                                               :Corrected Far Thermal Count Rate {F11.4}
CNTC .HZ                                               :Corrected Near Thermal Count Rate {F11.4}
CTEM .DEGF                                             :Cartridge Temperature {F11.4}
DCAL .IN                                               :Differential Caliper {F11.4}
DT   .US/F                                             :Delta-T (also called Slowness or Interval Transit Time) {F11.4}
DTCO .US/F                                             :Delta-T Compressional {F11.4}
DTSM .US/F                                             :Delta-T Shear {F11.4}
ED   .F                                                :East Departure {F11.4}
GR_STGC.GAPI                                           :Gamma Ray {F11.4}
GTEM .DEGF                                             :Generalized Borehole Temperature {F11.4}
HGR_STGC.GAPI                                          :High Resolution Gamma Ray {F11.4}
HNPO .CFCF                                             :High Resolution Enhanced Thermal Neutron Porosity in Selected Lithology {F11.4}
HTNP .CFCF                                             :High Resolution Thermal Neutron Porosity (Ratio Method) in Selected Lithology {F11.4}
ITT  .S                                                :Integrated Transit Time {F11.4}
ND   .F                                                :North Departure {F11.4}
NPHI .CFCF                                             :Thermal Neutron Porosity (original Ratio Method) in Selected Lithology {F11.4}
NPOR .CFCF                                             :Enhanced Thermal Neutron Porosity in Selected Lithology {F11.4}
PR   .                                                 :Poisson s Ratio {F11.4}
SP   .MV                                               :Spontaneous Potential {F11.4}
SPAR .MV                                               :SP, Armor Return Compensated {F11.4}
SPHI .CFCF                                             :Sonic Porosity {F11.4}
STIT .F                                                :Stuck Tool Indicator, Total {F11.4}
TENS .LBF                                              :Cable Tension {F11.4}
TNPH .CFCF                                             :Thermal Neutron Porosity (Ratio Method) in Selected Lithology {F11.4}
HTNP_SAN.CFCF                                          :HiRes Thermal Neutron Porosity (matrix Sandstone) {F11.4}
#-----------------------------------------------------------------------------
# 
#      DEPT        AF10       AF20       AF30       AF60       AF90       AO10       AO20       AO30       AO60       AO90       AT10       AT20       AT30       AT60       AT90       AORT       AORX       CDF        CFTC       CNTC       CTEM       DCAL        DT        DTCO       DTSM        ED      GR_STGC      GTEM     HGR_STGC     HNPO       HTNP       ITT         ND        NPHI       NPOR        PR         SP        SPAR       SPHI       STIT       TENS       TNPH     HTNP_SAN
#
~A  
# ...
   8854.5000  1950.0000    70.9266   830.3356   368.5022   216.6317  1950.0000   193.1669   355.6346   198.4453   180.9273  1950.0000    99.2446   624.2780   306.6680   163.7176   198.4453   368.6151 -9721.6221  9350.0400 14952.3906   116.1412     0.0000    99.5996    99.5996    93.5151     0.0000    52.5596   396.4600    54.2559     0.0368     0.0284     0.0177     0.0000     0.0329     0.0404  -999.2500    25.6250    24.9468     0.2736     0.0000  3185.0000     0.0300     0.0609
   8855.0000  1950.0000    67.3042  1073.3783   505.6529   260.7954   612.6073    77.6297   199.8592   610.2888   546.5295  1950.0000    81.1904   654.0872   346.6173   174.7667   478.0929   488.2811 -9752.7871  9613.5518 16608.0449   116.1412     0.0000   110.5078   110.5078    93.2778     0.0000    54.4949   396.4645    52.9824     0.0280     0.0312     0.0178     0.0000     0.0311     0.0215  -999.2500    25.6250    25.0240     0.3083     0.0000  3180.0000     0.0303     0.0644
   8855.5000  1950.0000    62.7812  1356.0350   757.5576   338.9726   176.5093    37.9479    95.2511   456.2602   397.8914  1950.0000    66.2358   919.0491   544.3588   183.5956   456.2602   239.0904 -9759.7197  9308.7773 15755.5596   116.1412     0.0000   106.2402   106.2402    92.5787     0.0000    56.4061   396.5197    55.1585     0.0375     0.0317     0.0178     0.0000     0.0352     0.0339  -999.2500    25.3125    25.1368     0.2956     0.0000  3185.0000     0.0310     0.0650
   8856.0000  1950.0000    59.9141  1647.1471  1124.5363   473.3993    73.0318    31.1645    75.3833   622.7971   535.6265  1950.0000    58.6969  1313.6584   915.3835   279.6807   622.7971   191.8257 -9698.9033  9185.4482 16598.3691   116.1412     0.0000   106.2402   106.2402    91.7464     0.0000    58.6138   396.5059    60.1173     0.0450     0.0385     0.0179     0.0000     0.0354     0.0273  -999.2500    25.0000    25.1971     0.2956     0.0000  3173.0000     0.0340     0.0736
   8856.5000  1620.8442    58.7070  1851.4905  1525.1166   666.1364   171.0776    47.2988   157.4280   912.8561   801.6701  1778.0952    57.2230  1675.4633  1389.7512   438.3847   912.8561   180.3794 -9689.8643  9143.8691 15871.5156   116.1412     0.0000   108.5840   108.5840    91.5818     0.0000    60.3795   396.5290    59.6059     0.0472     0.0375     0.0179     0.0000     0.0348     0.0349  -999.2500    25.0000    25.2830     0.3027     0.0000  3170.0000     0.0330     0.0723
   8857.0000  1133.6869    59.1838  1950.0000  1818.0858   850.4307   291.3352    61.4858   306.6010  1317.3690  1211.8342  1198.5927    60.4015  1905.5194  1796.5673   683.2899  1317.3690   180.8432 -9808.7197  9399.8311 15622.0410   116.1412     0.0000   104.1504   104.1504    91.5432     0.0000    59.7433   396.5565    61.6785     0.0185     0.0307     0.0180     0.0000     0.0353     0.0379  -999.2500    25.0000    25.3344     0.2889     0.0000  3161.5000     0.0338     0.0637
   8857.5000   742.6907    60.9975  1950.0000  1950.0000   864.9197   271.7719    69.3031   616.1682  1732.9536  1675.8599   824.9074    67.2019  1950.0000  1950.0000  1069.1296  1732.9536   191.2733 -9834.6543  8838.8037 16196.9873   116.1412     0.0000    98.5547    98.5547    91.8327     0.0000    59.2179   396.5750    59.0998     0.0236     0.0350     0.0180     0.0000  -999.2500     0.0264  -999.2500    25.0000    25.3869     0.2699     0.0000  3163.0002     0.0325     0.0692
   8858.0000   478.0888    63.5796  1950.0000  1950.0000   687.6074   236.0442    83.8574  1093.0115  1936.4930  1907.8009   565.8767    76.0981  1950.0000  1950.0000  1467.4246  1936.4930   193.8470 -9710.7197  9016.0884 15296.5576   116.1412     0.0000   100.0195   100.0195    92.2708     0.0000    58.3193   396.5888    57.5366     0.0339     0.0288     0.0181     0.0000  -999.2500     0.0388  -999.2500    25.6250    25.5205     0.2751     0.0000  3176.5000     0.0334     0.0614
   8858.5000   319.5138    66.2283  1950.0000  1950.0000   471.9803   226.9710   108.4899  1367.1300  1950.0000  1910.3105   393.7919    84.3290  1950.0000  1950.0000  1771.9901  1950.0000   184.8904 -9708.5020  9193.3730 15449.7422   116.1412     0.0000    95.3711    95.3711    92.2708     0.0000    59.7440   396.6141    59.0676     0.0300     0.0291     0.0181     0.0000  -999.2500     0.0334  -999.2500    25.6250    25.5867     0.2580     0.0000  3206.5000     0.0332     0.0617
   8859.0000   229.3075    68.2486  1950.0000  1950.0000   328.6923   213.1886   121.2025  1435.1090  1945.6356  1780.3312   286.2684    88.7461  1950.0000  1950.0000  1930.3820  1945.6356   168.7020 -9862.5186  8855.5430 15602.9268   116.1412     0.0000    85.0488    85.0488    92.4540     0.0000    61.3236   396.6210    62.2189     0.0402     0.0328     0.0182     0.0000     0.0332     0.0280  -999.2500    25.6250    25.7414     0.2135     0.0000  3199.0000     0.0298     0.0664
   8859.5000   179.0059    69.1098  1950.0000  1950.0000   232.8537   167.7150   105.4194   978.7893  1834.6628  1430.6606   221.9726    88.1160  1950.0000  1950.0000  1950.0000  1834.6628   152.2880 -9841.8154  9448.9746 15622.4727   116.1412     0.0000    83.0957    83.0957    92.7572     0.0000    62.3424   396.6486    62.7667     0.0300     0.0282     0.0182     0.0000     0.0327     0.0297  -999.2500    25.6250    25.8323     0.2038     0.0000  3199.9998     0.0307     0.0606
   8860.0000   152.6339    68.5029  1950.0000  1950.0000   172.2065   122.8156    81.2590   709.1200  1755.2042  1225.0736   186.9756    83.7977  1950.0000  1950.0000  1950.0000  1755.2042   141.5580 -9700.1738  9126.6563 15363.6367   116.1412     0.0000    82.2656    82.2656    93.0272     0.0000    61.5442   396.6762    61.9041     0.0306     0.0290     0.0182     0.0000     0.0325     0.0323  -999.2500    25.6250    25.9369     0.1995     0.0000  3215.0000     0.0302     0.0616
   8860.5000   142.4629    66.3012  1950.0000  1950.0000   146.1683    89.0782    71.2284   571.9512  1754.0483  1208.1404   173.7761    77.9827  1950.0000  1950.0000  1950.0000  1754.0483   139.1938 -9698.1582  8904.7617 15615.7510   116.1412     0.0000    78.6719    78.6719    94.6650     0.0000    60.1830   396.6624    59.8424     0.0343     0.0352     0.0183     0.0000     0.0320     0.0334  -999.2500    25.6250    26.1176     0.1801     0.0000  3216.5000     0.0319     0.0694
   8861.0000   146.0992    62.5383  1950.0000  1950.0000   134.4874   114.1388    72.9771   764.4791  1831.7372  1318.8250   181.8109    71.7352  1749.6312  1950.0000  1950.0000  1831.7372   147.9366 -9860.0977  9448.7471 15363.5508   116.1412     0.0000    71.4844    71.4844    94.2670     0.0000    59.1117   396.6716    59.2279     0.0236     0.0270     0.0183     0.0000     0.0330     0.0379  -999.2500    26.2500    26.2460     0.1354     0.0000  3220.0000     0.0309     0.0590
   8861.5000   165.5531    57.4457  1845.8843  1882.7268   138.4199   155.7091    72.3885   966.1469  1929.1394  1417.5585   221.0863    65.0323  1270.6260  1776.2167  1723.1426  1929.1394   171.6317 -9833.3672  9597.6270 16655.4941   116.1412     0.0000    74.9902    74.9902    92.6121     0.0000    59.2500   396.7268    58.6890     0.0195     0.0284     0.0184     0.0000     0.0332     0.0210  -999.2500    26.2500    26.3827     0.1583     0.0000  3217.0002     0.0303     0.0609
   8862.0000   208.8181    51.6045  1653.9825  1472.3993   151.1410   220.0485    63.1900   901.8274  1950.0000  1363.1927   303.6930    57.8550   780.4166  1092.9525  1163.2401  1950.0000   218.5049 -9682.3984  9242.8496 16282.9805   116.1412     0.0000    89.8730    89.8730    92.6121     0.0000    61.0084   396.7314    59.8148     0.0358     0.0338     0.0184     0.0000     0.0344     0.0269  -999.2500    26.8750    26.5498     0.2356     0.0000  3213.0002     0.0309     0.0677
   8862.5000   294.6021    45.8535  1386.9457   898.7553   179.6675   388.5466    52.7015   544.7844  1804.6764  1246.0366   662.6447    50.6722   441.2962   526.7783   651.5678  1804.6764   306.7429 -9704.7949  9366.2051 15842.2549   116.1412     0.0000    97.6563    97.6563    93.4899     0.0000    63.1800   396.7452    63.2721     0.0347     0.0318     0.0184     0.0000     0.0347     0.0379  -999.2500    26.8750    26.6933     0.2666     0.0000  3207.0002     0.0341     0.0651
