~VERSION INFORMATION
VERS.           1.2   :CWLS Log ASCII Standard - VERSION 1.2
WRAP.           NO    :One Line per depth step
PROD.  Schlumberger   :LAS Producer
PROG.  DLIS to ASCII 2.3                               :LAS Program name and version
CREA.        2021/07/30 13:36                          :LAS Creation date {YYYY/MM/DD hh:mm}
DLIS_CREA.  2021-Jul-30 07:08                          :DLIS Creation date and time {YYYY-MMM-DD hh:mm}
SOURCE.     6d1d3df9-7549-4232-acfc-119b5b71a716       :DLIS File Name
#--------------------------------------------------
~WELL INFORMATION
#MNEM.UNIT      DATA             DESCRIPTION
#---- ------ --------------   -----------------------------
STRT .F      7447.0000       :START DEPTH     
STOP .F      9553.0000       :STOP DEPTH     
STEP .F       0.5000         :STEP       
NULL .          -999.25      :NULL VALUE
COMP .                 COMPANY:  University Of Utah                 
WELL .                    WELL:  FORGE 78B-32                       
FLD  .                   FIELD:  None                               
LOC  .                LOCATION:  Lat: 38.500171, Long: -112.88221   
CNTY .                  COUNTY:  Beaver                             
STAT .                   STATE:  Utah                               
CTRY .                 COUNTRY:                                     
SRVC .         SERVICE COMPANY:  Schlumberger                       
LATI .DEG             LATITUDE:  38 30' 0.616" N                   
LONG .DEG            LONGITUDE:  112 52' 55.956" W                 
API  .              API NUMBER:  NRC 42-00090-03                    
DATE .                LOG DATE:  30-Jul-2021
UWI  .          UNIQUE WELL ID:                                     
#-----------------------------------------------------------------------------
~PARAMETER INFORMATION
#MNEM.UNIT    VALUE                      DESCRIPTION
#---- -----   --------------------       ------------------------
CN   .        University Of Utah         :Company Name
WN   .        FORGE 78B-32               :Well Name
FN   .        None                       :Field Name
FL   .        Lat  38.500171  Long  -112.88221 :Field Location
FL1  .                                   :Field Location, Line 1
COUN .        Beaver                     :County or Parish
STAT .        Utah                       :State or Province
NATI .                                   :Nation
DATE .        30-Jul-2021                :Tools Above Rotary Table Date
APIN .        NRC 42-00090-03            :API Well Number
SECT .                                   :Section
TOWN .                                   :Township
RANG .                                   :Range
DMF  .        KB                         :Drilling Measured From (Name of Drilling Elevation Reference)
LMF  .        KB                         :Logging Measured From (Name of Logging Elevation Reference)
PDAT .        GL                         :Permanent Datum
ENGI .        CSTILES                    :Engineer s Name
WITN .        Virgil  Welch              :Witness s Name
LATI .        38� 30' 0.616  N           :Latitude
LONG .        112� 52' 55.956  W         :Longitude
LUL  .        F.Morgan                   :Logging Unit Location
LUN  .        9108                       :Logging Unit Number
RUN  .        1B                         :Run Number
SON  .                                   :Service Order Number
BHT  .DEGF     419.00000                 :Bottom Hole Temperature
BS   .IN         5.75000                 :Bit Size
MDEN .G/C3       2.71000                 :Matrix Density for Density Porosity
DFD  .LB/G       8.30000                 :Drilling Fluid Density
DFV  .S         24.00000                 :Drilling Fluid Viscosity
DFL  .C3      -999.25000                 :Drilling Fluid Loss
RMFS .OHMM       4.42000                 :Resistivity of Mud Filtrate Sample
EKB  .F       5565.50000                 :Elevation of Kelly Bushing
EGL  .F       5536.00000                 :Elevation of Ground Level
BLI  .F       9532.00000                 :Bottom Log Interval
BSAL .PPM      700.00000                 :Borehole Salinity
FLEV .F          8.00000                 :Depth of Drilling Fluid Level to LMF (Log Measured From)
MCST .DEGF      62.00000                 :Mudcake Sample Temperature
MFST .DEGF      62.00000                 :Mud Filtrate Sample Temperature
MRT  .DEGF     419.00000                 :Maximum Recorded Temperature
MST  .DEGF      62.00000                 :Mud Sample Temperature
RMCS .OHMM       6.21000                 :Resistivity of Mud Cake Sample
RMS  .OHMM       5.20000                 :Resistivity of Mud Sample
RW   .OHMM       1.00000                 :Connate Water Resistivity
TDD  .F       9500.00000                 :Driller Total Depth
TDL  .F       9532.00000                 :Logger Total Depth
TLI  .F       8530.00000                 :Top Log Interval
HIDE .                                   :Header Identifier
MATR .        LIME                       :Rock Matrix for Neutron Porosity Corrections
FNUM .           1.00000                 :F-Numerator for Formation Factor Formula
FEXP .           2.00000                 :Exponent "m" for Formation Factor Formula
DFT  .        WATER                      :Drilling Fluid Type
DFPH .          11.00000                 :Drilling Fluid pH
MCSS .        Calculated                 :Mudcake Sample Source
MFSS .        Calculated                 :Mud Filtrate Sample Source
FD   .G/C3       1.00000                 :Fluid Density
MSS  .        Flowline                   :Mud Sample Source
OS1  .                                   :Other Services Line 1
OS2  .                                   :Other Services Line 2
OS3  .                                   :Other Services Line 3
OS4  .                                   :Other Services Line 4
OS5  .                                   :Other Services Line 5
R1   .                                   :Remarks Line 1
R2   .                                   :Remarks Line 2
R3   .                                   :Remarks Line 3
R4   .                                   :Remarks Line 4
R5   .                                   :Remarks Line 5
R6   .        Tool was run as per tool sketch :Remarks Line 6
R7   .        All logging intervals as per client request :Remarks Line 7
R8   .                                   :Remarks Line 8
TCS  .        20 00 00                   :Time Circulation Stopped
TLAB .        02 17 00                   :Time Logger At Bottom
NMT  .        NOBARITE                   :HRDD Mud Type for Nuclear Devices
EPD  .C3         5536.000000             :Elevation of Permanent Datum above Mean Sea Level
APD  .F          29.500000               :Elevation of Depth Reference (LMF) above Permanent Datum
#-----------------------------------------------------------------------------
~CURVE INFORMATION
#MNEM.UNIT   API CODE                                  DESCRIPTION
#---- -----  --------                                  -----------------------
DEPT .F                                                :DEPTH (BOREHOLE) {F12.4}
AF10 .OHMM                                             :Array Induction Four Foot Resistivity A10 {F11.4}
AF20 .OHMM                                             :Array Induction Four Foot Resistivity A20 {F11.4}
AF30 .OHMM                                             :Array Induction Four Foot Resistivity A30 {F11.4}
AF60 .OHMM                                             :Array Induction Four Foot Resistivity A60 {F11.4}
AF90 .OHMM                                             :Array Induction Four Foot Resistivity A90 {F11.4}
AO10 .OHMM                                             :Array Induction One Foot Resistivity A10 {F11.4}
AO20 .OHMM                                             :Array Induction One Foot Resistivity A20 {F11.4}
AO30 .OHMM                                             :Array Induction One Foot Resistivity A30 {F11.4}
AO60 .OHMM                                             :Array Induction One Foot Resistivity A60 {F11.4}
AO90 .OHMM                                             :Array Induction One Foot Resistivity A90 {F11.4}
AT10 .OHMM                                             :Array Induction Two Foot Resistivity A10 {F11.4}
AT20 .OHMM                                             :Array Induction Two Foot Resistivity A20 {F11.4}
AT30 .OHMM                                             :Array Induction Two Foot Resistivity A30 {F11.4}
AT60 .OHMM                                             :Array Induction Two Foot Resistivity A60 {F11.4}
AT90 .OHMM                                             :Array Induction Two Foot Resistivity A90 {F11.4}
AORT .OHMM                                             :Array Induction One Foot Rt {F11.4}
AORX .OHMM                                             :Array Induction One Foot Rxo {F11.4}
CDF  .LBF                                              :Calibrated Downhole Force {F11.4}
CFTC .HZ                                               :Corrected Far Thermal Count Rate {F11.4}
CNTC .HZ                                               :Corrected Near Thermal Count Rate {F11.4}
CTEM .DEGF                                             :Cartridge Temperature {F11.4}
DCAL .IN                                               :Differential Caliper {F11.4}
DT   .US/F                                             :Delta-T (also called Slowness or Interval Transit Time) {F11.4}
DTCO .US/F                                             :Delta-T Compressional {F11.4}
DTSM .US/F                                             :Delta-T Shear {F11.4}
ED   .F                                                :East Departure {F11.4}
GR_STGC.GAPI                                           :Gamma Ray {F11.4}
GTEM .DEGF                                             :Generalized Borehole Temperature {F11.4}
HGR_STGC.GAPI                                          :High Resolution Gamma Ray {F11.4}
HNPO .CFCF                                             :High Resolution Enhanced Thermal Neutron Porosity in Selected Lithology {F11.4}
HTNP .CFCF                                             :High Resolution Thermal Neutron Porosity (Ratio Method) in Selected Lithology {F11.4}
ITT  .S                                                :Integrated Transit Time {F11.4}
ND   .F                                                :North Departure {F11.4}
NPHI .CFCF                                             :Thermal Neutron Porosity (original Ratio Method) in Selected Lithology {F11.4}
NPOR .CFCF                                             :Enhanced Thermal Neutron Porosity in Selected Lithology {F11.4}
PR   .                                                 :Poisson s Ratio {F11.4}
SP   .MV                                               :Spontaneous Potential {F11.4}
SPAR .MV                                               :SP, Armor Return Compensated {F11.4}
SPHI .CFCF                                             :Sonic Porosity {F11.4}
STIT .F                                                :Stuck Tool Indicator, Total {F11.4}
TENS .LBF                                              :Cable Tension {F11.4}
TNPH .CFCF                                             :Thermal Neutron Porosity (Ratio Method) in Selected Lithology {F11.4}
HTNP_SAN.CFCF                                          :HiRes Thermal Neutron Porosity (matrix Sandstone) {F11.4}
#-----------------------------------------------------------------------------
# 
#      DEPT        AF10       AF20       AF30       AF60       AF90       AO10       AO20       AO30       AO60       AO90       AT10       AT20       AT30       AT60       AT90       AORT       AORX       CDF        CFTC       CNTC       CTEM       DCAL        DT        DTCO       DTSM        ED      GR_STGC      GTEM     HGR_STGC     HNPO       HTNP       ITT         ND        NPHI       NPOR        PR         SP        SPAR       SPHI       STIT       TENS       TNPH     HTNP_SAN
#
~A  
# ...
   8288.5000     0.2824  1950.0000  1950.0000     5.5953    32.9649     0.2555  1950.0000  1950.0000     1.7091     3.1064     0.2673  1950.0000  1950.0000     5.4800   288.9408     1.9207     0.2731 -9999.9999  2494.1240  6643.1440   137.8823     0.0000   119.8828   119.8828    96.3530     0.0000    48.6607   371.4412    48.3612     0.0691     0.0717     0.0670     0.0000     0.0338     0.0584  -999.2500   -22.5000   -22.7661     0.3330     0.0000  3906.9998     0.0612     0.1159
   8289.0000     0.2864  1950.0000  1950.0000     5.4500    33.1108     0.2710  1950.0000  1950.0000     1.6726     2.9678     0.2752  1950.0000  1950.0000     5.3592   143.2549     1.8813     0.2804 -9999.9999  2753.7961  6781.9004   137.8823     0.0000   120.1172   120.1172    96.1548     0.0000    51.5076   371.4641    53.9088     0.0516     0.0557     0.0670     0.0000     0.0336     0.0555  -999.2500   -22.5000   -22.9548     0.3336     0.0000  3880.0000     0.0617     0.0955
   8289.5000     0.2917  1950.0000  1950.0000     5.4067    33.5907     0.2975  1950.0000  1950.0000     1.7368     3.1343     0.2865  1950.0000  1950.0000     5.3503    78.3276     1.8918     0.2904 -9999.9999  2597.6548  6432.4038   137.8823     0.0000   113.2520   113.2520    96.6515     0.0000    52.3294   371.4855    53.1019     0.0741     0.0653     0.0669     0.0000     0.0286     0.0680  -999.2500   -22.9688   -23.3672     0.3160     0.0000  3876.0000     0.0590     0.1078
   8290.0000     0.2975  1950.0000  1950.0000     5.4335    34.1563     0.3182  1950.0000  1950.0000     1.8856     3.5659     0.2989  1950.0000  1950.0000     5.3950    47.9847     1.9448     0.3013 -9999.9999  2770.3430  6663.5923   137.8823     0.0000    82.0020    82.0020    96.4134     0.0000    49.0605   371.5389    50.8267     0.0461     0.0544     0.0668     0.0000     0.0350     0.0631  -999.2500   -23.7500   -23.5621     0.1982     0.0000  3883.0002     0.0631     0.0939
   8290.5000     0.3032  1950.0000  1950.0000     5.4974    34.4688     0.3237  1950.0000  1950.0000     2.1018     4.2935     0.3100  1950.0000  1950.0000     5.4515    32.6920     2.0284     0.3113 -5533.0566  2502.3691  6981.3345   137.8823     0.0000    64.4043    64.4043    96.4622     0.0000    45.3648   371.5313    43.9152     0.0724     0.0765     0.0668     0.0000     0.0346     0.0489     0.0978   -24.3750   -23.7753     0.0816     0.0000  3912.9998     0.0609     0.1219
   8291.0000     0.3086  1950.0000  1950.0000     5.5686    34.2035     0.3258  1950.0000  1950.0000     2.2581     4.9484     0.3187  1950.0000  1950.0000     5.4980    24.2749     2.1294     0.3197 -5122.6538  2627.4338  6456.4390   137.8823     0.0000    79.6582    79.6582    95.3748     0.0000    41.9851   371.5519    42.0148     0.0790     0.0606     0.0668     0.0000     0.0363     0.0706     0.1082   -24.3750   -24.0643     0.1856     0.0000  3959.9998     0.0650     0.1018
   8291.5000     0.3135  1950.0000  1950.0000     5.6242    33.2364     0.3277  1950.0000  1950.0000     2.2764     5.1474     0.3255  1950.0000  1950.0000     5.5288    19.1251     2.2397     0.3264 -9999.9999  2594.3948  6464.4507   137.8823     0.0000    92.2070    92.2070    94.8163     0.0000    40.3376   371.5573    40.6875     0.0510     0.0617     0.0667     0.0000     0.0295     0.0660  -999.2500   -24.3750   -24.1882     0.2454     0.0000  3990.0000     0.0612     0.1032
   8292.0000     0.3183  1950.0000  1950.0000     5.6474    31.7414     0.3267  1950.0000  1950.0000     2.2928     5.4034     0.3316  1950.0000  1950.0000     5.5431    15.5770     2.3618     0.3324 -9999.9999  2676.0508  6534.5054   137.8823     0.0000    93.9258    93.9258    96.4668     0.0000    39.3242   371.6092    38.3107     0.0574     0.0555     0.0667     0.0000     0.0352     0.0630  -999.2500   -23.9583   -24.1098     0.2524     0.0000  4021.0000     0.0635     0.0953
   8292.5000     0.3231  1950.0000  1950.0000     5.6240    30.0672     0.3304  1950.0000  1950.0000     2.3972     6.1498     0.3385  1950.0000  1950.0000     5.5309    12.9040     2.5090     0.3384 -7341.9639  2402.0139  6601.3687   137.8823     0.0000    95.7031    95.7031    96.1330     0.0000    39.0753   371.5771    39.2288     0.0736     0.0745     0.0666     0.0000     0.0383     0.0619  -999.2500   -23.7500   -24.1781     0.2593     0.0000  4000.9998     0.0655     0.1194
   8293.0000     0.3278  1950.0000  1950.0000     5.5394    28.5168     0.3453  1950.0000  1950.0000     2.5572     7.2509     0.3461  1950.0000  1950.0000     5.4696    10.8533     2.7013     0.3444 -7115.3057  2469.3872  6540.8867   137.8823     0.0000    81.3086    81.3086    95.5248     0.0000    39.0413   371.6069    39.9408     0.0641     0.0710     0.0666     0.0000     0.0374     0.0626  -999.2500   -23.7500   -23.9669     0.1945     0.0000  3997.0002     0.0654     0.1150
   8293.5000     0.3320  1950.0000  1950.0000     5.3850    27.2268     0.3624  1950.0000  1950.0000     2.7802     8.6012     0.3532  1950.0000  1950.0000     5.3265     9.3040     2.9580     0.3497  -734.1583  2638.4307  6327.2266   137.8823     0.0000    60.9766    60.9766    95.8420     0.0000    39.1217   371.6015    38.2086     0.0656     0.0552     0.0665     0.0000     0.0304     0.0649     0.1600   -23.7500   -23.8827     0.0510     0.0000  4037.0000     0.0605     0.0949
   8294.0000     0.3354  1950.0000  1950.0000     5.1711    26.2009     0.3687  1950.0000  1950.0000     3.2235    10.9486     0.3588  1950.0000  1950.0000     5.0878     8.1487     3.3277     0.3537 -9999.9999  2630.1714  6285.7729   137.8823     0.0000    55.0195    55.0195    94.6710     0.0000    39.5470   371.6382    38.9141     0.0561     0.0584     0.0665     0.0000     0.0287     0.0614     0.2450   -23.7500   -23.6392    -0.0111     0.0000  4044.0002     0.0577     0.0989
   8294.5000     0.3374  1950.0000  1950.0000     4.9367    25.4205     0.3614  1950.0000  1950.0000     4.1698    16.6967     0.3620  1950.0000  1950.0000     4.7807     7.2451     3.7793     0.3566 -4406.8037  2540.1240  6513.8706   137.8823     0.0000    52.4023    52.4023    94.9703     0.0000    38.2902   371.6581    41.2167     0.0512     0.0651     0.0665     0.0000     0.0280     0.0529     0.2811   -23.2813   -23.2774    -0.0429     0.0000  4095.0002     0.0569     0.1075
   8295.0000     0.3377  1950.0000  1950.0000     4.7433    24.9447     0.3548  1950.0000  1950.0000     5.7616    33.6687     0.3629  1950.0000  1950.0000     4.4635     6.4323     4.2038     0.3581 -9999.9999  2671.3560  6306.6387   137.8823     0.0000    54.7656    54.7656    95.5534     0.0000    35.8148   371.6595    34.4385     0.0594     0.0545     0.0665     0.0000     0.0301     0.0641     0.2554   -22.9167   -22.7612    -0.0141     0.0000  4093.0002     0.0590     0.0940
   8295.5000     0.3363  1950.0000  1950.0000     4.6576    25.0351     0.3588  1950.0000  1950.0000     7.2114    71.5711     0.3619  1950.0000  1950.0000     4.2196     5.6282     4.5614     0.3581 -7345.1377  2609.5481  6521.7632   137.8823     0.0000    57.0313    57.0313    95.4488     0.0000    33.5897   371.7039    31.7893     0.0677     0.0608     0.0664     0.0000     0.0310     0.0615     0.2224   -22.3438   -22.1664     0.0113     0.0000  4029.0000     0.0608     0.1020
   8296.0000     0.3335  1950.0000  1950.0000     4.7548    26.1693     0.3637  1950.0000  1950.0000     7.0794    34.3479     0.3590  1950.0000  1950.0000     4.1367     4.8263     3.6831     0.3557 -9999.9999  2550.4749  6657.4468   137.8823     0.0000    56.3672    56.3672    96.1820     0.0000    33.6123   371.6931    34.5918     0.0678     0.0650     0.0664     0.0000     0.0332     0.0550     0.2384   -21.8750   -21.4913     0.0041     0.0000  4021.0000     0.0595     0.1074
   8296.5000     0.3301  1950.0000  1950.0000     5.1326    29.0948     0.3549  1950.0000  1950.0000     5.0136     9.9015     0.3551  1950.0000  1950.0000     4.2709     4.1101     2.6321     0.3511 -9999.9999  2712.6177  6706.9482   137.8823     0.0000    56.3672    56.3672    95.2952     0.0000    35.0787   371.7397    34.5063     0.0478     0.0574     0.0664     0.0000     0.0402     0.0675     0.2309   -21.0938   -20.9713     0.0041     0.0000  3978.0000     0.0699     0.0978
