~Version
 VERS              .         2.0                           : CWLS LOG ASCII STANDARD - VERSION 2.0
 WRAP              .         NO                            : ONE LINE PER DEPTH STEP
 DLM               .         SPACE                         : DELIMITING CHARACTER(SPACE TAB OR COMMA)
~Well Information
#_______________________________________________________________________________
#
#PARAMETER_NAME    .UNIT     VALUE                         : DESCRIPTION
#_______________________________________________________________________________
STRT               .ft       7493                          : First reference value
STOP               .ft       9543.25                       : Last reference value
STEP               .ft       0.25                          : Step increment
NULL               .         -9999                         : Missing value
COMP               .         University Of Utah            : Company
WELL               .         FORGE 78B-32                  : Well name
FLD                .         None                          : Field
LOC                .                                       : Location
CNTY               .         Beaver                        : County
STAT               .         Utah                          : State
CTRY               .         USA                           : Country
SRVC               .         Schlumberger                  : Service Company
DATE               .         19-Jul-2021                   : Date
API                .         NRC 42-00090-03               : API number
APD                .ft       29.5                          : Elevation of Depth Reference (LMF) Above Permanent Datum
BHS                .         OPEN                          : Borehole Status (Open or Cased Hole)
BHT                .degF     320.87                        : Bottom Hole Temperature
BLI                .ft       -999.25                       : Bottom Log Interval
BS                 .in       8.75                          : Bit Size
CBDR               .ft       2989                          : Casing Bottom of Driller
CBLO               .ft       2988                          : Logger Casing Shoe Depth
CSIZ               .in       11.75                         : Current Casing Size
CWEI               .lbm/ft   54                            : Casing Weight
DCS                .         19-Jul-2021                   : Date Circulation Stopped
DFD                .lbm/gal  8.3                           : Drilling Fluid Density
DFT                .         WATER                         : Drilling Fluid Type
DLAB               .         19-Jul-2021                   : Date Logger At Bottom
EDF                .ft       5536                          : Elevation of Drill Floor
EGL                .ft       5536                          : Elevation of Ground Level
EKB                .ft       5565.5                        : Elevation of Kelly Bushing
EPD                .ft       5536                          : Elevation of Permanent Datum (PDAT) above Mean Sea Level
LMF                .         KB                            : Logging Measured From (Name of Logging Elevation Reference)
LUL                .         F.Morgan                      : Logging Unit Location
LUN                .         9108                          : Logging Unit Number
LATI               .         38.500171 degrees             : Latitude
LONG               .         -112.88221 degrees            : Longitude
MCST               .degF     68                            : Mudcake Sample Temperature
MFST               .degF     68                            : Mud Filtrate Sample Temperature
MRT                .degF     321.43                        : Maximum Recorded Temperature
MST                .degF     68                            : Mud Sample Temperature
ORIGINALWELLNAME   .         FORGE 78B-32                  : 
PDAT               .         GL                            : Permanent Datum
PRODUCER-CODE      .         440                           : 
PRODUCER-NAME      .         Schlumberger                  : 
RMB                .ohm.m    0.04564156                    : Resistivity of Mud at Bottom Hole Temperature
RMCS               .ohm.m    -999.25                       : Resistivity of Mud Cake Sample
RMFS               .ohm.m    0.15                          : Resistivity of Mud Filtrate Sample
RMS                .ohm.m    0.2                           : Resistivity of Mud Sample
RUN                .         1A                            : Run Number
TCS                .         03_00_00                      : Time Circulation Stopped
TDD                .ft       8540                          : Driller Total Depth
TDL                .ft       8540                          : Logger Total Depth
TLAB               .         07_53_00                      : Time Logger At Bottom
TLI                .ft       -999.25                       : Top Log Interval
~Parameter Information Block
#_______________________________________________________________________________
#
#PARAMETER_NAME    .UNIT     VALUE                         : DESCRIPTION
#_______________________________________________________________________________
SET                .         QSLT                          : 
TLFamily_AT10      .         Resistivity - Induction Array 10: 
TLFamily_AT20      .         Resistivity - Induction Array 20: 
TLFamily_AT30      .         Resistivity - Induction Array 30: 
TLFamily_AT60      .         Resistivity - Induction Array 60: 
TLFamily_AT90      .         Resistivity - Induction Array 90: 
TLFamily_BS        .         Bit Size                      : 
TLFamily_DTCO_FINAL .         Compressional Slowness        : 
TLFamily_DTSH_FINAL .         Shear Slowness                : 
TLFamily_GR_STGC   .         Gamma Ray                     : 
TLFamily_HDAR      .         Borehole Diameter             : 
TLFamily_PR        .         Poisson Ratio (Dynamic)       : 
TLFamily_SPHI      .         Total Porosity                : 
TLFamily_TDEP      .         Measured Depth                : 
TLFamily_TENS      .         Tension                       : 
TLFamily_TNPH      .         Thermal Neutron Porosity      : 
TLFamily_VPVS      .         VpVs (Compressional To Shear) Ratio: 
~Curve Information
#_______________________________________________________________________________
#
#LOGNAME           .UNIT     LOG_ID                        : DESCRIPTION
#_______________________________________________________________________________
TDEP               .ft                                     : Measured Depth 
AT10               .ohm.m                                  : Array Induction Two Foot Resistivity A10 
AT20               .ohm.m                                  : Array Induction Two Foot Resistivity A20 
AT30               .ohm.m                                  : Array Induction Two Foot Resistivity A30 
AT60               .ohm.m                                  : Array Induction Two Foot Resistivity A60 
AT90               .ohm.m                                  : Array Induction Two Foot Resistivity A90 
BS                 .in                                     : Bit Size 
DTCO_FINAL         .us/ft                                  : Compressional Slowness 
DTSH_FINAL         .us/ft                                  : Shear Slowness 
GR_STGC            .gAPI                                   : Gamma Ray 
HDAR               .in                                     : Hole Diameter from Area 
PR                 .unitless                               : Possion's Ratio 
SPHI               .ft3/ft3                                : Total porosity from Sonic 
TENS               .lbf                                    : Cable Tension 
TNPH               .ft3/ft3                                : Thermal Neutron Porosity (Ratio Method) in Selected Lithology 
VPVS               .unitless                               : VpVs Ratio 
~Ascii
# ...
9528.5     1950       40.96472   145.5443   727.0682   1849.224   5.75       -9999      88.54837   132.3445   5.75       -9999      -9999      4762.313   0.006555376 -9999     
9528.75    1950       40.96358   144.0279   691.4479   1904.08    5.75       -9999      88.54837   132.3445   5.75       -9999      -9999      4773.688   0.006555376 -9999     
9529       1950       40.82697   143.8622   672.3444   1942.159   5.75       -9999      88.54837   132.3445   5.75       -9999      -9999      4785.063   0.006555376 -9999     
9529.25    1950       40.95758   143.3049   668.6893   1950       5.75       -9999      88.54837   132.3445   5.75       -9999      -9999      4777.132   0.006555376 -9999     
9529.5     1950       41.11164   142.9456   679.0391   1950       5.75       -9999      88.54837   132.3445   5.75       -9999      -9999      4769.2     0.006555376 -9999     
9529.75    1950       41.25432   142.6045   700.4036   1950       5.75       -9999      88.54837   132.3445   5.75       -9999      -9999      4745.381   0.006555376 -9999     
9530       1950       41.33711   142.6144   746.8592   1950       5.75       -9999      88.54837   132.3445   5.75       -9999      -9999      4721.563   0.006555376 -9999     
9530.25    1950       41.32855   143.3036   806.3431   1950       5.75       -9999      88.54837   132.3445   5.75       -9999      -9999      4713.031   0.006555376 -9999     
9530.5     1950       41.08545   144.7849   874.0195   1950       5.75       -9999      88.54837   132.3445   5.75       -9999      -9999      4704.5     0.006555376 -9999     
9530.75    1950       40.97462   146.3128   957.447    1950       5.75       -9999      88.54837   132.3445   5.75       -9999      -9999      4700.344   0.006555376 -9999     
9531       1950       40.83714   147.3966   1038.587   1950       5.75       -9999      88.54837   132.3445   5.75       -9999      -9999      4696.188   0.006555376 -9999     
9531.25    1950       40.91485   147.6364   1110.365   1950       5.75       -9999      88.54837   132.3445   5.75       -9999      -9999      4684.161   0.006555376 -9999     
9531.5     1950       41.10869   147.5131   1163.242   1950       5.75       -9999      88.54837   132.3445   5.75       -9999      -9999      4672.134   0.006555376 -9999     
9531.75    1950       41.23751   147.7057   1187.717   1950       5.75       -9999      88.54837   132.3445   5.75       -9999      -9999      4658.223   0.006555376 -9999     
9532       1950       41.1531    147.6727   1188.049   1950       5.75       -9999      88.54837   132.3445   5.75       -9999      -9999      4644.313   0.006555376 -9999     
9532.25    1950       41.23903   146.7624   1167.907   1950       5.75       -9999      88.54837   132.3445   5.75       -9999      -9999      4605.256   0.006555376 -9999     
9532.5     1950       41.19089   145.9368   1125.317   1950       5.75       -9999      88.54837   132.3445   5.75       -9999      -9999      4566.2     0.006555376 -9999     
9532.75    1950       41.02903   146.0559   1095.688   1950       5.75       -9999      88.54837   132.3445   5.75       -9999      -9999      4534.412   0.006555376 -9999     
9533       1950       40.95383   145.5932   1072.362   1950       5.75       -9999      88.54837   132.3445   5.75       -9999      -9999      4502.625   0.006555376 -9999     
9533.25    1950       41.11066   144.2576   1049.723   1950       5.75       -9999      88.54837   132.3445   5.75       -9999      -9999      4468.813   0.006555376 -9999     
9533.5     1950       41.01208   143.8918   1039.387   1950       5.75       -9999      88.54837   132.3445   5.75       -9999      -9999      4435       0.006555376 -9999     
9533.75    1950       41.06821   143.5035   1044.6     1950       5.75       -9999      88.54837   132.3445   5.75       -9999      -9999      4417.3     0.006555376 -9999     
9534       1950       40.93344   143.2717   1063.896   1950       5.75       -9999      88.54837   132.3445   5.75       -9999      -9999      4399.6     0.006555376 -9999     
9534.25    1950       40.96455   143.6605   1103.54    1950       5.75       -9999      88.54837   132.3445   5.75       -9999      -9999      4379.144   0.006555376 -9999     
9534.5     1950       40.97432   144.5708   1142.614   1950       5.75       -9999      88.54837   132.3445   5.75       -9999      -9999      4358.688   0.006555376 -9999     
9534.75    1950       40.92987   145.1301   1188.897   1950       5.75       -9999      88.54837   132.3445   5.75       -9999      -9999      4330.244   0.006555376 -9999     
9535       1950       40.97823   145.2779   1238.165   1950       5.75       -9999      88.54837   132.3445   5.75       -9999      -9999      4301.8     0.006555376 -9999     
9535.25    1950       41.01062   145.1678   1288.429   1950       5.75       -9999      88.54837   132.3445   5.75       -9999      -9999      4261.494   0.006555376 -9999     
9535.5     1950       41.04059   145.9248   1344.229   1950       5.75       -9999      88.54837   132.3445   5.75       -9999      -9999      4221.188   0.006555376 -9999     
9535.75    1950       41.15215   146.2171   1390.31    1950       5.75       -9999      88.54837   132.3445   5.75       -9999      -9999      4201.794   0.006555376 -9999     
9536       1950       41.18661   147.0308   1433.754   1950       5.75       -9999      88.54837   132.3445   5.75       -9999      -9999      4182.4     0.006555376 -9999     
9536.25    1950       41.34562   147.4897   1464.532   1950       5.75       -9999      88.54837   132.3445   5.75       -9999      -9999      4152.825   0.006555376 -9999     
9536.5     1950       41.33195   147.163    1472.485   1950       5.75       -9999      88.54837   132.3445   5.75       -9999      -9999      4123.25    0.006555376 -9999     
9536.75    1950       41.11623   146.068    1459.829   1916.677   5.75       -9999      88.54837   132.3445   5.75       -9999      -9999      4099.958   0.006555376 -9999     
9537       1950       40.90435   144.5951   1421.708   1860.102   5.75       -9999      88.54837   132.3445   5.75       -9999      -9999      4076.667   0.006555376 -9999     
9537.25    1950       40.75397   143.0985   1360.773   1783.758   5.75       -9999      88.54837   132.3445   5.75       -9999      -9999      4045.115   0.006555376 -9999     
9537.5     1950       40.79043   142.1037   1270.576   1689.332   5.75       -9999      88.54837   132.3445   5.75       -9999      -9999      4013.562   0.006555376 -9999     
9537.75    1950       40.8268    142.183    1171.455   1579.809   5.75       -9999      88.54837   132.3445   5.75       -9999      -9999      3978.281   0.006555376 -9999     
9538       1950       41.05985   142.3667   1072.493   1460.605   5.75       -9999      88.54837   132.3445   5.75       -9999      -9999      3943       0.006555376 -9999     
9538.25    1950       41.47677   143.3005   964.791    1337.874   5.75       -9999      88.54837   132.3445   5.75       -9999      -9999      3924.625   0.006555376 -9999     
9538.5     1950       41.59116   142.8406   861.5912   1218.554   5.75       -9999      88.54837   132.3445   5.75       -9999      -9999      3906.25    0.006555376 -9999     
9538.75    1950       40.93548   140.7306   771.2398   1112.119   5.75       -9999      88.54837   132.3445   5.75       -9999      -9999      3882.781   0.006555376 -9999     
9539       1950       39.88194   139.7128   693.7909   1013.318   5.75       -9999      88.54837   132.3445   5.75       -9999      -9999      3859.313   0.006555376 -9999     
9539.25    1950       39.36871   137.099    645.8779   957.0825   5.75       -9999      88.54837   132.3445   5.75       -9999      -9999      3827.031   0.006555376 -9999     
9539.5     1950       39.39196   138.9198   594.3261   877.0739   5.75       -9999      88.54837   132.3445   5.75       -9999      -9999      3794.75    0.006555376 -9999     
9539.75    1950       40.35038   138.6566   563.7072   835.3087   5.75       -9999      88.54837   132.3445   5.75       -9999      -9999      3768.563   0.006555376 -9999     
