~VERSION INFORMATION
VERS.           1.2   :CWLS Log ASCII Standard - VERSION 1.2
WRAP.           NO    :One Line per depth step
PROD.  Schlumberger   :LAS Producer
PROG.  DLIS to ASCII 2.3                               :LAS Program name and version
CREA.        2021/07/30 13:36                          :LAS Creation date {YYYY/MM/DD hh:mm}
DLIS_CREA.  2021-Jul-30 07:07                          :DLIS Creation date and time {YYYY-MMM-DD hh:mm}
SOURCE.     e39621fc-7919-4a62-8a2a-6ee9c8654461       :DLIS File Name
#--------------------------------------------------
~WELL INFORMATION
#MNEM.UNIT      DATA             DESCRIPTION
#---- ------ --------------   -----------------------------
STRT .F      8527.5000       :START DEPTH     
STOP .F      9107.0000       :STOP DEPTH     
STEP .F       0.5000         :STEP       
NULL .          -999.25      :NULL VALUE
COMP .                 COMPANY:  University Of Utah                 
WELL .                    WELL:  FORGE 78B-32                       
FLD  .                   FIELD:  None                               
LOC  .                LOCATION:  Lat: 38.500171, Long: -112.88221   
CNTY .                  COUNTY:  Beaver                             
STAT .                   STATE:  Utah                               
CTRY .                 COUNTRY:                                     
SRVC .         SERVICE COMPANY:  Schlumberger                       
LATI .DEG             LATITUDE:  38 30' 0.616" N                   
LONG .DEG            LONGITUDE:  112 52' 55.956" W                 
API  .              API NUMBER:  NRC 42-00090-03                    
DATE .                LOG DATE:  30-Jul-2021
UWI  .          UNIQUE WELL ID:                                     
#-----------------------------------------------------------------------------
~PARAMETER INFORMATION
#MNEM.UNIT    VALUE                      DESCRIPTION
#---- -----   --------------------       ------------------------
CN   .        University Of Utah         :Company Name
WN   .        FORGE 78B-32               :Well Name
FN   .        None                       :Field Name
FL   .        Lat  38.500171  Long  -112.88221 :Field Location
FL1  .                                   :Field Location, Line 1
COUN .        Beaver                     :County or Parish
STAT .        Utah                       :State or Province
NATI .                                   :Nation
DATE .        30-Jul-2021                :Tools Above Rotary Table Date
APIN .        NRC 42-00090-03            :API Well Number
SECT .                                   :Section
TOWN .                                   :Township
RANG .                                   :Range
DMF  .        KB                         :Drilling Measured From (Name of Drilling Elevation Reference)
LMF  .        KB                         :Logging Measured From (Name of Logging Elevation Reference)
PDAT .        GL                         :Permanent Datum
ENGI .        CSTILES                    :Engineer s Name
WITN .        Virgil  Welch              :Witness s Name
LATI .        38� 30' 0.616  N           :Latitude
LONG .        112� 52' 55.956  W         :Longitude
LUL  .        F.Morgan                   :Logging Unit Location
LUN  .        9108                       :Logging Unit Number
RUN  .        1B                         :Run Number
SON  .                                   :Service Order Number
BHT  .DEGF     419.00000                 :Bottom Hole Temperature
BS   .IN         5.75000                 :Bit Size
MDEN .G/C3       2.71000                 :Matrix Density for Density Porosity
DFD  .LB/G       8.30000                 :Drilling Fluid Density
DFV  .S         24.00000                 :Drilling Fluid Viscosity
DFL  .C3      -999.25000                 :Drilling Fluid Loss
RMFS .OHMM       4.42000                 :Resistivity of Mud Filtrate Sample
EKB  .F       5565.50000                 :Elevation of Kelly Bushing
EGL  .F       5536.00000                 :Elevation of Ground Level
BLI  .F       9532.00000                 :Bottom Log Interval
BSAL .PPM      700.00000                 :Borehole Salinity
FLEV .F          8.00000                 :Depth of Drilling Fluid Level to LMF (Log Measured From)
MCST .DEGF      62.00000                 :Mudcake Sample Temperature
MFST .DEGF      62.00000                 :Mud Filtrate Sample Temperature
MRT  .DEGF     419.00000                 :Maximum Recorded Temperature
MST  .DEGF      62.00000                 :Mud Sample Temperature
RMCS .OHMM       6.21000                 :Resistivity of Mud Cake Sample
RMS  .OHMM       5.20000                 :Resistivity of Mud Sample
RW   .OHMM       1.00000                 :Connate Water Resistivity
TDD  .F       9500.00000                 :Driller Total Depth
TDL  .F       9532.00000                 :Logger Total Depth
TLI  .F       8530.00000                 :Top Log Interval
HIDE .                                   :Header Identifier
MATR .        LIME                       :Rock Matrix for Neutron Porosity Corrections
FNUM .           1.00000                 :F-Numerator for Formation Factor Formula
FEXP .           2.00000                 :Exponent "m" for Formation Factor Formula
DFT  .        WATER                      :Drilling Fluid Type
DFPH .          11.00000                 :Drilling Fluid pH
MCSS .        Calculated                 :Mudcake Sample Source
MFSS .        Calculated                 :Mud Filtrate Sample Source
FD   .G/C3       1.00000                 :Fluid Density
MSS  .        Flowline                   :Mud Sample Source
OS1  .                                   :Other Services Line 1
OS2  .                                   :Other Services Line 2
OS3  .                                   :Other Services Line 3
OS4  .                                   :Other Services Line 4
OS5  .                                   :Other Services Line 5
R1   .                                   :Remarks Line 1
R2   .                                   :Remarks Line 2
R3   .                                   :Remarks Line 3
R4   .                                   :Remarks Line 4
R5   .                                   :Remarks Line 5
R6   .        Tool was run as per tool sketch :Remarks Line 6
R7   .        All logging intervals as per client request :Remarks Line 7
R8   .                                   :Remarks Line 8
TCS  .        20 00 00                   :Time Circulation Stopped
TLAB .        02 17 00                   :Time Logger At Bottom
NMT  .        NOBARITE                   :HRDD Mud Type for Nuclear Devices
EPD  .C3         5536.000000             :Elevation of Permanent Datum above Mean Sea Level
APD  .F          29.500000               :Elevation of Depth Reference (LMF) above Permanent Datum
#-----------------------------------------------------------------------------
~CURVE INFORMATION
#MNEM.UNIT   API CODE                                  DESCRIPTION
#---- -----  --------                                  -----------------------
DEPT .F                                                :DEPTH (BOREHOLE) {F12.4}
AF10 .OHMM                                             :Array Induction Four Foot Resistivity A10 {F11.4}
AF20 .OHMM                                             :Array Induction Four Foot Resistivity A20 {F11.4}
AF30 .OHMM                                             :Array Induction Four Foot Resistivity A30 {F11.4}
AF60 .OHMM                                             :Array Induction Four Foot Resistivity A60 {F11.4}
AF90 .OHMM                                             :Array Induction Four Foot Resistivity A90 {F11.4}
AO10 .OHMM                                             :Array Induction One Foot Resistivity A10 {F11.4}
AO20 .OHMM                                             :Array Induction One Foot Resistivity A20 {F11.4}
AO30 .OHMM                                             :Array Induction One Foot Resistivity A30 {F11.4}
AO60 .OHMM                                             :Array Induction One Foot Resistivity A60 {F11.4}
AO90 .OHMM                                             :Array Induction One Foot Resistivity A90 {F11.4}
AT10 .OHMM                                             :Array Induction Two Foot Resistivity A10 {F11.4}
AT20 .OHMM                                             :Array Induction Two Foot Resistivity A20 {F11.4}
AT30 .OHMM                                             :Array Induction Two Foot Resistivity A30 {F11.4}
AT60 .OHMM                                             :Array Induction Two Foot Resistivity A60 {F11.4}
AT90 .OHMM                                             :Array Induction Two Foot Resistivity A90 {F11.4}
AORT .OHMM                                             :Array Induction One Foot Rt {F11.4}
AORX .OHMM                                             :Array Induction One Foot Rxo {F11.4}
CDF  .LBF                                              :Calibrated Downhole Force {F11.4}
CFTC .HZ                                               :Corrected Far Thermal Count Rate {F11.4}
CNTC .HZ                                               :Corrected Near Thermal Count Rate {F11.4}
CTEM .DEGF                                             :Cartridge Temperature {F11.4}
DCAL .IN                                               :Differential Caliper {F11.4}
DT   .US/F                                             :Delta-T (also called Slowness or Interval Transit Time) {F11.4}
DTCO .US/F                                             :Delta-T Compressional {F11.4}
DTSM .US/F                                             :Delta-T Shear {F11.4}
ED   .F                                                :East Departure {F11.4}
GR_STGC.GAPI                                           :Gamma Ray {F11.4}
GTEM .DEGF                                             :Generalized Borehole Temperature {F11.4}
HGR_STGC.GAPI                                          :High Resolution Gamma Ray {F11.4}
HNPO .CFCF                                             :High Resolution Enhanced Thermal Neutron Porosity in Selected Lithology {F11.4}
HTNP .CFCF                                             :High Resolution Thermal Neutron Porosity (Ratio Method) in Selected Lithology {F11.4}
ITT  .S                                                :Integrated Transit Time {F11.4}
ND   .F                                                :North Departure {F11.4}
NPHI .CFCF                                             :Thermal Neutron Porosity (original Ratio Method) in Selected Lithology {F11.4}
NPOR .CFCF                                             :Enhanced Thermal Neutron Porosity in Selected Lithology {F11.4}
PR   .                                                 :Poisson s Ratio {F11.4}
SP   .MV                                               :Spontaneous Potential {F11.4}
SPAR .MV                                               :SP, Armor Return Compensated {F11.4}
SPHI .CFCF                                             :Sonic Porosity {F11.4}
STIT .F                                                :Stuck Tool Indicator, Total {F11.4}
TENS .LBF                                              :Cable Tension {F11.4}
TNPH .CFCF                                             :Thermal Neutron Porosity (Ratio Method) in Selected Lithology {F11.4}
HTNP_SAN.CFCF                                          :HiRes Thermal Neutron Porosity (matrix Sandstone) {F11.4}
#-----------------------------------------------------------------------------
# 
#      DEPT        AF10       AF20       AF30       AF60       AF90       AO10       AO20       AO30       AO60       AO90       AT10       AT20       AT30       AT60       AT90       AORT       AORX       CDF        CFTC       CNTC       CTEM       DCAL        DT        DTCO       DTSM        ED      GR_STGC      GTEM     HGR_STGC     HNPO       HTNP       ITT         ND        NPHI       NPOR        PR         SP        SPAR       SPHI       STIT       TENS       TNPH     HTNP_SAN
#
~A  
# ...
   8791.0000  1950.0000   212.9592   510.1975   341.0474   682.1751  1950.0000   490.9205    59.4713    42.8217    41.4015  1950.0000   163.7263   302.9568   221.6824   251.3842    40.5211  1950.0000 -7269.6592  9098.0029 15098.0840   110.2118     0.0000    50.8203    50.8203    92.4205     0.0000   179.7652   397.5136   191.1848     0.0272     0.0293     0.0144     0.0000     0.0310     0.0371     0.2833    15.0000    14.7286    -0.0637     0.0000  4261.6250     0.0297     0.0620
   8791.5000  1950.0000   226.6843   336.1920   595.6445   499.9500  1950.0000   694.4955    46.5826    40.8258    39.5590  1950.0000   183.6096   200.7467   228.2864   291.7976    40.9795  1950.0000 -7306.5469 10318.2568 16062.4795   110.2118     0.0000    51.6309    51.6309    92.7266     0.0000   180.4690   397.4912   169.7202     0.0231     0.0216     0.0144     0.0000     0.0236     0.0231     0.2753    14.7266    14.6305    -0.0529     0.0000  4222.0664     0.0209     0.0524
   8792.0000  1950.0000   181.5776   219.3213   773.3713   384.6669  1950.0000   254.8515    55.0058    54.4350    52.7568  1950.0000   152.2931   171.5529   420.6095   220.1305    52.8909  1950.0000 -7287.0796 11995.8096 16964.9570   110.2118     0.0000    51.7578    51.7578    92.7971     0.0000   185.3170   397.5274   180.6754     0.0124     0.0130     0.0144     0.0000     0.0201     0.0113     0.2742    14.4141    14.5493    -0.0512     0.0000  4201.6001     0.0148     0.0418
   8792.5000  1950.0000   124.8814   195.0848   844.3298   377.0000  1950.0000   212.4421    86.6606   105.6942   100.4302  1950.0000   106.0033   190.3460   788.3657   574.0457    78.2032  1950.0000 -7285.7979 12221.4941 17959.4414   110.2118     0.0000    51.8066    51.8066    92.4278     0.0000   199.0477   397.5426   205.7587     0.0071     0.0139     0.0144     0.0000     0.0169     0.0061     0.2710    14.1797    14.4831    -0.0506     0.0000  4264.7998     0.0132     0.0429
   8793.0000  1950.0000    84.5051   163.9324   920.1397   482.8828  1950.0000    55.1975    62.8477    83.7119    80.9176  1950.0000    73.3823   136.9058   310.8273   371.3203    63.0416  1950.0000 -7328.1079 12481.2012 17275.8145   110.2118     0.0000    52.4023    52.4023    92.0874     0.0000   208.2936   397.5211   210.7004     0.0131     0.0123     0.0143     0.0000     0.0153     0.0189     0.2606    14.1406    14.4115    -0.0429     0.0000  4335.4287     0.0115     0.0409
   8793.5000  1950.0000    70.2842   171.8592  1121.3304   641.0135  1950.0000    23.1237    31.9006    38.5210    37.0860  1950.0000    60.8022   148.7997   502.8739   619.7603    36.2244  1940.6493 -7346.6050 13897.3242 18491.4844   110.2118     0.0000    51.3867    51.3867    91.8641     0.0000   202.4538   397.5551   208.0498     0.0041     0.0075     0.0143     0.0000     0.0122     0.0066     0.2723    14.1406    14.4717    -0.0561     0.0000  4311.7334     0.0089     0.0351
   8794.0000  1950.0000    62.5145   189.6350  1327.4730   834.1699  1950.0000    36.4381    74.3351   116.7782   112.1731  1950.0000    55.2069   161.3893   639.4679   971.7022    81.2769  1879.1263 -7339.4697 14417.4443 18737.9844   110.2118     0.0000    51.3672    51.3672    91.0332     0.0000   189.8570   397.5625   187.9622     0.0074     0.0071     0.0143     0.0000     0.0108     0.0020     0.2664    14.4141    14.4731    -0.0564     0.0000  4243.5337     0.0057     0.0346
   8794.5000  1950.0000    59.3043   218.8061  1508.4565  1111.9624  1950.0000    67.9599   117.0342   183.6629   174.5526  1950.0000    58.8878   213.7902   827.7227  1356.4861   101.4319  1818.7012 -7357.4287 14541.9385 18964.4043   110.2118     0.0000    51.7090    51.7090    90.9300     0.0000   178.4580   397.5373   172.7587     0.0042     0.0057     0.0143     0.0000     0.0100     0.0030     0.2610    14.4141    14.5364    -0.0519     0.0000  4188.3999     0.0060     0.0330
   8795.0000  1950.0000    58.8025   254.6949  1679.1968  1431.9283  1950.0000    82.3976   246.7076   287.3891   253.5138  1950.0000    66.7102   299.8125  1098.5563  1628.6274   156.8151  1752.1211 -7267.1372 14408.5449 18531.5664   110.2118     0.0000    50.2930    50.2930    90.8953     0.0000   179.7814   397.5856   173.9397     0.0090     0.0059     0.0142     0.0000     0.0101     0.0088     0.2794    14.3750    14.5628    -0.0709     0.0000  4206.8003     0.0064     0.0332
   8795.5000  1950.0000    59.0657   306.5101  1830.0734  1714.7520  1950.0000    81.9427   521.4866   565.1702   502.8934  1950.0000    69.4371   369.3104  1343.6686  1655.9589   226.7156  1559.4175 -7331.5557 14307.5234 18716.4688   110.2118     0.0000    51.8262    51.8262    91.0033     0.0000   187.2316   397.6108   192.5853     0.0084     0.0070     0.0142     0.0000     0.0099     0.0063     0.2600    14.5703    14.5709    -0.0503     0.0000  4312.1333     0.0063     0.0345
   8796.0000  1950.0000    59.4550   347.4186  1921.8828  1853.7291  1950.0000    69.6149   692.2922   771.5112   681.7175  1950.0000    69.3799   422.8673  1495.3165  1519.8911   294.8089  1510.2642 -7323.6895 14536.3184 18776.2793   110.2118     0.0000    51.7383    51.7383    90.9371     0.0000   192.9117   397.5834   195.8430     0.0030     0.0060     0.0142     0.0000     0.0099     0.0046     0.2607    15.0000    14.6805    -0.0515     0.0000  4352.3125     0.0060     0.0334
   8796.5000  1950.0000    56.7846   367.9958  1950.0000  1890.3773  1950.0000    59.4664   600.7726   731.3805   647.4961  1950.0000    64.9994   416.1350  1550.3516  1373.3496   267.4017  1845.0120 -7324.8745 14473.8975 18589.6172   110.2118     0.0000    51.3965    51.3965    90.9862     0.0000   190.7110   397.6235   191.0275     0.0114     0.0055     0.0142     0.0000     0.0098     0.0069     0.2657    15.0000    14.6976    -0.0560     0.0000  4299.7334     0.0060     0.0328
   8797.0000  1950.0000    57.3162   369.4761  1920.4774  1874.8308  1950.0000    62.2864   540.5012   436.7037   395.8344  1950.0000    62.0278   397.1827  1468.1256  1185.5775   223.1770  1717.4036 -7323.7012 14309.6074 18644.1113   110.2118     0.0000    52.3047    52.3047    91.0623     0.0000   182.5125   397.6413   185.1817     0.0113     0.0069     0.0141     0.0000     0.0097     0.0062     0.2538    15.0000    14.7040    -0.0442     0.0000  4231.5337     0.0061     0.0344
   8797.5000  1950.0000    56.8675   360.8417  1782.3562  1828.6826  1950.0000    70.1712   397.3411   257.1405   235.8825  1950.0000    61.9200   375.0677  1504.0493  1020.0424   187.6797  1669.5492 -7359.2349 14422.1543 18608.7813   110.2118     0.0000    51.1230    51.1230    91.4507     0.0000   177.6783   397.6149   170.3129     0.0083     0.0064     0.0141     0.0000     0.0099     0.0066     0.2727    14.6094    14.7107    -0.0596     0.0000  4238.0000     0.0062     0.0338
   8798.0000  1950.0000    56.9753   344.1229  1527.5105  1781.8427  1950.0000    70.7080   270.8321   222.6315   203.1352  1950.0000    61.8289   354.3333  1374.2498   889.9933   184.6174  1566.5282 -7334.8193 14400.2822 18617.0703   110.2118     0.0000    51.4063    51.4063    91.3439     0.0000   174.5733   397.6494   176.6749     0.0148     0.0061     0.0141     0.0000     0.0104     0.0074     0.2682    14.8438    14.6895    -0.0559     0.0000  4285.1431     0.0068     0.0335
   8798.5000  1950.0000    57.3343   325.3060  1215.0256  1670.6014  1950.0000    63.9613   253.1442   209.2025   189.9241  1950.0000    62.6322   325.3756  1082.8884   760.5414   165.3029  1625.0232 -7332.0469 14084.9180 18745.1660   110.2118     0.0000    51.6797    51.6797    91.0571     0.0000   176.4997   397.6714   176.6877     0.0095     0.0084     0.0141     0.0000     0.0110     0.0070     0.2624    14.7656    14.6622    -0.0522     0.0000  4369.2666     0.0073     0.0362
   8799.0000  1950.0000    58.1461   308.7373   914.7193  1481.7766  1950.0000    61.8154   271.6307   290.2235   262.3924  1950.0000    61.3881   293.2164   747.6978   637.3744   193.9809  1540.0580 -7284.7974 14185.1895 18771.5098   110.2118     0.0000    50.0586    50.0586    90.7445     0.0000   172.4004   397.6482   176.3903     0.0052     0.0085     0.0140     0.0000     0.0113     0.0055     0.2813    15.0000    14.6089    -0.0742     0.0000  4349.3335     0.0070     0.0363
