~VERSION INFORMATION
VERS.           1.2   :CWLS Log ASCII Standard - VERSION 1.2
WRAP.           NO    :One Line per depth step
PROD.  Schlumberger   :LAS Producer
PROG.  DLIS to ASCII 2.3                               :LAS Program name and version
CREA.        2021/07/30 13:36                          :LAS Creation date {YYYY/MM/DD hh:mm}
DLIS_CREA.  2021-Jul-30 07:07                          :DLIS Creation date and time {YYYY-MMM-DD hh:mm}
SOURCE.     dc707e3c-4962-4d77-8314-dc20fe7b42b8       :DLIS File Name
#--------------------------------------------------
~WELL INFORMATION
#MNEM.UNIT      DATA             DESCRIPTION
#---- ------ --------------   -----------------------------
STRT .F        8616.5000     :START DEPTH     
STOP .F        9518.5000     :STOP DEPTH     
STEP .F           0.5000       :STEP     
NULL .          -999.25      :NULL VALUE
COMP .                 COMPANY:  University Of Utah                 
WELL .                    WELL:  FORGE 78B-32                       
FLD  .                   FIELD:  None                               
LOC  .                LOCATION:  Lat: 38.500171, Long: -112.88221   
CNTY .                  COUNTY:  Beaver                             
STAT .                   STATE:  Utah                               
CTRY .                 COUNTRY:                                     
SRVC .         SERVICE COMPANY:  Schlumberger                       
LATI .DEG             LATITUDE:  38 30' 0.616" N                   
LONG .DEG            LONGITUDE:  112 52' 55.956" W                 
API  .              API NUMBER:  NRC 42-00090-03                    
DATE .                LOG DATE:  30-Jul-2021
UWI  .          UNIQUE WELL ID:                                     
#-----------------------------------------------------------------------------
~PARAMETER INFORMATION
#MNEM.UNIT    VALUE                      DESCRIPTION
#---- -----   --------------------       ------------------------
CN   .        University Of Utah         :Company Name
WN   .        FORGE 78B-32               :Well Name
FN   .        None                       :Field Name
FL   .        Lat  38.500171  Long  -112.88221 :Field Location
FL1  .                                   :Field Location, Line 1
COUN .        Beaver                     :County or Parish
STAT .        Utah                       :State or Province
NATI .                                   :Nation
DATE .        30-Jul-2021                :Tools Above Rotary Table Date
APIN .        NRC 42-00090-03            :API Well Number
SECT .                                   :Section
TOWN .                                   :Township
RANG .                                   :Range
DMF  .        KB                         :Drilling Measured From (Name of Drilling Elevation Reference)
LMF  .        KB                         :Logging Measured From (Name of Logging Elevation Reference)
PDAT .        GL                         :Permanent Datum
ENGI .        CSTILES                    :Engineer s Name
WITN .        Virgil  Welch              :Witness s Name
LATI .        38� 30' 0.616  N           :Latitude
LONG .        112� 52' 55.956  W         :Longitude
LUL  .        F.Morgan                   :Logging Unit Location
LUN  .        9108                       :Logging Unit Number
RUN  .        1B                         :Run Number
SON  .                                   :Service Order Number
BHT  .DEGF     419.00000                 :Bottom Hole Temperature
BS   .IN         5.75000                 :Bit Size
MDEN .G/C3       2.71000                 :Matrix Density for Density Porosity
DFD  .LB/G       8.30000                 :Drilling Fluid Density
DFV  .S         24.00000                 :Drilling Fluid Viscosity
DFL  .C3      -999.25000                 :Drilling Fluid Loss
RMFS .OHMM       4.42000                 :Resistivity of Mud Filtrate Sample
EKB  .F       5565.50000                 :Elevation of Kelly Bushing
EGL  .F       5536.00000                 :Elevation of Ground Level
BLI  .F       9532.00000                 :Bottom Log Interval
BSAL .PPM      700.00000                 :Borehole Salinity
FLEV .F          8.00000                 :Depth of Drilling Fluid Level to LMF (Log Measured From)
MCST .DEGF      62.00000                 :Mudcake Sample Temperature
MFST .DEGF      62.00000                 :Mud Filtrate Sample Temperature
MRT  .DEGF     419.00000                 :Maximum Recorded Temperature
MST  .DEGF      62.00000                 :Mud Sample Temperature
RMCS .OHMM       6.21000                 :Resistivity of Mud Cake Sample
RMS  .OHMM       5.20000                 :Resistivity of Mud Sample
RW   .OHMM       1.00000                 :Connate Water Resistivity
TDD  .F       9500.00000                 :Driller Total Depth
TDL  .F       9532.00000                 :Logger Total Depth
TLI  .F       8530.00000                 :Top Log Interval
HIDE .                                   :Header Identifier
MATR .        LIME                       :Rock Matrix for Neutron Porosity Corrections
FNUM .           1.00000                 :F-Numerator for Formation Factor Formula
FEXP .           2.00000                 :Exponent "m" for Formation Factor Formula
DFT  .        WATER                      :Drilling Fluid Type
DFPH .          11.00000                 :Drilling Fluid pH
MCSS .        Calculated                 :Mudcake Sample Source
MFSS .        Calculated                 :Mud Filtrate Sample Source
FD   .G/C3       1.00000                 :Fluid Density
MSS  .        Flowline                   :Mud Sample Source
OS1  .                                   :Other Services Line 1
OS2  .                                   :Other Services Line 2
OS3  .                                   :Other Services Line 3
OS4  .                                   :Other Services Line 4
OS5  .                                   :Other Services Line 5
R1   .                                   :Remarks Line 1
R2   .                                   :Remarks Line 2
R3   .                                   :Remarks Line 3
R4   .                                   :Remarks Line 4
R5   .                                   :Remarks Line 5
R6   .        Tool was run as per tool sketch :Remarks Line 6
R7   .        All logging intervals as per client request :Remarks Line 7
R8   .                                   :Remarks Line 8
TCS  .        20 00 00                   :Time Circulation Stopped
TLAB .        02 17 00                   :Time Logger At Bottom
NMT  .        NOBARITE                   :HRDD Mud Type for Nuclear Devices
EPD  .C3         5536.000000             :Elevation of Permanent Datum above Mean Sea Level
APD  .F          29.500000               :Elevation of Depth Reference (LMF) above Permanent Datum
#-----------------------------------------------------------------------------
~CURVE INFORMATION
#MNEM.UNIT   API CODE                                  DESCRIPTION
#---- -----  --------                                  -----------------------
DEPT .F                                                :DEPTH (BOREHOLE) {F12.4}
AF10 .OHMM                                             :Array Induction Four Foot Resistivity A10 {F11.4}
AF20 .OHMM                                             :Array Induction Four Foot Resistivity A20 {F11.4}
AF30 .OHMM                                             :Array Induction Four Foot Resistivity A30 {F11.4}
AF60 .OHMM                                             :Array Induction Four Foot Resistivity A60 {F11.4}
AF90 .OHMM                                             :Array Induction Four Foot Resistivity A90 {F11.4}
AO10 .OHMM                                             :Array Induction One Foot Resistivity A10 {F11.4}
AO20 .OHMM                                             :Array Induction One Foot Resistivity A20 {F11.4}
AO30 .OHMM                                             :Array Induction One Foot Resistivity A30 {F11.4}
AO60 .OHMM                                             :Array Induction One Foot Resistivity A60 {F11.4}
AO90 .OHMM                                             :Array Induction One Foot Resistivity A90 {F11.4}
AT10 .OHMM                                             :Array Induction Two Foot Resistivity A10 {F11.4}
AT20 .OHMM                                             :Array Induction Two Foot Resistivity A20 {F11.4}
AT30 .OHMM                                             :Array Induction Two Foot Resistivity A30 {F11.4}
AT60 .OHMM                                             :Array Induction Two Foot Resistivity A60 {F11.4}
AT90 .OHMM                                             :Array Induction Two Foot Resistivity A90 {F11.4}
AORT .OHMM                                             :Array Induction One Foot Rt {F11.4}
AORX .OHMM                                             :Array Induction One Foot Rxo {F11.4}
CDF  .LBF                                              :Calibrated Downhole Force {F11.4}
CFTC .HZ                                               :Corrected Far Thermal Count Rate {F11.4}
CNTC .HZ                                               :Corrected Near Thermal Count Rate {F11.4}
CTEM .DEGF                                             :Cartridge Temperature {F11.4}
DCAL .IN                                               :Differential Caliper {F11.4}
DT   .US/F                                             :Delta-T (also called Slowness or Interval Transit Time) {F11.4}
DTCO .US/F                                             :Delta-T Compressional {F11.4}
DTSM .US/F                                             :Delta-T Shear {F11.4}
ED   .F                                                :East Departure {F11.4}
GR_STGC.GAPI                                           :Gamma Ray {F11.4}
GTEM .DEGF                                             :Generalized Borehole Temperature {F11.4}
HGR_STGC.GAPI                                          :High Resolution Gamma Ray {F11.4}
HNPO .CFCF                                             :High Resolution Enhanced Thermal Neutron Porosity in Selected Lithology {F11.4}
HTNP .CFCF                                             :High Resolution Thermal Neutron Porosity (Ratio Method) in Selected Lithology {F11.4}
ITT  .S                                                :Integrated Transit Time {F11.4}
ND   .F                                                :North Departure {F11.4}
NPHI .CFCF                                             :Thermal Neutron Porosity (original Ratio Method) in Selected Lithology {F11.4}
NPOR .CFCF                                             :Enhanced Thermal Neutron Porosity in Selected Lithology {F11.4}
PR   .                                                 :Poisson s Ratio {F11.4}
SP   .MV                                               :Spontaneous Potential {F11.4}
SPAR .MV                                               :SP, Armor Return Compensated {F11.4}
SPHI .CFCF                                             :Sonic Porosity {F11.4}
STIT .F                                                :Stuck Tool Indicator, Total {F11.4}
TENS .LBF                                              :Cable Tension {F11.4}
TNPH .CFCF                                             :Thermal Neutron Porosity (Ratio Method) in Selected Lithology {F11.4}
HTNP_SAN.CFCF                                          :HiRes Thermal Neutron Porosity (matrix Sandstone) {F11.4}
#-----------------------------------------------------------------------------
# 
#      DEPT        AF10       AF20       AF30       AF60       AF90       AO10       AO20       AO30       AO60       AO90       AT10       AT20       AT30       AT60       AT90       AORT       AORX       CDF        CFTC       CNTC       CTEM       DCAL        DT        DTCO       DTSM        ED      GR_STGC      GTEM     HGR_STGC     HNPO       HTNP       ITT         ND        NPHI       NPOR        PR         SP        SPAR       SPHI       STIT       TENS       TNPH     HTNP_SAN
#
~A  
# ...
   8914.0000  1950.0000    22.5480  1761.9888   719.2557   508.7491  1950.0000    20.1877   196.1886   693.9622   554.3743  1950.0000    21.9754   540.0410   357.1155   316.7523   658.0125  1833.9814 -9683.7607  7486.6333 14970.6533   116.1412     0.0000    89.6484    89.6484    92.7119     0.0000    73.4550   398.3558    73.8737     0.0373     0.0448     0.0233     0.0000     0.0452     0.0344  -999.2500    25.0000    24.4762     0.2346     0.0000  3145.0000     0.0426     0.0817
   8914.5000  1950.0000    23.2804  1664.6853   956.9022   485.6846  1950.0000    19.5127   154.5422   662.1469   511.8618  1950.0000    22.6129   457.2317   512.1904   328.0078   595.1461  1717.7466 -9658.0469  7668.2075 14415.9600   116.1412     0.0000    92.3047    92.3047    92.7043     0.0000    75.3571   398.2868    74.8876     0.0531     0.0461     0.0233     0.0000     0.0453     0.0476  -999.2500    25.6250    24.4824     0.2458     0.0000  3133.0000     0.0448     0.0833
   8915.0000  1950.0000    24.4623  1572.9928  1269.9609   454.3893  1950.0000    26.7206   260.0059   506.1173   381.3205  1950.0000    25.7607   380.6880   777.3124   310.4917   489.7869  1491.2352 -9632.1543  7766.9653 14339.7451   116.1412     0.0000    92.3047    92.3047    92.9150     0.0000    76.7578   398.3190    76.0772     0.0447     0.0415     0.0234     0.0000     0.0447     0.0491  -999.2500    25.0000    24.4879     0.2458     0.0000  3127.4998     0.0448     0.0774
   8915.5000  1950.0000    26.1894  1499.4460  1567.3201   423.1554  1950.0000    29.7295   376.9384   489.5554   397.0060  1950.0000    27.7182   368.9115  1113.2244   304.4030   443.4640  1252.5490 -9656.4473  7503.2993 14798.8594   116.1412     0.0000    80.1758    80.1758    93.3407     0.0000    79.6374   398.3742    77.9482     0.0493     0.0474     0.0234     0.0000     0.0448     0.0410     0.0754    25.0000    24.5328     0.1885     0.0000  3115.0002     0.0442     0.0850
   8916.0000  1950.0000    28.9591  1427.7393  1703.6642   405.8028  1950.0000    32.6197   364.9236   525.9606   445.3690  1950.0000    33.3707   420.7334  1290.8977   357.3608   473.1845  1078.9375 -9682.1611  7728.4956 14550.3418   116.1412     0.0000    64.1016    64.1016    92.9296     0.0000    81.9455   398.3788    81.9209     0.0435     0.0426     0.0235     0.0000     0.0417     0.0445     0.0462    24.3750    24.5439     0.0790     0.0000  3105.5002     0.0406     0.0789
   8916.5000  1950.0000    32.9110  1295.9316  1597.9792   439.2198  1950.0000    37.2061   237.4729   686.3254   597.4695  1950.0000    37.6323   429.9275  1165.7048   354.5104   567.0956  1257.4512 -9740.8184  8756.6846 14833.3379   116.1412     0.0000    78.7695    78.7695    92.4363     0.0000    83.8231   398.3926    83.9549     0.0481     0.0347     0.0235     0.0000     0.0368     0.0379  -999.2500    24.3750    24.5622     0.1807     0.0000  3103.0000     0.0352     0.0688
   8917.0000  1950.0000    38.8656  1113.6929  1311.9438   486.0683  1950.0000    33.5372   133.7581   996.1245   901.0101  1950.0000    47.1478   427.9922   865.9876   335.9095   754.3153  1435.2750 -9852.6826  8945.9736 15488.6074   116.1412     0.0000   120.7813   120.7813    91.8162     0.0000    85.2768   398.4041    84.5048     0.0348     0.0340     0.0236     0.0000     0.0312     0.0265  -999.2500    24.3750    24.5972     0.3352     0.0000  3094.0000     0.0292     0.0679
   8917.5000  1950.0000    47.7141   924.3846   995.2918   503.2017  1950.0000    44.0570   114.1596  1248.0359  1150.0314  1950.0000    54.9327   410.5417   605.1702   303.0330   931.3333  1584.9683 -9802.3193  9630.6084 15392.2725   116.1412     0.0000   144.1797   144.1797    91.8162     0.0000    87.7226   398.4203    86.6131     0.0291     0.0250     0.0236     0.0000     0.0305     0.0278  -999.2500    24.3750    24.6386     0.3822     0.0000  3091.0000     0.0265     0.0566
   8918.0000  1950.0000    63.0365   752.8649   753.1545   509.3401  1950.0000    90.8438   213.7835  1700.6859  1456.5671  1950.0000    82.7256   297.5559   560.6747   227.9821  1016.5455  1781.5430 -9708.3496  9787.0361 16215.9727   116.1412     0.0000   143.0859   143.0859    91.5635     0.0000    89.5395   398.4387    91.1925     0.0223     0.0267     0.0237     0.0000     0.0256     0.0216  -999.2500    24.3750    24.6877     0.3804     0.0000  3099.0000     0.0246     0.0587
   8918.5000  1950.0000    88.0359   621.8168   584.9135   440.8071  1950.0000   290.8128   651.7769  1290.8333  1181.5100  1950.0000   138.7146   278.9565   293.0827   322.7381  1110.9313  1766.8154 -9753.1924 10454.8408 15478.5088   116.1412     0.0000   138.3008   138.3008    91.6615     0.0000    91.8127   398.4249    90.1762     0.0272     0.0192     0.0238     0.0000     0.0234     0.0337  -999.2500    24.3750    24.7568     0.3719     0.0000  3105.0000     0.0206     0.0493
   8919.0000  1950.0000   131.2853   551.3554   441.1039   381.7874  1950.0000  1308.2151   744.0328  1394.0947  1248.6458  1950.0000   246.8199   412.8571   397.9764   293.3634  1221.5973  1871.8154 -9862.5186 11724.3604 17345.0410   116.1412     0.0000   123.2031   123.2031    91.6773     0.0000    93.8529   398.4571    93.7045     0.0202     0.0183     0.0238     0.0000     0.0183     0.0138  -999.2500    24.3750    24.8375     0.3409     0.0000  3111.0000     0.0162     0.0482
   8919.5000  1950.0000   211.3168   540.2417   388.3457   412.7856  1950.0000   746.4465   334.3359  1569.3998  1316.5944  1950.0000   830.5444   598.7864   332.1813   446.8501  1338.3320  1838.5990 -9816.5410 12812.9424 17746.7168   116.1412     0.0000   120.1302   120.1302    91.4335     0.0000    97.4191   398.4594    97.2744     0.0170     0.0133     0.0239     0.0000     0.0169     0.0097  -999.2500    24.3750    24.9386     0.3336     0.0000  3107.5002     0.0115     0.0421
   8920.0000  1950.0000   350.5062   526.8336   416.0104   486.5810  1950.0000   500.6430   178.3652  1519.9949  1430.4106  1950.0000  1490.5295   501.6372   314.8082   360.9947  1385.1456  1852.2827 -9725.5918 13439.9766 18895.7480   116.1412     0.0000   136.7969   136.7969    90.8936     0.0000   102.1152   398.5215    99.3484     0.0073     0.0124     0.0240     0.0000     0.0143     0.0018     0.3725    24.3750    25.0294     0.3691     0.0000  3097.0000     0.0099     0.0411
   8920.5000  1950.0000   518.3162   443.9564   492.8478   552.8663  1950.0000   872.6263   230.5565  1676.2819  1640.6108  1950.0000  1275.8477   364.0900   320.6318   330.5374  1418.7113  1880.5228 -9723.3994 13818.9326 18455.9590   116.1412     0.0000    35.0000    35.0000    91.0234     0.0000   107.1393   398.5031   106.4093     0.0092     0.0084     0.0240     0.0000     0.0136     0.0087     0.4132    25.0000    25.1162    -0.3750     0.0000  3094.5000     0.0092     0.0362
   8921.0000  1950.0000   574.3240   373.0864   699.6782   701.5399  1950.0000  1950.0000   341.5700  1950.0000  1950.0000  1950.0000  1124.0109   377.9949   362.0937   354.7321  1677.1636  1950.0000 -9702.3057 13687.3379 18436.3613   116.1412     0.0000    35.0000    35.0000    91.0234     0.0000   112.6261   398.5445   112.2137     0.0095     0.0093     0.0240     0.0000     0.0132     0.0121     0.4132    25.0000    25.1666    -0.3750     0.0000  3085.0000     0.0102     0.0373
   8921.5000  1950.0000   435.6602   347.3657   974.3047  1323.9044  1950.0000  1950.0000   438.4709  1223.6661  1168.0198  1950.0000   725.0736   334.8394   539.8909   416.6904   999.6855  1950.0000 -9699.4629 13357.1934 18513.3945   116.1412     0.0000    35.0000    35.0000    91.0353     0.0000   117.1183   398.5353   116.0264     0.0117     0.0114     0.0240     0.0000     0.0121     0.0068     0.4133    25.6250    25.2247    -0.3750     0.0000  3085.0000     0.0078     0.0399
   8922.0000  1950.0000   275.3794   335.0261  1068.0374  1826.5156  1950.0000  1950.0000   407.6096   731.0412   695.0685  1950.0000   432.2316   321.9826   977.7546   577.0090   612.8002  1882.1779 -9687.7305 14693.2744 18713.9590   116.1412     0.0000    94.5703    94.5703    90.8585     0.0000   122.6870   398.5859   120.9998     0.0063     0.0071     0.0241     0.0000     0.0097     0.0024  -999.2500    25.6250    25.2593     0.2549     0.0000  3082.0000     0.0057     0.0346
