~VERSION INFORMATION
VERS.           1.2   :CWLS Log ASCII Standard - VERSION 1.2
WRAP.           NO    :One Line per depth step
PROD.  Schlumberger   :LAS Producer
PROG.  DLIS to ASCII 2.3                               :LAS Program name and version
CREA.        2021/07/30 13:36                          :LAS Creation date {YYYY/MM/DD hh:mm}
DLIS_CREA.  2021-Jul-30 07:07                          :DLIS Creation date and time {YYYY-MMM-DD hh:mm}
SOURCE.     e39621fc-7919-4a62-8a2a-6ee9c8654461       :DLIS File Name
#--------------------------------------------------
~WELL INFORMATION
#MNEM.UNIT      DATA             DESCRIPTION
#---- ------ --------------   -----------------------------
STRT .F      8527.5000       :START DEPTH     
STOP .F      9107.0000       :STOP DEPTH     
STEP .F       0.5000         :STEP       
NULL .          -999.25      :NULL VALUE
COMP .                 COMPANY:  University Of Utah                 
WELL .                    WELL:  FORGE 78B-32                       
FLD  .                   FIELD:  None                               
LOC  .                LOCATION:  Lat: 38.500171, Long: -112.88221   
CNTY .                  COUNTY:  Beaver                             
STAT .                   STATE:  Utah                               
CTRY .                 COUNTRY:                                     
SRVC .         SERVICE COMPANY:  Schlumberger                       
LATI .DEG             LATITUDE:  38 30' 0.616" N                   
LONG .DEG            LONGITUDE:  112 52' 55.956" W                 
API  .              API NUMBER:  NRC 42-00090-03                    
DATE .                LOG DATE:  30-Jul-2021
UWI  .          UNIQUE WELL ID:                                     
#-----------------------------------------------------------------------------
~PARAMETER INFORMATION
#MNEM.UNIT    VALUE                      DESCRIPTION
#---- -----   --------------------       ------------------------
CN   .        University Of Utah         :Company Name
WN   .        FORGE 78B-32               :Well Name
FN   .        None                       :Field Name
FL   .        Lat  38.500171  Long  -112.88221 :Field Location
FL1  .                                   :Field Location, Line 1
COUN .        Beaver                     :County or Parish
STAT .        Utah                       :State or Province
NATI .                                   :Nation
DATE .        30-Jul-2021                :Tools Above Rotary Table Date
APIN .        NRC 42-00090-03            :API Well Number
SECT .                                   :Section
TOWN .                                   :Township
RANG .                                   :Range
DMF  .        KB                         :Drilling Measured From (Name of Drilling Elevation Reference)
LMF  .        KB                         :Logging Measured From (Name of Logging Elevation Reference)
PDAT .        GL                         :Permanent Datum
ENGI .        CSTILES                    :Engineer s Name
WITN .        Virgil  Welch              :Witness s Name
LATI .        38� 30' 0.616  N           :Latitude
LONG .        112� 52' 55.956  W         :Longitude
LUL  .        F.Morgan                   :Logging Unit Location
LUN  .        9108                       :Logging Unit Number
RUN  .        1B                         :Run Number
SON  .                                   :Service Order Number
BHT  .DEGF     419.00000                 :Bottom Hole Temperature
BS   .IN         5.75000                 :Bit Size
MDEN .G/C3       2.71000                 :Matrix Density for Density Porosity
DFD  .LB/G       8.30000                 :Drilling Fluid Density
DFV  .S         24.00000                 :Drilling Fluid Viscosity
DFL  .C3      -999.25000                 :Drilling Fluid Loss
RMFS .OHMM       4.42000                 :Resistivity of Mud Filtrate Sample
EKB  .F       5565.50000                 :Elevation of Kelly Bushing
EGL  .F       5536.00000                 :Elevation of Ground Level
BLI  .F       9532.00000                 :Bottom Log Interval
BSAL .PPM      700.00000                 :Borehole Salinity
FLEV .F          8.00000                 :Depth of Drilling Fluid Level to LMF (Log Measured From)
MCST .DEGF      62.00000                 :Mudcake Sample Temperature
MFST .DEGF      62.00000                 :Mud Filtrate Sample Temperature
MRT  .DEGF     419.00000                 :Maximum Recorded Temperature
MST  .DEGF      62.00000                 :Mud Sample Temperature
RMCS .OHMM       6.21000                 :Resistivity of Mud Cake Sample
RMS  .OHMM       5.20000                 :Resistivity of Mud Sample
RW   .OHMM       1.00000                 :Connate Water Resistivity
TDD  .F       9500.00000                 :Driller Total Depth
TDL  .F       9532.00000                 :Logger Total Depth
TLI  .F       8530.00000                 :Top Log Interval
HIDE .                                   :Header Identifier
MATR .        LIME                       :Rock Matrix for Neutron Porosity Corrections
FNUM .           1.00000                 :F-Numerator for Formation Factor Formula
FEXP .           2.00000                 :Exponent "m" for Formation Factor Formula
DFT  .        WATER                      :Drilling Fluid Type
DFPH .          11.00000                 :Drilling Fluid pH
MCSS .        Calculated                 :Mudcake Sample Source
MFSS .        Calculated                 :Mud Filtrate Sample Source
FD   .G/C3       1.00000                 :Fluid Density
MSS  .        Flowline                   :Mud Sample Source
OS1  .                                   :Other Services Line 1
OS2  .                                   :Other Services Line 2
OS3  .                                   :Other Services Line 3
OS4  .                                   :Other Services Line 4
OS5  .                                   :Other Services Line 5
R1   .                                   :Remarks Line 1
R2   .                                   :Remarks Line 2
R3   .                                   :Remarks Line 3
R4   .                                   :Remarks Line 4
R5   .                                   :Remarks Line 5
R6   .        Tool was run as per tool sketch :Remarks Line 6
R7   .        All logging intervals as per client request :Remarks Line 7
R8   .                                   :Remarks Line 8
TCS  .        20 00 00                   :Time Circulation Stopped
TLAB .        02 17 00                   :Time Logger At Bottom
NMT  .        NOBARITE                   :HRDD Mud Type for Nuclear Devices
EPD  .C3         5536.000000             :Elevation of Permanent Datum above Mean Sea Level
APD  .F          29.500000               :Elevation of Depth Reference (LMF) above Permanent Datum
#-----------------------------------------------------------------------------
~CURVE INFORMATION
#MNEM.UNIT   API CODE                                  DESCRIPTION
#---- -----  --------                                  -----------------------
DEPT .F                                                :DEPTH (BOREHOLE) {F12.4}
AF10 .OHMM                                             :Array Induction Four Foot Resistivity A10 {F11.4}
AF20 .OHMM                                             :Array Induction Four Foot Resistivity A20 {F11.4}
AF30 .OHMM                                             :Array Induction Four Foot Resistivity A30 {F11.4}
AF60 .OHMM                                             :Array Induction Four Foot Resistivity A60 {F11.4}
AF90 .OHMM                                             :Array Induction Four Foot Resistivity A90 {F11.4}
AO10 .OHMM                                             :Array Induction One Foot Resistivity A10 {F11.4}
AO20 .OHMM                                             :Array Induction One Foot Resistivity A20 {F11.4}
AO30 .OHMM                                             :Array Induction One Foot Resistivity A30 {F11.4}
AO60 .OHMM                                             :Array Induction One Foot Resistivity A60 {F11.4}
AO90 .OHMM                                             :Array Induction One Foot Resistivity A90 {F11.4}
AT10 .OHMM                                             :Array Induction Two Foot Resistivity A10 {F11.4}
AT20 .OHMM                                             :Array Induction Two Foot Resistivity A20 {F11.4}
AT30 .OHMM                                             :Array Induction Two Foot Resistivity A30 {F11.4}
AT60 .OHMM                                             :Array Induction Two Foot Resistivity A60 {F11.4}
AT90 .OHMM                                             :Array Induction Two Foot Resistivity A90 {F11.4}
AORT .OHMM                                             :Array Induction One Foot Rt {F11.4}
AORX .OHMM                                             :Array Induction One Foot Rxo {F11.4}
CDF  .LBF                                              :Calibrated Downhole Force {F11.4}
CFTC .HZ                                               :Corrected Far Thermal Count Rate {F11.4}
CNTC .HZ                                               :Corrected Near Thermal Count Rate {F11.4}
CTEM .DEGF                                             :Cartridge Temperature {F11.4}
DCAL .IN                                               :Differential Caliper {F11.4}
DT   .US/F                                             :Delta-T (also called Slowness or Interval Transit Time) {F11.4}
DTCO .US/F                                             :Delta-T Compressional {F11.4}
DTSM .US/F                                             :Delta-T Shear {F11.4}
ED   .F                                                :East Departure {F11.4}
GR_STGC.GAPI                                           :Gamma Ray {F11.4}
GTEM .DEGF                                             :Generalized Borehole Temperature {F11.4}
HGR_STGC.GAPI                                          :High Resolution Gamma Ray {F11.4}
HNPO .CFCF                                             :High Resolution Enhanced Thermal Neutron Porosity in Selected Lithology {F11.4}
HTNP .CFCF                                             :High Resolution Thermal Neutron Porosity (Ratio Method) in Selected Lithology {F11.4}
ITT  .S                                                :Integrated Transit Time {F11.4}
ND   .F                                                :North Departure {F11.4}
NPHI .CFCF                                             :Thermal Neutron Porosity (original Ratio Method) in Selected Lithology {F11.4}
NPOR .CFCF                                             :Enhanced Thermal Neutron Porosity in Selected Lithology {F11.4}
PR   .                                                 :Poisson s Ratio {F11.4}
SP   .MV                                               :Spontaneous Potential {F11.4}
SPAR .MV                                               :SP, Armor Return Compensated {F11.4}
SPHI .CFCF                                             :Sonic Porosity {F11.4}
STIT .F                                                :Stuck Tool Indicator, Total {F11.4}
TENS .LBF                                              :Cable Tension {F11.4}
TNPH .CFCF                                             :Thermal Neutron Porosity (Ratio Method) in Selected Lithology {F11.4}
HTNP_SAN.CFCF                                          :HiRes Thermal Neutron Porosity (matrix Sandstone) {F11.4}
#-----------------------------------------------------------------------------
# 
#      DEPT        AF10       AF20       AF30       AF60       AF90       AO10       AO20       AO30       AO60       AO90       AT10       AT20       AT30       AT60       AT90       AORT       AORX       CDF        CFTC       CNTC       CTEM       DCAL        DT        DTCO       DTSM        ED      GR_STGC      GTEM     HGR_STGC     HNPO       HTNP       ITT         ND        NPHI       NPOR        PR         SP        SPAR       SPHI       STIT       TENS       TNPH     HTNP_SAN
#
~A  
# ...
   9063.0000    46.2168    64.2706  1950.0000  1950.0000  1950.0000    40.5999    63.8723  1305.5875   133.9345   134.5887    43.8085    70.1321  1753.7115  1598.1124   616.9601   133.9345    39.9069 -8850.3154 14033.4795 20028.9551   108.2353     0.0000  -999.2500  -999.2500    88.9168     0.0000   128.8412   419.0000   129.5387  -999.2500  -999.2500  -999.2500     0.0000  -999.2500     0.0125  -999.2500    16.4844    16.5265  -999.2500     0.0000  4282.4287     0.0131  -999.2500
   9063.5000    48.9170    74.1443  1950.0000  1950.0000  1950.0000    41.9580    84.4470   926.7827   113.0857   115.3262    45.4141    90.2275  1919.0533  1884.9150   644.5089   113.0857    41.6951 -8884.3926 14033.4795 20028.9551   108.2353     0.0000  -999.2500  -999.2500    88.9168     0.0000   128.8412   419.0000   129.5387  -999.2500  -999.2500  -999.2500     0.0000  -999.2500     0.0125  -999.2500    16.8750    16.6816  -999.2500     0.0000  4274.1426     0.0131  -999.2500
   9064.0000    52.4197    86.9170  1950.0000  1950.0000  1950.0000    42.1804   170.7968   910.6976   102.5040   105.6865    47.4244   123.7626  1950.0000  1946.7596   635.7498   102.5040    42.7729 -8858.4297 14033.4795 20028.9551   108.2353     0.0000  -999.2500  -999.2500    88.9168     0.0000   128.8412   419.0000   129.5387  -999.2500  -999.2500  -999.2500     0.0000  -999.2500     0.0125  -999.2500    16.8750    16.8175  -999.2500     0.0000  4297.5000     0.0131  -999.2500
   9064.5000    57.1879   100.3564  1950.0000  1950.0000  1950.0000    44.2108   340.8691   789.8986    90.9765    93.4774    50.6684   169.1382  1950.0000  1943.9181   989.3500    90.9765    45.6056 -8868.5410 14033.4795 20028.9551   108.2353     0.0000  -999.2500  -999.2500    88.9168     0.0000   128.8412   419.0000   129.5387  -999.2500  -999.2500  -999.2500     0.0000  -999.2500     0.0125  -999.2500    16.8750    16.9260  -999.2500     0.0000  4324.2856     0.0131  -999.2500
   9065.0000    63.8822   110.4584  1950.0000  1950.0000  1950.0000    45.7759   444.5073   689.0850    77.7853    79.8135    55.9593   202.0803  1950.0000  1950.0000   397.2756    77.7853    47.0230 -8942.9932 14033.4795 20028.9551   108.2353     0.0000  -999.2500  -999.2500    88.9168     0.0000   128.8412   419.0000   129.5387  -999.2500  -999.2500  -999.2500     0.0000  -999.2500     0.0125  -999.2500    16.8750    17.0266  -999.2500     0.0000  4334.7144     0.0131  -999.2500
   9065.5000    73.4022   114.4346  1950.0000  1950.0000  1950.0000    46.3453   327.8484   565.0250    85.1412    87.3724    64.4552   193.0028  1950.0000  1533.2383   305.6282    85.1412    57.5113 -8898.5322 14033.4795 20028.9551   108.2353     0.0000  -999.2500  -999.2500    88.9168     0.0000   128.8412   419.0000   129.5387  -999.2500  -999.2500  -999.2500     0.0000  -999.2500     0.0125  -999.2500    16.8750    17.1236  -999.2500     0.0000  4354.7505     0.0131  -999.2500
   9066.0000    87.0888   113.5773  1950.0000  1950.0000  1950.0000    62.2008   190.9806   641.2039   108.0163   111.2885    77.8611   161.0281  1950.0000  1001.6472   416.5268   108.0163    62.3086 -8926.3193 14033.4795 20028.9551   108.2353     0.0000  -999.2500  -999.2500    88.9168     0.0000   128.8412   419.0000   129.5387  -999.2500  -999.2500  -999.2500     0.0000  -999.2500     0.0125  -999.2500    16.8750    17.2076  -999.2500     0.0000  4392.8574     0.0131  -999.2500
   9066.5000   107.1634   111.5914  1950.0000  1847.9048  1950.0000   104.5867   125.2980   363.9804   101.1398   104.3934    98.3740   134.3600  1934.2142   703.1341   407.5857   101.1398    94.6158 -8933.9443 14033.4795 20028.9551   108.2353     0.0000  -999.2500  -999.2500    88.9168     0.0000   128.8412   419.0000   129.5387  -999.2500  -999.2500  -999.2500     0.0000  -999.2500     0.0125  -999.2500    17.2656    17.2828  -999.2500     0.0000  4341.1426     0.0131  -999.2500
   9067.0000   137.6249   111.3638  1950.0000  1634.2921  1835.1128   178.2805    94.6268   201.4408   103.6898   106.6816   127.9775   120.6685  1777.5071   575.7833   409.4314   103.6898   117.8443 -8972.4873 14033.4795 20028.9551   108.2353     0.0000  -999.2500  -999.2500    88.9168     0.0000   128.8412   419.0000   129.5387  -999.2500  -999.2500  -999.2500     0.0000  -999.2500     0.0125  -999.2500    17.5000    17.3542  -999.2500     0.0000  4347.8750     0.0131  -999.2500
   9067.5000   185.9837   113.7108  1950.0000  1328.1238  1593.1665   128.2994    88.2387   133.1436    68.5418    69.9441   168.9891   118.0132  1505.0294   362.7115   327.1541    68.5418   110.7922 -8892.6201 14033.4795 20028.9551   108.2353     0.0000  -999.2500  -999.2500    88.9168     0.0000   128.8412   419.0000   129.5387  -999.2500  -999.2500  -999.2500     0.0000  -999.2500     0.0125  -999.2500    17.5000    17.4429  -999.2500     0.0000  4332.5713     0.0131  -999.2500
   9068.0000   266.4800   117.2403  1950.0000  1048.8590  1297.5897    83.5202    76.6646    89.2905    48.6106    49.3070   227.0731   121.1179  1200.5953   379.4060   346.8493    48.6106    98.9671 -8972.3965 14033.4795 20028.9551   108.2353     0.0000  -999.2500  -999.2500    88.9168     0.0000   128.8412   419.0000   129.5387  -999.2500  -999.2500  -999.2500     0.0000  -999.2500     0.0125  -999.2500    17.8906    17.5273  -999.2500     0.0000  4301.5000     0.0131  -999.2500
   9068.5000   405.2136   118.6890  1899.0411   799.4346   967.8137    70.6598    52.7471    71.7833    33.8668    34.0578   282.3959   120.9048  1010.9187   337.8777   324.4340    33.8668    83.2853 -8922.6025 14033.4795 20028.9551   108.2353     0.0000  -999.2500  -999.2500    88.9168     0.0000   128.8412   419.0000   129.5387  -999.2500  -999.2500  -999.2500     0.0000  -999.2500     0.0125  -999.2500    17.6563    17.6306  -999.2500     0.0000  4280.7144     0.0131  -999.2500
   9069.0000   642.0505   114.9281  1813.5881   598.8936   704.9372   141.1673    78.2359    75.3984    40.9286    41.2744   408.6425   107.9869  1198.4305   291.1466   268.8496    39.8800    92.9475 -8914.5420 14033.4795 20028.9551   108.2353     0.0000  -999.2500  -999.2500    88.9168     0.0000   128.8412   419.0000   129.5387  -999.2500  -999.2500  -999.2500     0.0000  -999.2500     0.0125  -999.2500    17.7679    17.7502  -999.2500     0.0000  4282.1426     0.0131  -999.2500
   9069.5000  1039.2428   106.1064  1707.3683   473.2373   515.4526    77.8505    29.2015    27.3059    21.5396    21.6159   432.9122    91.0367   680.8069   133.0132   128.9378    21.5396    78.2955 -8947.3955 14033.4795 20028.9551   108.2353     0.0000  -999.2500  -999.2500    88.9168     0.0000   128.8412   419.0000   129.5387  -999.2500  -999.2500  -999.2500     0.0000  -999.2500     0.0125  -999.2500    17.5781    17.8933  -999.2500     0.0000  4286.2505     0.0131  -999.2500
   9070.0000  1373.5249    95.3618  1609.1068   427.3833   389.0835    39.1794    10.2254    10.3524     9.1410     9.1590   613.3865    70.3401   333.4345   176.2182   141.3628    10.0775    60.7150 -9033.5762 14033.4795 20028.9551   108.2353     0.0000  -999.2500  -999.2500    88.9168     0.0000   128.8412   419.0000   129.5387  -999.2500  -999.2500  -999.2500     0.0000  -999.2500     0.0125  -999.2500    18.0469    18.0262  -999.2500     0.0000  4317.5718     0.0131  -999.2500
   9070.5000  1631.5436    86.5758  1496.5172   381.6883   299.1158    75.0994    26.8815    32.6990    25.5772    25.6622   428.3189    70.6307   449.6657   226.6395   184.2000    25.5772    81.2339 -9042.5459 14033.4795 20028.9551   108.2353     0.0000  -999.2500  -999.2500    88.9168     0.0000   128.8412   419.0000   129.5387  -999.2500  -999.2500  -999.2500     0.0000  -999.2500     0.0125  -999.2500    17.7344    18.2201  -999.2500     0.0000  4328.1431     0.0131  -999.2500
   9071.0000  1875.2717    82.2206  1527.0525   436.8090   288.1199   149.2344    34.3017    57.4766    34.1572    34.3225  1499.1831    74.0055   521.0176   302.8504   204.5051    32.4773   112.4032 -8962.2012 14033.4795 20028.9551   108.2353     0.0000  -999.2500  -999.2500    88.9168     0.0000   128.8412   419.0000   129.5387  -999.2500  -999.2500  -999.2500     0.0000  -999.2500     0.0125  -999.2500    18.2813    18.4160  -999.2500     0.0000  4369.6250     0.0131  -999.2500
