~VERSION INFORMATION
VERS.           1.2   :CWLS Log ASCII Standard - VERSION 1.2
WRAP.           NO    :One Line per depth step
PROD.  Schlumberger   :LAS Producer
PROG.  DLIS to ASCII 2.3                               :LAS Program name and version
CREA.        2021/07/30 13:36                          :LAS Creation date {YYYY/MM/DD hh:mm}
DLIS_CREA.  2021-Jul-30 07:07                          :DLIS Creation date and time {YYYY-MMM-DD hh:mm}
SOURCE.     e39621fc-7919-4a62-8a2a-6ee9c8654461       :DLIS File Name
#--------------------------------------------------
~WELL INFORMATION
#MNEM.UNIT      DATA             DESCRIPTION
#---- ------ --------------   -----------------------------
STRT .F      8527.5000       :START DEPTH     
STOP .F      9107.0000       :STOP DEPTH     
STEP .F       0.5000         :STEP       
NULL .          -999.25      :NULL VALUE
COMP .                 COMPANY:  University Of Utah                 
WELL .                    WELL:  FORGE 78B-32                       
FLD  .                   FIELD:  None                               
LOC  .                LOCATION:  Lat: 38.500171, Long: -112.88221   
CNTY .                  COUNTY:  Beaver                             
STAT .                   STATE:  Utah                               
CTRY .                 COUNTRY:                                     
SRVC .         SERVICE COMPANY:  Schlumberger                       
LATI .DEG             LATITUDE:  38 30' 0.616" N                   
LONG .DEG            LONGITUDE:  112 52' 55.956" W                 
API  .              API NUMBER:  NRC 42-00090-03                    
DATE .                LOG DATE:  30-Jul-2021
UWI  .          UNIQUE WELL ID:                                     
#-----------------------------------------------------------------------------
~PARAMETER INFORMATION
#MNEM.UNIT    VALUE                      DESCRIPTION
#---- -----   --------------------       ------------------------
CN   .        University Of Utah         :Company Name
WN   .        FORGE 78B-32               :Well Name
FN   .        None                       :Field Name
FL   .        Lat  38.500171  Long  -112.88221 :Field Location
FL1  .                                   :Field Location, Line 1
COUN .        Beaver                     :County or Parish
STAT .        Utah                       :State or Province
NATI .                                   :Nation
DATE .        30-Jul-2021                :Tools Above Rotary Table Date
APIN .        NRC 42-00090-03            :API Well Number
SECT .                                   :Section
TOWN .                                   :Township
RANG .                                   :Range
DMF  .        KB                         :Drilling Measured From (Name of Drilling Elevation Reference)
LMF  .        KB                         :Logging Measured From (Name of Logging Elevation Reference)
PDAT .        GL                         :Permanent Datum
ENGI .        CSTILES                    :Engineer s Name
WITN .        Virgil  Welch              :Witness s Name
LATI .        38� 30' 0.616  N           :Latitude
LONG .        112� 52' 55.956  W         :Longitude
LUL  .        F.Morgan                   :Logging Unit Location
LUN  .        9108                       :Logging Unit Number
RUN  .        1B                         :Run Number
SON  .                                   :Service Order Number
BHT  .DEGF     419.00000                 :Bottom Hole Temperature
BS   .IN         5.75000                 :Bit Size
MDEN .G/C3       2.71000                 :Matrix Density for Density Porosity
DFD  .LB/G       8.30000                 :Drilling Fluid Density
DFV  .S         24.00000                 :Drilling Fluid Viscosity
DFL  .C3      -999.25000                 :Drilling Fluid Loss
RMFS .OHMM       4.42000                 :Resistivity of Mud Filtrate Sample
EKB  .F       5565.50000                 :Elevation of Kelly Bushing
EGL  .F       5536.00000                 :Elevation of Ground Level
BLI  .F       9532.00000                 :Bottom Log Interval
BSAL .PPM      700.00000                 :Borehole Salinity
FLEV .F          8.00000                 :Depth of Drilling Fluid Level to LMF (Log Measured From)
MCST .DEGF      62.00000                 :Mudcake Sample Temperature
MFST .DEGF      62.00000                 :Mud Filtrate Sample Temperature
MRT  .DEGF     419.00000                 :Maximum Recorded Temperature
MST  .DEGF      62.00000                 :Mud Sample Temperature
RMCS .OHMM       6.21000                 :Resistivity of Mud Cake Sample
RMS  .OHMM       5.20000                 :Resistivity of Mud Sample
RW   .OHMM       1.00000                 :Connate Water Resistivity
TDD  .F       9500.00000                 :Driller Total Depth
TDL  .F       9532.00000                 :Logger Total Depth
TLI  .F       8530.00000                 :Top Log Interval
HIDE .                                   :Header Identifier
MATR .        LIME                       :Rock Matrix for Neutron Porosity Corrections
FNUM .           1.00000                 :F-Numerator for Formation Factor Formula
FEXP .           2.00000                 :Exponent "m" for Formation Factor Formula
DFT  .        WATER                      :Drilling Fluid Type
DFPH .          11.00000                 :Drilling Fluid pH
MCSS .        Calculated                 :Mudcake Sample Source
MFSS .        Calculated                 :Mud Filtrate Sample Source
FD   .G/C3       1.00000                 :Fluid Density
MSS  .        Flowline                   :Mud Sample Source
OS1  .                                   :Other Services Line 1
OS2  .                                   :Other Services Line 2
OS3  .                                   :Other Services Line 3
OS4  .                                   :Other Services Line 4
OS5  .                                   :Other Services Line 5
R1   .                                   :Remarks Line 1
R2   .                                   :Remarks Line 2
R3   .                                   :Remarks Line 3
R4   .                                   :Remarks Line 4
R5   .                                   :Remarks Line 5
R6   .        Tool was run as per tool sketch :Remarks Line 6
R7   .        All logging intervals as per client request :Remarks Line 7
R8   .                                   :Remarks Line 8
TCS  .        20 00 00                   :Time Circulation Stopped
TLAB .        02 17 00                   :Time Logger At Bottom
NMT  .        NOBARITE                   :HRDD Mud Type for Nuclear Devices
EPD  .C3         5536.000000             :Elevation of Permanent Datum above Mean Sea Level
APD  .F          29.500000               :Elevation of Depth Reference (LMF) above Permanent Datum
#-----------------------------------------------------------------------------
~CURVE INFORMATION
#MNEM.UNIT   API CODE                                  DESCRIPTION
#---- -----  --------                                  -----------------------
DEPT .F                                                :DEPTH (BOREHOLE) {F12.4}
AF10 .OHMM                                             :Array Induction Four Foot Resistivity A10 {F11.4}
AF20 .OHMM                                             :Array Induction Four Foot Resistivity A20 {F11.4}
AF30 .OHMM                                             :Array Induction Four Foot Resistivity A30 {F11.4}
AF60 .OHMM                                             :Array Induction Four Foot Resistivity A60 {F11.4}
AF90 .OHMM                                             :Array Induction Four Foot Resistivity A90 {F11.4}
AO10 .OHMM                                             :Array Induction One Foot Resistivity A10 {F11.4}
AO20 .OHMM                                             :Array Induction One Foot Resistivity A20 {F11.4}
AO30 .OHMM                                             :Array Induction One Foot Resistivity A30 {F11.4}
AO60 .OHMM                                             :Array Induction One Foot Resistivity A60 {F11.4}
AO90 .OHMM                                             :Array Induction One Foot Resistivity A90 {F11.4}
AT10 .OHMM                                             :Array Induction Two Foot Resistivity A10 {F11.4}
AT20 .OHMM                                             :Array Induction Two Foot Resistivity A20 {F11.4}
AT30 .OHMM                                             :Array Induction Two Foot Resistivity A30 {F11.4}
AT60 .OHMM                                             :Array Induction Two Foot Resistivity A60 {F11.4}
AT90 .OHMM                                             :Array Induction Two Foot Resistivity A90 {F11.4}
AORT .OHMM                                             :Array Induction One Foot Rt {F11.4}
AORX .OHMM                                             :Array Induction One Foot Rxo {F11.4}
CDF  .LBF                                              :Calibrated Downhole Force {F11.4}
CFTC .HZ                                               :Corrected Far Thermal Count Rate {F11.4}
CNTC .HZ                                               :Corrected Near Thermal Count Rate {F11.4}
CTEM .DEGF                                             :Cartridge Temperature {F11.4}
DCAL .IN                                               :Differential Caliper {F11.4}
DT   .US/F                                             :Delta-T (also called Slowness or Interval Transit Time) {F11.4}
DTCO .US/F                                             :Delta-T Compressional {F11.4}
DTSM .US/F                                             :Delta-T Shear {F11.4}
ED   .F                                                :East Departure {F11.4}
GR_STGC.GAPI                                           :Gamma Ray {F11.4}
GTEM .DEGF                                             :Generalized Borehole Temperature {F11.4}
HGR_STGC.GAPI                                          :High Resolution Gamma Ray {F11.4}
HNPO .CFCF                                             :High Resolution Enhanced Thermal Neutron Porosity in Selected Lithology {F11.4}
HTNP .CFCF                                             :High Resolution Thermal Neutron Porosity (Ratio Method) in Selected Lithology {F11.4}
ITT  .S                                                :Integrated Transit Time {F11.4}
ND   .F                                                :North Departure {F11.4}
NPHI .CFCF                                             :Thermal Neutron Porosity (original Ratio Method) in Selected Lithology {F11.4}
NPOR .CFCF                                             :Enhanced Thermal Neutron Porosity in Selected Lithology {F11.4}
PR   .                                                 :Poisson s Ratio {F11.4}
SP   .MV                                               :Spontaneous Potential {F11.4}
SPAR .MV                                               :SP, Armor Return Compensated {F11.4}
SPHI .CFCF                                             :Sonic Porosity {F11.4}
STIT .F                                                :Stuck Tool Indicator, Total {F11.4}
TENS .LBF                                              :Cable Tension {F11.4}
TNPH .CFCF                                             :Thermal Neutron Porosity (Ratio Method) in Selected Lithology {F11.4}
HTNP_SAN.CFCF                                          :HiRes Thermal Neutron Porosity (matrix Sandstone) {F11.4}
#-----------------------------------------------------------------------------
# 
#      DEPT        AF10       AF20       AF30       AF60       AF90       AO10       AO20       AO30       AO60       AO90       AT10       AT20       AT30       AT60       AT90       AORT       AORX       CDF        CFTC       CNTC       CTEM       DCAL        DT        DTCO       DTSM        ED      GR_STGC      GTEM     HGR_STGC     HNPO       HTNP       ITT         ND        NPHI       NPOR        PR         SP        SPAR       SPHI       STIT       TENS       TNPH     HTNP_SAN
#
~A  
# ...
   8714.5000  1950.0000    50.2754   277.2221   246.9266   235.8100  1950.0000    60.5013    67.0793    69.9211    74.0387  1950.0000    48.4406   139.3789   212.3787   153.0519    69.9211   805.6646 -7579.5601 12573.0693 18051.1738   112.1882     0.0000    52.3438    52.3438    92.3844     0.0000    93.7096   395.2476    92.6675     0.0118     0.0142     0.0184     0.0000     0.0170     0.0091     0.2636    24.9609    24.9537    -0.0437     0.0000  4157.6001     0.0129     0.0433
   8715.0000  1950.0000    49.6874   307.3003   280.6336   213.7069  1950.0000    66.8627    47.8480    36.0085    36.7170  1950.0000    47.3871   284.4617   300.2714   333.6855    36.0085   445.1508 -7544.5005 12707.5225 18025.0879   112.1882     0.0000    52.4805    52.4805    91.5729     0.0000   100.1215   395.2417    95.0506     0.0144     0.0132     0.0184     0.0000     0.0166     0.0140     0.2555    25.0000    25.1368    -0.0419     0.0000  4223.8667     0.0132     0.0421
   8715.5000  1950.0000    47.3603   390.7433   392.7919   245.9302  1131.2213    41.9938    35.5382    31.2357    31.6961  1950.0000    49.3577   192.7140   278.4176   218.0093    31.2357   247.0560 -7573.6553 13007.6670 18236.0469   112.1882     0.0000    51.7773    51.7773    90.9592     0.0000   109.0941   395.2467   112.6464     0.0118     0.0123     0.0183     0.0000     0.0147     0.0132     0.2603    25.5515    25.3613    -0.0510     0.0000  4208.8667     0.0116     0.0409
   8716.0000  1950.0000    42.8307   527.3118   525.2751   329.9617  1950.0000    94.0093    87.3898    67.2008    68.6275  1950.0000    58.1289   187.6773   175.4438   160.3878    67.2008   154.7017 -7623.3311 13939.5771 18558.9316   112.1882     0.0000    50.9863    50.9863    90.9832     0.0000   118.2890   395.2430   119.5854     0.0057     0.0082     0.0183     0.0000     0.0144     0.0082     0.2711    25.6250    25.5715    -0.0615     0.0000  4162.1250     0.0100     0.0359
   8716.5000  1950.0000    36.4842   735.2990   708.6662   406.9025   401.2666    54.0034    99.2959   105.9599   110.7333  1950.0000    39.6607   207.3214   251.1588   186.8624    98.9733   139.0383 -7573.0835 13567.1230 18991.6523   112.1882     0.0000    51.3379    51.3379    90.9421     0.0000   126.3289   395.2507   122.6350     0.0106     0.0114     0.0183     0.0000     0.0143     0.0020     0.2661    25.4779    25.7921    -0.0568     0.0000  4114.9336     0.0096     0.0399
   8717.0000  1950.0000    31.3356  1025.7711   818.8505   465.3222    54.5398    22.4944    36.7753    48.5657    50.3875  1950.0000    26.9069   203.1745   305.0384   190.2382    49.1594    84.1160 -7594.1191 13032.6055 18195.6211   112.1882     0.0000    51.4063    51.4063    90.7419     0.0000   130.4570   395.2639   136.7662     0.0122     0.0127     0.0183     0.0000     0.0146     0.0107     0.2637    25.6250    26.0265    -0.0559     0.0000  4170.0630     0.0108     0.0414
   8717.5000  1950.0000    28.2793  1344.6533   738.7831   453.7615    32.7148    14.7796    55.7822   101.9165   105.9969  1950.0000    19.5884   140.4784   313.4657   135.8495   101.9165    84.4656 -7560.2441 13054.8564 17580.9199   112.1882     0.0000    53.2813    53.2813    90.4518     0.0000   130.5290   395.2482   131.9699     0.0126     0.0093     0.0182     0.0000     0.0157     0.0143     0.2343    26.1029    26.2510    -0.0319     0.0000  4221.0000     0.0120     0.0373
   8718.0000  1950.0000    27.5032  1484.4039   546.1830   374.9775    47.6674    14.7260    81.5491   101.4463   104.5863  1950.0000    19.8491   207.6252   235.8943   156.7307   100.1466    89.3238 -7517.4854 12059.3877 17608.0527   112.1882     0.0000    53.3008    53.3008    92.3423     0.0000   119.1541   395.2448   122.8510     0.0118     0.0150     0.0182     0.0000     0.0195     0.0099     0.2502    26.3672    26.4226    -0.0317     0.0000  4218.5625     0.0153     0.0442
   8718.5000  1950.0000    29.2559  1347.9056   391.6723   293.4536    74.0864    16.2333   120.1867    66.6697    68.3178  1950.0000    21.4169   219.4126   162.5793   132.1750    66.6697    93.4277 -7587.0869 10258.6416 16456.6836   112.1882     0.0000    52.2070    52.2070    93.5329     0.0000   116.9133   395.2577   102.6413     0.0239     0.0245     0.0182     0.0000     0.0230     0.0306     0.2737    26.8750    26.5741    -0.0454     0.0000  4166.3330     0.0223     0.0559
   8719.0000  1950.0000    34.3176  1067.8568   293.1989   232.4666   158.4366    19.7200   134.4015    25.7046    26.2197  1950.0000    24.9963   226.2675   118.8183   110.4451    26.0935    97.6688 -7534.9214 10404.4473 15936.4766   112.1882     0.0000    52.9395    52.9395    93.7694     0.0000   113.9894   395.2488   125.2477     0.0282     0.0218     0.0181     0.0000     0.0255     0.0426     0.2661    26.3672    26.6389    -0.0361     0.0000  4085.8125     0.0257     0.0526
   8719.5000  1950.0000    44.7490   816.9428   226.8643   214.6689   239.7729    27.2440   114.8847    44.3178    44.7789  1950.0000    33.5403   227.9801   149.5197   115.3771    44.3178   125.9258 -7519.2314 11232.5938 17858.5254   112.1882     0.0000    52.6953    52.6953    93.7737     0.0000   118.3975   395.2614   114.0793     0.0240     0.0224     0.0181     0.0000     0.0259     0.0174     0.2692    26.4338    26.7487    -0.0392     0.0000  4067.9331     0.0238     0.0533
   8720.0000  1950.0000    62.5639   641.1271   207.5617   224.9794   176.3452    49.6442    61.6506    27.0241    27.2597  1950.0000    47.6077   140.9196    98.3445    85.3327    27.0241   167.4312 -7531.6069 11105.2891 18099.8848   112.1882     0.0000    54.0430    54.0430    93.4576     0.0000   118.9364   395.2528   115.8654     0.0282     0.0278     0.0181     0.0000     0.0260     0.0165     0.2488    26.8750    26.8101    -0.0226     0.0000  4162.4668     0.0215     0.0601
   8720.5000  1950.0000    91.9555   431.9272   256.0658   242.1544   569.6838   131.5161   121.8178    35.5290    35.7768  1950.0000    75.8510   219.6622   206.9435   118.8028    35.5290   260.4573 -7509.0464 11886.1143 18260.5664   112.1882     0.0000    53.7695    53.7695    91.1963     0.0000   118.9530   395.2598   126.8643     0.0181     0.0208     0.0181     0.0000     0.0212     0.0174     0.2336    27.2059    26.8007    -0.0259     0.0000  4219.3125     0.0178     0.0514
   8721.0000  1950.0000   121.9024   402.6331   384.6483   280.2242   668.6896   249.0423   105.1968    47.0546    47.4102  1950.0000   118.2327   279.3276   226.5088   126.7162    47.0546   387.8221 -7505.0649 13643.7402 18233.9473   112.1882     0.0000    53.4570    53.4570    90.2452     0.0000   118.3972   395.2577   114.1293     0.0093     0.0087     0.0180     0.0000     0.0150     0.0147     0.2297    27.3828    26.7708    -0.0297     0.0000  4197.6250     0.0115     0.0366
   8721.5000  1950.0000   120.4434   435.3065   527.6505   426.9930  1093.2910   273.3954   128.7695    67.1707    67.4871  1950.0000   150.2261   688.5090   981.7643   213.0214    67.1707   604.8937 -7435.6489 14442.1611 18682.8750   112.1882     0.0000    52.2168    52.2168    90.0051     0.0000   119.9070   395.2592   114.1979     0.0032     0.0056     0.0180     0.0000     0.0112     0.0068     0.2463    27.2794    26.6726    -0.0453     0.0000  4128.2002     0.0071     0.0329
   8722.0000  1950.0000    91.3960   448.0724   691.8054   578.8131  1594.1293   155.8244   130.2586   122.1160   122.2402  1950.0000   121.2273   439.9631   514.3566   515.3487   122.1160   888.3757 -7443.0923 14527.0605 19270.1563   112.1882     0.0000    52.1387    52.1387    89.9573     0.0000   122.2336   395.2721   131.3938     0.0036     0.0073     0.0180     0.0000     0.0108     0.0007     0.2471    27.0588    26.4995    -0.0463     0.0000  4087.5000     0.0064     0.0350
   8722.5000  1950.0000    66.0667   441.7775   951.0950   748.9673  1950.0000    58.7284    88.9339   183.5866   180.6929  1950.0000    74.6853   384.0143   674.7388   387.0658   183.5866  1234.6619 -7408.2705 14296.9717 18784.6621   112.1882     0.0000    51.3281    51.3281    89.9618     0.0000   123.6642   395.2791   121.1089     0.0121     0.0080     0.0180     0.0000     0.0109     0.0071     0.2587    26.6406    26.3009    -0.0569     0.0000  4175.1333     0.0068     0.0358
