~Version
 VERS              .         2.0                           : CWLS LOG ASCII STANDARD - VERSION 2.0
 WRAP              .         NO                            : ONE LINE PER DEPTH STEP
 DLM               .         SPACE                         : DELIMITING CHARACTER(SPACE TAB OR COMMA)
~Well Information
#_______________________________________________________________________________
#
#PARAMETER_NAME    .UNIT     VALUE                         : DESCRIPTION
#_______________________________________________________________________________
STRT               .ft       7493                          : First reference value
STOP               .ft       9543.25                       : Last reference value
STEP               .ft       0.25                          : Step increment
NULL               .         -9999                         : Missing value
COMP               .         University Of Utah            : Company
WELL               .         FORGE 78B-32                  : Well name
FLD                .         None                          : Field
LOC                .                                       : Location
CNTY               .         Beaver                        : County
STAT               .         Utah                          : State
CTRY               .         USA                           : Country
SRVC               .         Schlumberger                  : Service Company
DATE               .         19-Jul-2021                   : Date
API                .         NRC 42-00090-03               : API number
APD                .ft       29.5                          : Elevation of Depth Reference (LMF) Above Permanent Datum
BHS                .         OPEN                          : Borehole Status (Open or Cased Hole)
BHT                .degF     320.87                        : Bottom Hole Temperature
BLI                .ft       -999.25                       : Bottom Log Interval
BS                 .in       8.75                          : Bit Size
CBDR               .ft       2989                          : Casing Bottom of Driller
CBLO               .ft       2988                          : Logger Casing Shoe Depth
CSIZ               .in       11.75                         : Current Casing Size
CWEI               .lbm/ft   54                            : Casing Weight
DCS                .         19-Jul-2021                   : Date Circulation Stopped
DFD                .lbm/gal  8.3                           : Drilling Fluid Density
DFT                .         WATER                         : Drilling Fluid Type
DLAB               .         19-Jul-2021                   : Date Logger At Bottom
EDF                .ft       5536                          : Elevation of Drill Floor
EGL                .ft       5536                          : Elevation of Ground Level
EKB                .ft       5565.5                        : Elevation of Kelly Bushing
EPD                .ft       5536                          : Elevation of Permanent Datum (PDAT) above Mean Sea Level
LMF                .         KB                            : Logging Measured From (Name of Logging Elevation Reference)
LUL                .         F.Morgan                      : Logging Unit Location
LUN                .         9108                          : Logging Unit Number
LATI               .         38.500171 degrees             : Latitude
LONG               .         -112.88221 degrees            : Longitude
MCST               .degF     68                            : Mudcake Sample Temperature
MFST               .degF     68                            : Mud Filtrate Sample Temperature
MRT                .degF     321.43                        : Maximum Recorded Temperature
MST                .degF     68                            : Mud Sample Temperature
ORIGINALWELLNAME   .         FORGE 78B-32                  : 
PDAT               .         GL                            : Permanent Datum
PRODUCER-CODE      .         440                           : 
PRODUCER-NAME      .         Schlumberger                  : 
RMB                .ohm.m    0.04564156                    : Resistivity of Mud at Bottom Hole Temperature
RMCS               .ohm.m    -999.25                       : Resistivity of Mud Cake Sample
RMFS               .ohm.m    0.15                          : Resistivity of Mud Filtrate Sample
RMS                .ohm.m    0.2                           : Resistivity of Mud Sample
RUN                .         1A                            : Run Number
TCS                .         03_00_00                      : Time Circulation Stopped
TDD                .ft       8540                          : Driller Total Depth
TDL                .ft       8540                          : Logger Total Depth
TLAB               .         07_53_00                      : Time Logger At Bottom
TLI                .ft       -999.25                       : Top Log Interval
~Parameter Information Block
#_______________________________________________________________________________
#
#PARAMETER_NAME    .UNIT     VALUE                         : DESCRIPTION
#_______________________________________________________________________________
SET                .         QSLT                          : 
TLFamily_AT10      .         Resistivity - Induction Array 10: 
TLFamily_AT20      .         Resistivity - Induction Array 20: 
TLFamily_AT30      .         Resistivity - Induction Array 30: 
TLFamily_AT60      .         Resistivity - Induction Array 60: 
TLFamily_AT90      .         Resistivity - Induction Array 90: 
TLFamily_BS        .         Bit Size                      : 
TLFamily_DTCO_FINAL .         Compressional Slowness        : 
TLFamily_DTSH_FINAL .         Shear Slowness                : 
TLFamily_GR_STGC   .         Gamma Ray                     : 
TLFamily_HDAR      .         Borehole Diameter             : 
TLFamily_PR        .         Poisson Ratio (Dynamic)       : 
TLFamily_SPHI      .         Total Porosity                : 
TLFamily_TDEP      .         Measured Depth                : 
TLFamily_TENS      .         Tension                       : 
TLFamily_TNPH      .         Thermal Neutron Porosity      : 
TLFamily_VPVS      .         VpVs (Compressional To Shear) Ratio: 
~Curve Information
#_______________________________________________________________________________
#
#LOGNAME           .UNIT     LOG_ID                        : DESCRIPTION
#_______________________________________________________________________________
TDEP               .ft                                     : Measured Depth 
AT10               .ohm.m                                  : Array Induction Two Foot Resistivity A10 
AT20               .ohm.m                                  : Array Induction Two Foot Resistivity A20 
AT30               .ohm.m                                  : Array Induction Two Foot Resistivity A30 
AT60               .ohm.m                                  : Array Induction Two Foot Resistivity A60 
AT90               .ohm.m                                  : Array Induction Two Foot Resistivity A90 
BS                 .in                                     : Bit Size 
DTCO_FINAL         .us/ft                                  : Compressional Slowness 
DTSH_FINAL         .us/ft                                  : Shear Slowness 
GR_STGC            .gAPI                                   : Gamma Ray 
HDAR               .in                                     : Hole Diameter from Area 
PR                 .unitless                               : Possion's Ratio 
SPHI               .ft3/ft3                                : Total porosity from Sonic 
TENS               .lbf                                    : Cable Tension 
TNPH               .ft3/ft3                                : Thermal Neutron Porosity (Ratio Method) in Selected Lithology 
VPVS               .unitless                               : VpVs Ratio 
~Ascii
# ...
9126       1950       85.96439   143.2714   445.8939   250.61     5.75       53.00728   87.52197   169.6384   5.75       0.2103521  0.0389207  4508.813   0.006870986 1.651131  
9126.25    1950       84.2205    152.5924   470.9872   253.3188   5.75       53.07136   87.35305   162.3997   5.75       0.2074597  0.03937358 4507.844   0.006555195 1.645955  
9126.5     1950       92.64726   161.8142   467.7084   253.2245   5.75       53.05865   87.13321   155.1611   5.75       0.2053344  0.03928375 4506.875   0.006239404 1.642205  
9126.75    1950       180.1245   174.2395   444.826    243.9568   5.75       52.98267   86.88609   153.0761   5.75       0.2040123  0.03874681 4455.795   0.006018914 1.639896  
9127       1950       147.1372   190.2402   418.0477   231.976    5.75       52.87428   86.63897   150.991    5.75       0.2032569  0.03798074 4404.714   0.005798425 1.638584  
9127.25    1950       165.7092   209.4687   413.628    223.9589   5.75       52.7673    86.41913   154.0089   5.75       0.202769   0.03722471 4399.321   0.005422977 1.63774   
9127.5     1950       201.5285   236.4318   429.4474   210.9507   5.75       52.68208   86.25021   157.0268   5.75       0.2024463  0.03662247 4393.929   0.00504753 1.637183  
9127.75    1950       161.4629   233.9637   409.6862   223.1521   5.75       52.61259   86.14226   163.3839   5.75       0.2025103  0.03613136 4416.393   0.00527074 1.637294  
9128       1950       204.9489   244.419    502.0549   192.1557   5.75       52.54565   86.08654   169.741    5.75       0.2031036  0.03565833 4438.857   0.005493951 1.638319  
9128.25    1950       245.4541   408.2582   684.1575   257.2103   5.75       52.48102   86.06593   173.916    5.75       0.2040397  0.03520154 4455.536   0.005771009 1.639944  
9128.5     1950       289.674    448.9251   543.027    252.9681   5.75       52.43178   86.06592   178.0911   5.75       0.2049224  0.03485356 4472.214   0.006048068 1.641484  
9128.75    1950       320.9615   364.4246   419.0495   257.8445   5.75       52.40447   86.08653   178.6177   5.75       0.2056348  0.03466056 4510.214   0.006182221 1.642733  
9129       1950       324.191    277.0155   391.3959   280.1497   5.75       52.38886   86.14225   179.1442   5.75       0.2065168  0.03455026 4548.214   0.006316373 1.644286  
9129.25    1950       315.7638   317.8264   590.1057   210.2547   5.75       52.37745   86.24837   179.7533   5.75       0.2078622  0.03446963 4510.492   0.006480232 1.64667   
9129.5     1950       357.8586   488.2316   884.8748   236.2173   5.75       52.38195   86.41      180.3623   5.75       0.2095093  0.03450144 4472.77    0.006644092 1.649614  
9129.75    1950       300.3524   762.2088   1329.902   376.9292   5.75       52.43309   86.60738   184.4897   5.75       0.2107054  0.03486285 4454.242   0.006807521 1.651769  
9130       1950       199.9513   1250.429   1482.917   695.6088   5.75       52.54927   86.80061   188.6172   5.75       0.2107196  0.03568386 4435.714   0.006970951 1.651795  
9130.25    1950       128.3927   968.9919   946.4619   1070.904   5.75       52.7242    86.94522   192.6882   5.75       0.2091992  0.03692012 4427.536   0.00700247 1.649057  
9130.5     1950       88.25706   543.5667   513.1901   764.4171   5.75       52.93537   87.01131   196.7592   5.75       0.2062002  0.03841252 4419.357   0.007033988 1.643727  
9130.75    1950       65.38609   386.277    405.6391   434.4456   5.75       53.16202   86.99181   198.2408   5.75       0.2019641  0.04001426 4403.607   0.006949571 1.636353  
9131       1950       49.24905   323.2654   377.1943   449.1736   5.75       53.38586   86.89943   199.7224   5.75       0.1968974  0.04159619 4387.857   0.006865153 1.627761  
9131.25    1950       41.23989   163.7719   148.5709   282.386    5.75       53.57921   86.75383   196.6129   5.75       0.1916836  0.0429626  4431.006   0.006938695 1.61917   
9131.5     1950       33.78448   182.5464   187.0284   353.7738   5.75       53.70815   86.57596   193.5034   5.75       0.1871968  0.04387384 4474.154   0.007012237 1.611971  
9131.75    1950       30.25983   159.6455   174.0412   343.9296   5.75       53.74786   86.39483   188.4151   5.75       0.1842967  0.04415451 4470.577   0.006808321 1.607409  
9132       1950       30.67133   193.5864   218.0679   391.3006   5.75       53.70005   86.24292   183.3268   5.75       0.1833989  0.04381661 4467       0.006604405 1.606012  
9132.25    1950       31.55793   233.0705   261.9529   391.4666   5.75       53.58832   86.14042   180.9288   5.75       0.1843211  0.04302701 4464.571   0.006429529 1.607448  
9132.5     1950       32.14901   265.7314   298.0075   389.283    5.75       53.44285   86.08654   178.5308   5.75       0.1864663  0.04199893 4462.143   0.006254653 1.610815  
9132.75    1950       36.08657   286.6147   332.6614   384.9287   5.75       53.29654   86.06408   171.0849   5.75       0.188983   0.04096494 4444.357   0.006082718 1.614815  
9133       1950       41.60249   327.4475   390.1513   386.6898   5.75       53.17373   86.05679   163.639    5.75       0.191214   0.04009702 4426.571   0.005910784 1.618408  
9133.25    1950       43.72877   376.4842   465.0762   404.8536   5.75       53.0806    86.05494   158.7276   5.75       0.1929371  0.03943885 4412.179   0.005720982 1.621213  
9133.5     1950       54.38055   420.2756   561.47     276.4614   5.75       53.00286   86.05309   153.8162   5.75       0.1943639  0.0388895  4397.786   0.005531181 1.623556  
9133.75    1950       63.7802    485.6031   662.7084   191.267    5.75       52.91836   86.04949   147.7799   5.75       0.195889   0.03829231 4405.854   0.005562149 1.62608   
9134       1950       77.39696   856.077    844.2491   241.7557   5.75       52.81801   86.04161   141.7436   5.75       0.197649   0.0375831  4413.923   0.005593116 1.62902   
9134.25    1950       94.48085   1457.364   1640.578   531.2797   5.75       52.71961   86.03265   143.6684   5.75       0.1993508  0.03688772 4432.926   0.00565724 1.631891  
9134.5     1950       112.5203   1705.157   1950       563.4434   5.75       52.64677   86.03976   145.5932   5.75       0.2007571  0.03637291 4451.928   0.005721363 1.634284  
9134.75    1950       126.0723   1485.151   1748.191   497.2091   5.75       52.6042    86.09461   145.9497   5.75       0.2021362  0.0360721  4460.695   0.00638466 1.636649  
9135       1950       125.9291   1008.28    1165.85    436.9652   5.75       52.57372   86.22157   146.3063   5.75       0.2040793  0.0358567  4469.462   0.007047958 1.640013  
9135.25    1950       107.0216   708.0577   705.589    437.839    5.75       52.53605   86.40519   140.0553   5.75       0.2067423  0.03559043 4466.088   0.008669246 1.644684  
9135.5     1950       87.85429   578.8161   1291.919   299.2498   5.75       52.50121   86.59385   133.8044   5.75       0.2093728  0.03534421 4462.714   0.01029053 1.649369  
9135.75    1950       73.34216   344.6325   491.4355   193.63     5.75       52.50396   86.73157   122.6475   5.75       0.2107805  0.03536367 4452.55    0.01272611 1.651905  
9136       1950       59.3245    287.8158   251.3508   204.0041   5.75       52.57641   86.80245   111.4906   5.75       0.2102668  0.0358757  4442.385   0.01516168 1.650977  
9136.25    1950       56.48686   186.6613   229.5568   268.7342   5.75       52.72273   86.83201   100.6149   5.75       0.2080229  0.03690977 4409.157   0.01646303 1.646956  
9136.5     1950       43.84913   208.9273   289.3927   386.3614   5.75       52.91988   86.86636   89.73929   5.75       0.2049141  0.03830301 4375.929   0.01776438 1.641469  
9136.75    1950       42.56824   240.0593   382.6693   424.7488   5.75       53.12858   86.94292   85.37569   5.75       0.2020278  0.03977796 4391.233   0.01736034 1.636462  
9137       1950       42.84592   292.1688   434.8221   467.8537   5.75       53.30777   87.06013   81.01208   5.75       0.2000982  0.04104431 4406.539   0.01695631 1.63316   
9137.25    1950       42.54298   348.126    475.7632   523.5291   5.75       53.43744   87.17901   84.74374   5.75       0.1990738  0.04196073 4409.038   0.01544984 1.631422  
