~Version
 VERS              .         2.0                           : CWLS LOG ASCII STANDARD - VERSION 2.0
 WRAP              .         NO                            : ONE LINE PER DEPTH STEP
 DLM               .         SPACE                         : DELIMITING CHARACTER(SPACE TAB OR COMMA)
~Well Information
#_______________________________________________________________________________
#
#PARAMETER_NAME    .UNIT     VALUE                         : DESCRIPTION
#_______________________________________________________________________________
STRT               .ft       7493                          : First reference value
STOP               .ft       9543.25                       : Last reference value
STEP               .ft       0.25                          : Step increment
NULL               .         -9999                         : Missing value
COMP               .         University Of Utah            : Company
WELL               .         FORGE 78B-32                  : Well name
FLD                .         None                          : Field
LOC                .                                       : Location
CNTY               .         Beaver                        : County
STAT               .         Utah                          : State
CTRY               .         USA                           : Country
SRVC               .         Schlumberger                  : Service Company
DATE               .         19-Jul-2021                   : Date
API                .         NRC 42-00090-03               : API number
APD                .ft       29.5                          : Elevation of Depth Reference (LMF) Above Permanent Datum
BHS                .         OPEN                          : Borehole Status (Open or Cased Hole)
BHT                .degF     320.87                        : Bottom Hole Temperature
BLI                .ft       -999.25                       : Bottom Log Interval
BS                 .in       8.75                          : Bit Size
CBDR               .ft       2989                          : Casing Bottom of Driller
CBLO               .ft       2988                          : Logger Casing Shoe Depth
CSIZ               .in       11.75                         : Current Casing Size
CWEI               .lbm/ft   54                            : Casing Weight
DCS                .         19-Jul-2021                   : Date Circulation Stopped
DFD                .lbm/gal  8.3                           : Drilling Fluid Density
DFT                .         WATER                         : Drilling Fluid Type
DLAB               .         19-Jul-2021                   : Date Logger At Bottom
EDF                .ft       5536                          : Elevation of Drill Floor
EGL                .ft       5536                          : Elevation of Ground Level
EKB                .ft       5565.5                        : Elevation of Kelly Bushing
EPD                .ft       5536                          : Elevation of Permanent Datum (PDAT) above Mean Sea Level
LMF                .         KB                            : Logging Measured From (Name of Logging Elevation Reference)
LUL                .         F.Morgan                      : Logging Unit Location
LUN                .         9108                          : Logging Unit Number
LATI               .         38.500171 degrees             : Latitude
LONG               .         -112.88221 degrees            : Longitude
MCST               .degF     68                            : Mudcake Sample Temperature
MFST               .degF     68                            : Mud Filtrate Sample Temperature
MRT                .degF     321.43                        : Maximum Recorded Temperature
MST                .degF     68                            : Mud Sample Temperature
ORIGINALWELLNAME   .         FORGE 78B-32                  : 
PDAT               .         GL                            : Permanent Datum
PRODUCER-CODE      .         440                           : 
PRODUCER-NAME      .         Schlumberger                  : 
RMB                .ohm.m    0.04564156                    : Resistivity of Mud at Bottom Hole Temperature
RMCS               .ohm.m    -999.25                       : Resistivity of Mud Cake Sample
RMFS               .ohm.m    0.15                          : Resistivity of Mud Filtrate Sample
RMS                .ohm.m    0.2                           : Resistivity of Mud Sample
RUN                .         1A                            : Run Number
TCS                .         03_00_00                      : Time Circulation Stopped
TDD                .ft       8540                          : Driller Total Depth
TDL                .ft       8540                          : Logger Total Depth
TLAB               .         07_53_00                      : Time Logger At Bottom
TLI                .ft       -999.25                       : Top Log Interval
~Parameter Information Block
#_______________________________________________________________________________
#
#PARAMETER_NAME    .UNIT     VALUE                         : DESCRIPTION
#_______________________________________________________________________________
SET                .         QSLT                          : 
TLFamily_AT10      .         Resistivity - Induction Array 10: 
TLFamily_AT20      .         Resistivity - Induction Array 20: 
TLFamily_AT30      .         Resistivity - Induction Array 30: 
TLFamily_AT60      .         Resistivity - Induction Array 60: 
TLFamily_AT90      .         Resistivity - Induction Array 90: 
TLFamily_BS        .         Bit Size                      : 
TLFamily_DTCO_FINAL .         Compressional Slowness        : 
TLFamily_DTSH_FINAL .         Shear Slowness                : 
TLFamily_GR_STGC   .         Gamma Ray                     : 
TLFamily_HDAR      .         Borehole Diameter             : 
TLFamily_PR        .         Poisson Ratio (Dynamic)       : 
TLFamily_SPHI      .         Total Porosity                : 
TLFamily_TDEP      .         Measured Depth                : 
TLFamily_TENS      .         Tension                       : 
TLFamily_TNPH      .         Thermal Neutron Porosity      : 
TLFamily_VPVS      .         VpVs (Compressional To Shear) Ratio: 
~Curve Information
#_______________________________________________________________________________
#
#LOGNAME           .UNIT     LOG_ID                        : DESCRIPTION
#_______________________________________________________________________________
TDEP               .ft                                     : Measured Depth 
AT10               .ohm.m                                  : Array Induction Two Foot Resistivity A10 
AT20               .ohm.m                                  : Array Induction Two Foot Resistivity A20 
AT30               .ohm.m                                  : Array Induction Two Foot Resistivity A30 
AT60               .ohm.m                                  : Array Induction Two Foot Resistivity A60 
AT90               .ohm.m                                  : Array Induction Two Foot Resistivity A90 
BS                 .in                                     : Bit Size 
DTCO_FINAL         .us/ft                                  : Compressional Slowness 
DTSH_FINAL         .us/ft                                  : Shear Slowness 
GR_STGC            .gAPI                                   : Gamma Ray 
HDAR               .in                                     : Hole Diameter from Area 
PR                 .unitless                               : Possion's Ratio 
SPHI               .ft3/ft3                                : Total porosity from Sonic 
TENS               .lbf                                    : Cable Tension 
TNPH               .ft3/ft3                                : Thermal Neutron Porosity (Ratio Method) in Selected Lithology 
VPVS               .unitless                               : VpVs Ratio 
~Ascii
# ...
8309.5     0.3876633  1950       1950       7.419614   40.20359   10.625     53.77179   99.22005   39.47048   10.625     0.2920814  0.04432357 3914.667   0.0479615  1.845206  
8309.75    0.3834443  1950       1950       7.507516   44.03463   10.625     53.72866   99.05795   39.09254   10.625     0.2915903  0.0440188  3895.167   0.04697624 1.84367   
8310       0.3793731  1950       1950       7.636156   47.23072   10.625     53.70481   98.91619   38.71461   10.625     0.2910057  0.04385028 3875.667   0.04599098 1.84185   
8310.25    0.3759074  1950       1950       7.81442    50.06455   10.625     53.73525   98.79996   38.94125   10.625     0.2899697  0.04406539 3881.833   0.04580709 1.838643  
8310.5     0.3734498  1950       1950       8.051661   53.09624   10.625     53.80122   98.68434   39.16787   10.625     0.288533   0.04453162 3888       0.04562321 1.83424   
8310.75    0.3722782  1950       1950       8.35631    57.01506   10.625     53.85707   98.55754   39.11975   10.625     0.2871288  0.04492632 3881.875   0.04722255 1.829983  
8311       0.3724928  1950       1950       8.73295    62.56077   10.625     53.86668   98.41331   39.07162   10.625     0.2861286  0.04499423 3875.75    0.04882191 1.826979  
8311.25    0.3740194  1950       1950       9.177275   70.56112   10.625     53.83218   98.20554   39.43484   10.625     0.2852267  0.04475039 3880.875   0.05276513 1.824291  
8311.5     0.3766396  1950       1950       9.670801   82.06196   10.625     53.78374   97.87707   39.79806   10.625     0.2837153  0.04440806 3886       0.05670836 1.819826  
8311.75    0.3800003  1950       1950       10.17916   98.62675   10.625     53.74487   97.45368   40.38737   10.625     0.2814617  0.04413338 3888       0.05409229 1.813265  
8312       0.3836027  1950       1950       10.65533   122.8372   10.625     53.70582   97.05704   40.97668   10.625     0.2793433  0.0438574  3890       0.05147622 1.807198  
8312.25    0.3868369  1950       1950       11.04559   158.5691   10.625     53.63335   96.81724   42.02946   10.625     0.2786272  0.04334521 3888.875   0.04916273 1.805169  
8312.5     0.3890693  1950       1950       11.29783   211.6851   10.625     53.51096   96.77074   43.08225   10.625     0.2797758  0.04248031 3887.75    0.04684925 1.808428  
8312.75    0.3897566  1950       1950       11.37467   289.8325   10.625     53.36161   96.84296   43.91215   10.625     0.2820075  0.04142481 3894.708   0.04477467 1.814843  
8313       0.3885482  1950       1950       11.267     403.0764   10.625     53.22303   96.91858   44.74204   10.625     0.2841108  0.04044544 3901.667   0.0427001  1.820989  
8313.25    0.3853742  1950       1950       10.99702   563.8525   10.625     53.10643   96.92426   44.69292   10.625     0.2854971  0.03962139 3911.5     0.04518875 1.825095  
8313.5     0.380479   1950       1950       10.60731   778.8764   10.625     52.97989   96.86097   44.6438    10.625     0.2865558  0.0387271  3921.333   0.04767741 1.828259  
8313.75    0.3743384  1950       1950       10.14603   1042.669   10.625     52.80175   96.76787   44.57066   10.625     0.2880149  0.03746822 3938.333   0.04929721 1.832664  
8314       0.3675207  1950       1950       9.656521   1346.689   10.625     52.57719   96.67159   44.49751   10.625     0.2899753  0.03588118 3955.333   0.050917   1.83866   
8314.25    0.3605812  1950       1950       9.171912   1674.216   10.625     52.37157   96.57697   44.37814   10.625     0.291719   0.03442803 3974.292   0.05134083 1.844072  
8314.5     0.3539999  1950       1950       8.713848   1937.904   10.625     52.26672   96.50466   44.25875   10.625     0.2924579  0.03368707 3993.25    0.05176466 1.846388  
8314.75    0.3481302  1950       1950       8.294484   1950       10.625     52.2999    96.49914   44.49436   10.625     0.292051   0.03392153 4004.125   0.05275759 1.845111  
8315       0.3431808  1950       1950       7.919716   1950       10.625     52.43432   96.57244   44.72997   10.625     0.2909831  0.03487151 4015       0.05375051 1.841779  
8315.25    0.3392443  1950       1950       7.591575   1950       10.625     52.59098   96.65557   45.47679   10.625     0.2897197  0.03597866 4022       0.05415045 1.837874  
8315.5     0.3363225  1950       1950       7.309859   1950       10.625     52.70248   96.64448   46.22361   10.625     0.2883804  0.03676662 4029       0.05455039 1.833775  
8315.75    0.3343343  1950       1950       7.073692   1950       10.625     52.74134   96.50089   46.74759   10.625     0.2870352  0.0370413  4028.667   0.05397056 1.829701  
8316       0.33313    1950       1950       6.882471   1950       10.625     52.716     96.27736   47.27156   10.625     0.2859148  0.03686221 4028.333   0.05339073 1.82634   
8316.25    0.3325257  1950       1950       6.735881   1950       10.625     52.65974   96.06062   47.14116   10.625     0.285188   0.0364646  4046.167   0.05525034 1.824176  
8316.5     0.3323178  1950       1950       6.633023   1950       10.625     52.61662   95.91942   47.01076   10.625     0.2847872  0.03615988 4064       0.05710996 1.822987  
8316.75    0.3322753  1950       1950       6.572017   1950       10.625     52.62188   95.88988   46.42263   10.625     0.2845358  0.03619706 4081.333   0.05803689 1.822243  
8317       0.3321456  1950       1950       6.550035   1935.46    10.625     52.68386   95.96709   45.8345    10.625     0.2843061  0.03663509 4098.667   0.05896383 1.821565  
8317.25    0.3316668  1950       1950       6.56311    1861.2     10.625     52.78426   96.09216   44.34026   10.625     0.2839343  0.03734456 4101.667   0.06300271 1.82047   
8317.5     0.3305727  1950       1950       6.605217   1769.926   10.625     52.89841   96.17745   42.84601   10.625     0.2831446  0.03815131 4104.667   0.06704159 1.818154  
8317.75    0.3286037  1950       1950       6.667156   1643.592   10.625     53.00407   96.15867   40.66104   10.625     0.2817768  0.03889799 4110.208   0.06647456 1.814175  
8318       0.3255461  1950       1950       6.736542   1485.667   10.625     53.07959   96.02233   38.47607   10.625     0.2799851  0.03943173 4115.75    0.06590752 1.809026  
8318.25    0.3212876  1950       1950       6.799735   1308.078   10.625     53.11319   95.75179   36.95018   10.625     0.2777819  0.03966919 4108.042   0.06814973 1.802787  
8318.5     0.3158648  1950       1950       6.845034   1127.716   10.625     53.11161   95.29665   35.4243    10.625     0.2747149  0.03965805 4100.333   0.07039195 1.794271  
8318.75    0.3094884  1950       1950       6.865217   960.3865   10.625     53.08853   94.6086    34.59772   10.625     0.2702046  0.03949492 4085.5     0.07223199 1.782091  
8319       0.3025286  1950       1950       6.858391   816.3702   10.625     53.05522   93.72993   33.77114   10.625     0.2642674  0.03925949 4070.667   0.07407203 1.766649  
8319.25    0.2954381  1950       1950       6.827952   699.6631   10.625     53.03123   92.8268    33.46297   10.625     0.2577474  0.03908997 4052.5     0.07622381 1.750418  
8319.5     0.2886519  1950       1950       6.782178   608.1216   10.625     53.06211   92.13231   33.1548    10.625     0.2518332  0.03930823 4034.333   0.07837558 1.73631   
8319.75    0.2825075  1950       1950       6.732447   536.8205   10.625     53.18384   91.82936   33.91594   10.625     0.2476387  0.04016849 4021.542   0.07757902 1.72664   
8320       0.2772093  1950       1950       6.689725   484.2911   10.625     53.36852   91.97777   34.67709   10.625     0.2462272  0.04147366 4008.75    0.07678246 1.723446  
8320.25    0.2728319  1950       1950       6.661164   443.6999   10.625     53.52419   92.50333   37.00041   10.625     0.2483464  0.04257375 4003.375   0.07523993 1.728253  
8320.5     0.2693553  1950       1950       6.648516   404.4362   10.625     53.56644   93.23323   39.32373   10.625     0.2536212  0.04287234 3998       0.07369739 1.740516  
8320.75    0.2667128  1950       1950       6.648301   358.4895   10.625     53.47753   93.9636    42.88149   10.625     0.2604543  0.04224401 3990.167   0.06985645 1.757067  
