~VERSION INFORMATION
VERS.           1.2   :CWLS Log ASCII Standard - VERSION 1.2
WRAP.           NO    :One Line per depth step
PROD.  Schlumberger   :LAS Producer
PROG.  DLIS to ASCII 2.3                               :LAS Program name and version
CREA.        2021/07/30 13:36                          :LAS Creation date {YYYY/MM/DD hh:mm}
DLIS_CREA.  2021-Jul-30 07:08                          :DLIS Creation date and time {YYYY-MMM-DD hh:mm}
SOURCE.     9adb19af-6988-40d6-a86c-1e71535bb624       :DLIS File Name
#--------------------------------------------------
~WELL INFORMATION
#MNEM.UNIT      DATA             DESCRIPTION
#---- ------ --------------   -----------------------------
STRT .F        5785.0000     :START DEPTH     
STOP .F        9045.0000     :STOP DEPTH     
STEP .F           0.5000       :STEP     
NULL .          -999.25      :NULL VALUE
COMP .                 COMPANY:  University Of Utah                 
WELL .                    WELL:  FORGE 78B-32                       
FLD  .                   FIELD:  None                               
LOC  .                LOCATION:  Lat: 38.500171, Long: -112.88221   
CNTY .                  COUNTY:  Beaver                             
STAT .                   STATE:  Utah                               
CTRY .                 COUNTRY:                                     
SRVC .         SERVICE COMPANY:  Schlumberger                       
LATI .DEG             LATITUDE:  38 30' 0.616" N                   
LONG .DEG            LONGITUDE:  112 52' 55.956" W                 
API  .              API NUMBER:  NRC 42-00090-03                    
DATE .                LOG DATE:  30-Jul-2021
UWI  .          UNIQUE WELL ID:                                     
#-----------------------------------------------------------------------------
~PARAMETER INFORMATION
#MNEM.UNIT    VALUE                      DESCRIPTION
#---- -----   --------------------       ------------------------
CN   .        University Of Utah         :Company Name
WN   .        FORGE 78B-32               :Well Name
FN   .        None                       :Field Name
FL   .        Lat  38.500171  Long  -112.88221 :Field Location
FL1  .                                   :Field Location, Line 1
COUN .        Beaver                     :County or Parish
STAT .        Utah                       :State or Province
NATI .                                   :Nation
DATE .        30-Jul-2021                :Tools Above Rotary Table Date
APIN .        NRC 42-00090-03            :API Well Number
SECT .                                   :Section
TOWN .                                   :Township
RANG .                                   :Range
DMF  .        KB                         :Drilling Measured From (Name of Drilling Elevation Reference)
LMF  .        KB                         :Logging Measured From (Name of Logging Elevation Reference)
PDAT .        GL                         :Permanent Datum
ENGI .        CSTILES                    :Engineer s Name
WITN .        Virgil  Welch              :Witness s Name
LATI .        38� 30' 0.616  N           :Latitude
LONG .        112� 52' 55.956  W         :Longitude
LUL  .        F.Morgan                   :Logging Unit Location
LUN  .        9108                       :Logging Unit Number
RUN  .        1B                         :Run Number
SON  .                                   :Service Order Number
BHT  .DEGF     419.00000                 :Bottom Hole Temperature
BS   .IN         5.75000                 :Bit Size
MDEN .G/C3       2.71000                 :Matrix Density for Density Porosity
DFD  .LB/G       8.30000                 :Drilling Fluid Density
DFV  .S         24.00000                 :Drilling Fluid Viscosity
DFL  .C3      -999.25000                 :Drilling Fluid Loss
RMFS .OHMM       4.42000                 :Resistivity of Mud Filtrate Sample
EKB  .F       5565.50000                 :Elevation of Kelly Bushing
EGL  .F       5536.00000                 :Elevation of Ground Level
BLI  .F       9532.00000                 :Bottom Log Interval
BSAL .PPM      700.00000                 :Borehole Salinity
FLEV .F          8.00000                 :Depth of Drilling Fluid Level to LMF (Log Measured From)
MCST .DEGF      62.00000                 :Mudcake Sample Temperature
MFST .DEGF      62.00000                 :Mud Filtrate Sample Temperature
MRT  .DEGF     419.00000                 :Maximum Recorded Temperature
MST  .DEGF      62.00000                 :Mud Sample Temperature
RMCS .OHMM       6.21000                 :Resistivity of Mud Cake Sample
RMS  .OHMM       5.20000                 :Resistivity of Mud Sample
RW   .OHMM       1.00000                 :Connate Water Resistivity
TDD  .F       9500.00000                 :Driller Total Depth
TDL  .F       9532.00000                 :Logger Total Depth
TLI  .F       8530.00000                 :Top Log Interval
HIDE .                                   :Header Identifier
MATR .        LIME                       :Rock Matrix for Neutron Porosity Corrections
FNUM .           1.00000                 :F-Numerator for Formation Factor Formula
FEXP .           2.00000                 :Exponent "m" for Formation Factor Formula
DFT  .        WATER                      :Drilling Fluid Type
DFPH .          11.00000                 :Drilling Fluid pH
MCSS .        Calculated                 :Mudcake Sample Source
MFSS .        Calculated                 :Mud Filtrate Sample Source
FD   .G/C3       1.00000                 :Fluid Density
MSS  .        Flowline                   :Mud Sample Source
OS1  .                                   :Other Services Line 1
OS2  .                                   :Other Services Line 2
OS3  .                                   :Other Services Line 3
OS4  .                                   :Other Services Line 4
OS5  .                                   :Other Services Line 5
R1   .                                   :Remarks Line 1
R2   .                                   :Remarks Line 2
R3   .                                   :Remarks Line 3
R4   .                                   :Remarks Line 4
R5   .                                   :Remarks Line 5
R6   .        Tool was run as per tool sketch :Remarks Line 6
R7   .        All logging intervals as per client request :Remarks Line 7
R8   .                                   :Remarks Line 8
TCS  .        20 00 00                   :Time Circulation Stopped
TLAB .        02 17 00                   :Time Logger At Bottom
NMT  .        NOBARITE                   :HRDD Mud Type for Nuclear Devices
EPD  .C3         5536.000000             :Elevation of Permanent Datum above Mean Sea Level
APD  .F          29.500000               :Elevation of Depth Reference (LMF) above Permanent Datum
#-----------------------------------------------------------------------------
~CURVE INFORMATION
#MNEM.UNIT   API CODE                                  DESCRIPTION
#---- -----  --------                                  -----------------------
DEPT .F                                                :DEPTH (BOREHOLE) {F12.4}
AF10 .OHMM                                             :Array Induction Four Foot Resistivity A10 {F11.4}
AF20 .OHMM                                             :Array Induction Four Foot Resistivity A20 {F11.4}
AF30 .OHMM                                             :Array Induction Four Foot Resistivity A30 {F11.4}
AF60 .OHMM                                             :Array Induction Four Foot Resistivity A60 {F11.4}
AF90 .OHMM                                             :Array Induction Four Foot Resistivity A90 {F11.4}
AO10 .OHMM                                             :Array Induction One Foot Resistivity A10 {F11.4}
AO20 .OHMM                                             :Array Induction One Foot Resistivity A20 {F11.4}
AO30 .OHMM                                             :Array Induction One Foot Resistivity A30 {F11.4}
AO60 .OHMM                                             :Array Induction One Foot Resistivity A60 {F11.4}
AO90 .OHMM                                             :Array Induction One Foot Resistivity A90 {F11.4}
AT10 .OHMM                                             :Array Induction Two Foot Resistivity A10 {F11.4}
AT20 .OHMM                                             :Array Induction Two Foot Resistivity A20 {F11.4}
AT30 .OHMM                                             :Array Induction Two Foot Resistivity A30 {F11.4}
AT60 .OHMM                                             :Array Induction Two Foot Resistivity A60 {F11.4}
AT90 .OHMM                                             :Array Induction Two Foot Resistivity A90 {F11.4}
AORT .OHMM                                             :Array Induction One Foot Rt {F11.4}
AORX .OHMM                                             :Array Induction One Foot Rxo {F11.4}
CDF  .LBF                                              :Calibrated Downhole Force {F11.4}
CFTC .HZ                                               :Corrected Far Thermal Count Rate {F11.4}
CNTC .HZ                                               :Corrected Near Thermal Count Rate {F11.4}
CTEM .DEGF                                             :Cartridge Temperature {F11.4}
DCAL .IN                                               :Differential Caliper {F11.4}
DT   .US/F                                             :Delta-T (also called Slowness or Interval Transit Time) {F11.4}
DTCO .US/F                                             :Delta-T Compressional {F11.4}
DTSM .US/F                                             :Delta-T Shear {F11.4}
ED   .F                                                :East Departure {F11.4}
GR_STGC.GAPI                                           :Gamma Ray {F11.4}
GTEM .DEGF                                             :Generalized Borehole Temperature {F11.4}
HGR_STGC.GAPI                                          :High Resolution Gamma Ray {F11.4}
HNPO .CFCF                                             :High Resolution Enhanced Thermal Neutron Porosity in Selected Lithology {F11.4}
HTNP .CFCF                                             :High Resolution Thermal Neutron Porosity (Ratio Method) in Selected Lithology {F11.4}
ITT  .S                                                :Integrated Transit Time {F11.4}
ND   .F                                                :North Departure {F11.4}
NPHI .CFCF                                             :Thermal Neutron Porosity (original Ratio Method) in Selected Lithology {F11.4}
NPOR .CFCF                                             :Enhanced Thermal Neutron Porosity in Selected Lithology {F11.4}
PR   .                                                 :Poisson s Ratio {F11.4}
SP   .MV                                               :Spontaneous Potential {F11.4}
SPAR .MV                                               :SP, Armor Return Compensated {F11.4}
SPHI .CFCF                                             :Sonic Porosity {F11.4}
STIT .F                                                :Stuck Tool Indicator, Total {F11.4}
TENS .LBF                                              :Cable Tension {F11.4}
TNPH .CFCF                                             :Thermal Neutron Porosity (Ratio Method) in Selected Lithology {F11.4}
HTNP_SAN.CFCF                                          :HiRes Thermal Neutron Porosity (matrix Sandstone) {F11.4}
#-----------------------------------------------------------------------------
# 
#      DEPT        AF10       AF20       AF30       AF60       AF90       AO10       AO20       AO30       AO60       AO90       AT10       AT20       AT30       AT60       AT90       AORT       AORX       CDF        CFTC       CNTC       CTEM       DCAL        DT        DTCO       DTSM        ED      GR_STGC      GTEM     HGR_STGC     HNPO       HTNP       ITT         ND        NPHI       NPOR        PR         SP        SPAR       SPHI       STIT       TENS       TNPH     HTNP_SAN
#
~A  
# ...
   7306.5000     0.3116  1950.0000  1950.0000     6.8119    37.7140     0.3089  1950.0000  1950.0000     6.0162   184.8967     0.3125  1950.0000  1950.0000     7.0686  1377.6267     5.8538     0.3123 -9999.9999  3199.2090  6451.9912   100.3294     0.0000   104.5703   104.5703    93.0968     0.0000    94.8427   340.7070    95.9291     0.0255     0.0312     0.1259     0.0000     0.0134     0.0374  -999.2500     6.2500     6.7804     0.2903     0.0000  2749.0000     0.0412     0.0643
   7307.0000     0.3100  1950.0000  1950.0000     6.6261    37.2190     0.3063  1950.0000  1950.0000     6.4713    92.6731     0.3086  1950.0000  1950.0000     6.8726   998.0034     6.0372     0.3095 -9999.9999  2556.0691  6337.0571   100.3294     0.0000   104.5703   104.5703    93.0968     0.0000    92.1079   340.6956    93.1947     0.0497     0.0482     0.1259     0.0000     0.0127     0.0395  -999.2500     6.8750     7.3106     0.2903     0.0000  2754.0000     0.0374     0.0860
   7307.5000     0.3087  1950.0000  1950.0000     6.4461    36.7850     0.3033  1950.0000  1950.0000     5.9971    44.0527     0.3060  1950.0000  1950.0000     6.6359   696.5142     5.2543     0.3070 -9999.9999  3297.9917  6605.0894   100.3294     0.0000   104.5703   104.5703    93.0968     0.0000    90.7507   340.6934    89.9346     0.0257     0.0288     0.1260     0.0000     0.0131     0.0301  -999.2500     8.4375     8.5755     0.2903     0.0000  2766.0000     0.0365     0.0614
   7308.0000     0.3082  1950.0000  1950.0000     6.2830    36.4768     0.2999  1950.0000  1950.0000     4.9441    25.9477     0.3051  1950.0000  1950.0000     6.3790   500.0045     4.5879     0.3054 -9999.9999  3248.6814  6623.9092   100.3294     0.0000   107.3828   107.3828    87.0940     0.0000    90.6158   340.7525    90.4799     0.0274     0.0311     0.1260     0.0000     0.0061     0.0178  -999.2500     9.3750     9.3480     0.2991     0.0000  2768.0000     0.0297     0.0643
   7308.5000     0.3085  1950.0000  1950.0000     6.1501    36.3900     0.3003  1950.0000  1950.0000     4.1135    17.8209     0.3061  1950.0000  1950.0000     6.1581   371.1054     3.9893     0.3067 -9999.9999  2852.9312  5954.1528   100.3294     0.0000   113.0078   113.0078    87.0940     0.0000    89.7997   340.7389    91.7037     0.0284     0.0265     0.1261     0.0000     0.0044     0.0340  -999.2500    10.6250    10.2183     0.3153     0.0000  2769.0000     0.0306     0.0585
   7309.0000     0.3096  1950.0000  1950.0000     6.0575    36.5857     0.3064  1950.0000  1950.0000     3.5462    13.1353     0.3090  1950.0000  1950.0000     6.0259   280.3203     3.5980     0.3094 -9999.9999  2951.6736  5628.7397   100.3294     0.0000   124.1504   124.1504    82.5283     0.0000    88.4407   340.7434    86.3993     0.0269     0.0302     0.1261     0.0000     0.0071     0.0493  -999.2500    11.8750    12.1867     0.3431     0.0000  2778.0000     0.0386     0.0632
   7309.5000     0.3114  1950.0000  1950.0000     6.0064    37.0369     0.3146  1950.0000  1950.0000     3.1826    10.6759     0.3132  1950.0000  1950.0000     5.9923   203.1533     3.2872     0.3136 -9999.9999  2490.1060  5456.0571   100.3294     0.0000   134.8730   134.8730    81.4294     0.0000    87.9670   340.7708    87.2192     0.0334     0.0359     0.1262     0.0000     0.0071     0.0531  -999.2500    12.5000    13.1678     0.3655     0.0000  2778.0000     0.0374     0.0703
   7310.0000     0.3139  1950.0000  1950.0000     5.9884    37.6189     0.3192  1950.0000  1950.0000     2.9717     9.3881     0.3187  1950.0000  1950.0000     6.0166   135.7297     3.0445     0.3190 -6153.2788  2869.4219  5992.4434   100.3294     0.0000   131.3281   131.3281    81.4294     0.0000    88.7161   340.7617    89.8070     0.0290     0.0362     0.1263     0.0000     0.0108     0.0416  -999.2500    13.7500    14.1507     0.3585     0.0000  2776.0000     0.0396     0.0707
   7310.5000     0.3172  1950.0000  1950.0000     5.9899    38.1597     0.3205  1950.0000  1950.0000     2.8007     8.1855     0.3254  1950.0000  1950.0000     6.0389    88.2361     2.8540     0.3258     0.0000  3034.3013  6413.7007   100.3294     0.0000   125.3906   125.3906    84.8964     0.0000    88.9886   340.7525    90.6880     0.0305     0.0359     0.1263     0.0000     0.0092     0.0279  -999.2500    15.0000    15.0947     0.3459     0.0000  2771.5000     0.0333     0.0703
   7311.0000     0.3213  1950.0000  1950.0000     5.9998    38.5255     0.3252  1950.0000  1950.0000     2.6362     7.1061     0.3341  1950.0000  1950.0000     6.0229    60.6902     2.7107     0.3341     0.0000  3215.7000  6758.2510   100.3294     0.0000   120.7617   120.7617    97.4550     0.0000    88.1879   340.8072    88.4433     0.0279     0.0332     0.1264     0.0000     0.0112     0.0212  -999.2500    16.8750    17.2384     0.3352     0.0000  2772.0000     0.0338     0.0669
   7311.5000     0.3260  1950.0000  1950.0000     6.0157    38.6835     0.3376  1950.0000  1950.0000     2.5226     6.4778     0.3449  1950.0000  1950.0000     5.9828    46.6129     2.6104     0.3440 -5127.7324  2984.7471  6566.7988   100.3294     0.0000   118.3789   118.3789    93.9611     0.0000    88.7977   340.7844    87.9847     0.0382     0.0385     0.1265     0.0000     0.0119     0.0220  -999.2500    18.7500    17.9801     0.3293     0.0000  2765.0000     0.0340     0.0736
   7312.0000     0.3310  1950.0000  1950.0000     6.0429    38.6868     0.3565  1950.0000  1950.0000     2.4412     6.1079     0.3573  1950.0000  1950.0000     5.9649    40.8664     2.5518     0.3547 -9999.9999  2770.4490  5963.5664   100.3294     0.0000   120.6250   120.6250    95.7545     0.0000    90.4261   340.8027    89.6107     0.0345     0.0427     0.1265     0.0000     0.0075     0.0381  -999.2500    19.3750    18.5623     0.3348     0.0000  2762.0000     0.0366     0.0790
   7312.5000     0.3356  1950.0000  1950.0000     6.0890    38.5964     0.3785  1950.0000  1950.0000     2.3875     5.9519     0.3692  1950.0000  1950.0000     6.0055    40.8878     2.5352     0.3647 -9999.9999  2786.9673  5169.2007   100.3294     0.0000    87.5000    87.5000    92.5902     0.0000    92.3802   340.8118    92.1066     0.0215     0.0274     0.1266     0.0000     0.0084     0.0539  -999.2500    20.0000    18.9519     0.2250     0.0000  2753.0000     0.0361     0.0595
   7313.0000     0.3392  1950.0000  1950.0000     6.1572    38.4191     0.3965  1950.0000  1950.0000     2.4148     6.2681     0.3778  1950.0000  1950.0000     6.1085    45.6912     2.5612     0.3719  5128.2651  2473.6152  5571.3042   100.3294     0.0000    75.6250    75.6250    92.5902     0.0000    93.2979   340.8346    93.4692     0.0399     0.0337     0.1266     0.0000     0.0071     0.0327  -999.2500    20.0000    19.4837     0.1622     0.0000  2743.0000     0.0378     0.0676
   7313.5000     0.3412  1950.0000  1950.0000     6.2435    38.1181     0.3974  1950.0000  1950.0000     2.5235     7.1040     0.3810  1950.0000  1950.0000     6.2425    54.3552     2.6284     0.3749 10254.4688  2358.0410  4901.1680   100.3294     0.0000    69.6875    69.6875    95.4879     0.0000    95.7439   340.8346    93.4003     0.0497     0.0388     0.1266     0.0000     0.0119     0.0578  -999.2500    19.3750    19.4169     0.1228     0.0000  2747.0000     0.0393     0.0741
   7314.0000     0.3417  1950.0000  1950.0000     6.3391    37.6759     0.3823  1950.0000  1950.0000     2.6734     8.3229     0.3789  1950.0000  1950.0000     6.3665    64.4171     2.7314     0.3737 10254.0420  2605.5413  5532.6333   100.3294     0.0000   105.1172   105.1172    98.9839     0.0000    95.7426   340.8346   100.2598     0.0260     0.0352     0.1267     0.0000     0.0063     0.0341  -999.2500    19.3750    19.1034     0.2920     0.0000  2744.0000     0.0354     0.0694
   7314.5000     0.3411  1950.0000  1950.0000     6.4353    37.1468     0.3682  1950.0000  1950.0000     2.8734    10.1595     0.3733  1950.0000  1950.0000     6.4606    72.7564     2.8584     0.3696 -6151.5723  2904.7148  5628.6851   100.3294     0.0000   105.1172   105.1172    98.9839     0.0000    96.7292   340.8118    93.7392     0.0268     0.0267     0.1267     0.0000     0.0037     0.0356  -999.2500    17.8125    18.5435     0.2920     0.0000  2744.0000     0.0313     0.0587
