~Version
 VERS              .         2.0                           : CWLS LOG ASCII STANDARD - VERSION 2.0
 WRAP              .         NO                            : ONE LINE PER DEPTH STEP
 DLM               .         SPACE                         : DELIMITING CHARACTER(SPACE TAB OR COMMA)
~Well Information
#_______________________________________________________________________________
#
#PARAMETER_NAME    .UNIT     VALUE                         : DESCRIPTION
#_______________________________________________________________________________
STRT               .ft       7493                          : First reference value
STOP               .ft       9543.25                       : Last reference value
STEP               .ft       0.25                          : Step increment
NULL               .         -9999                         : Missing value
COMP               .         University Of Utah            : Company
WELL               .         FORGE 78B-32                  : Well name
FLD                .         None                          : Field
LOC                .                                       : Location
CNTY               .         Beaver                        : County
STAT               .         Utah                          : State
CTRY               .         USA                           : Country
SRVC               .         Schlumberger                  : Service Company
DATE               .         19-Jul-2021                   : Date
API                .         NRC 42-00090-03               : API number
APD                .ft       29.5                          : Elevation of Depth Reference (LMF) Above Permanent Datum
BHS                .         OPEN                          : Borehole Status (Open or Cased Hole)
BHT                .degF     320.87                        : Bottom Hole Temperature
BLI                .ft       -999.25                       : Bottom Log Interval
BS                 .in       8.75                          : Bit Size
CBDR               .ft       2989                          : Casing Bottom of Driller
CBLO               .ft       2988                          : Logger Casing Shoe Depth
CSIZ               .in       11.75                         : Current Casing Size
CWEI               .lbm/ft   54                            : Casing Weight
DCS                .         19-Jul-2021                   : Date Circulation Stopped
DFD                .lbm/gal  8.3                           : Drilling Fluid Density
DFT                .         WATER                         : Drilling Fluid Type
DLAB               .         19-Jul-2021                   : Date Logger At Bottom
EDF                .ft       5536                          : Elevation of Drill Floor
EGL                .ft       5536                          : Elevation of Ground Level
EKB                .ft       5565.5                        : Elevation of Kelly Bushing
EPD                .ft       5536                          : Elevation of Permanent Datum (PDAT) above Mean Sea Level
LMF                .         KB                            : Logging Measured From (Name of Logging Elevation Reference)
LUL                .         F.Morgan                      : Logging Unit Location
LUN                .         9108                          : Logging Unit Number
LATI               .         38.500171 degrees             : Latitude
LONG               .         -112.88221 degrees            : Longitude
MCST               .degF     68                            : Mudcake Sample Temperature
MFST               .degF     68                            : Mud Filtrate Sample Temperature
MRT                .degF     321.43                        : Maximum Recorded Temperature
MST                .degF     68                            : Mud Sample Temperature
ORIGINALWELLNAME   .         FORGE 78B-32                  : 
PDAT               .         GL                            : Permanent Datum
PRODUCER-CODE      .         440                           : 
PRODUCER-NAME      .         Schlumberger                  : 
RMB                .ohm.m    0.04564156                    : Resistivity of Mud at Bottom Hole Temperature
RMCS               .ohm.m    -999.25                       : Resistivity of Mud Cake Sample
RMFS               .ohm.m    0.15                          : Resistivity of Mud Filtrate Sample
RMS                .ohm.m    0.2                           : Resistivity of Mud Sample
RUN                .         1A                            : Run Number
TCS                .         03_00_00                      : Time Circulation Stopped
TDD                .ft       8540                          : Driller Total Depth
TDL                .ft       8540                          : Logger Total Depth
TLAB               .         07_53_00                      : Time Logger At Bottom
TLI                .ft       -999.25                       : Top Log Interval
~Parameter Information Block
#_______________________________________________________________________________
#
#PARAMETER_NAME    .UNIT     VALUE                         : DESCRIPTION
#_______________________________________________________________________________
SET                .         QSLT                          : 
TLFamily_AT10      .         Resistivity - Induction Array 10: 
TLFamily_AT20      .         Resistivity - Induction Array 20: 
TLFamily_AT30      .         Resistivity - Induction Array 30: 
TLFamily_AT60      .         Resistivity - Induction Array 60: 
TLFamily_AT90      .         Resistivity - Induction Array 90: 
TLFamily_BS        .         Bit Size                      : 
TLFamily_DTCO_FINAL .         Compressional Slowness        : 
TLFamily_DTSH_FINAL .         Shear Slowness                : 
TLFamily_GR_STGC   .         Gamma Ray                     : 
TLFamily_HDAR      .         Borehole Diameter             : 
TLFamily_PR        .         Poisson Ratio (Dynamic)       : 
TLFamily_SPHI      .         Total Porosity                : 
TLFamily_TDEP      .         Measured Depth                : 
TLFamily_TENS      .         Tension                       : 
TLFamily_TNPH      .         Thermal Neutron Porosity      : 
TLFamily_VPVS      .         VpVs (Compressional To Shear) Ratio: 
~Curve Information
#_______________________________________________________________________________
#
#LOGNAME           .UNIT     LOG_ID                        : DESCRIPTION
#_______________________________________________________________________________
TDEP               .ft                                     : Measured Depth 
AT10               .ohm.m                                  : Array Induction Two Foot Resistivity A10 
AT20               .ohm.m                                  : Array Induction Two Foot Resistivity A20 
AT30               .ohm.m                                  : Array Induction Two Foot Resistivity A30 
AT60               .ohm.m                                  : Array Induction Two Foot Resistivity A60 
AT90               .ohm.m                                  : Array Induction Two Foot Resistivity A90 
BS                 .in                                     : Bit Size 
DTCO_FINAL         .us/ft                                  : Compressional Slowness 
DTSH_FINAL         .us/ft                                  : Shear Slowness 
GR_STGC            .gAPI                                   : Gamma Ray 
HDAR               .in                                     : Hole Diameter from Area 
PR                 .unitless                               : Possion's Ratio 
SPHI               .ft3/ft3                                : Total porosity from Sonic 
TENS               .lbf                                    : Cable Tension 
TNPH               .ft3/ft3                                : Thermal Neutron Porosity (Ratio Method) in Selected Lithology 
VPVS               .unitless                               : VpVs Ratio 
~Ascii
# ...
8574       41.59848   20.31726   191.2119   208.1574   227.7236   5.75       47.89663   91.44775   129.4757   5.75       0.3109872  0.002803061 4048.333   0.06896678 1.909273  
8574.25    52.46221   20.55617   161.1158   172.2345   184.8659   5.75       47.03957   90.89487   137.7035   5.75       0.3171049  0          4063.467   0.05117593 1.932306  
8574.5     59.85877   22.89282   136.6087   143.568    149.2943   5.75       46.58267   90.68859   145.9312   5.75       0.3207982  0          4078.6     0.03338508 1.946831  
8574.75    74.23766   26.37442   129.5089   127.1593   122.8649   5.75       46.56539   90.86079   151.1902   5.75       0.3218981  0          4073.933   0.02455688 1.951251  
8575       96.8426    24.36283   127.132    141.4767   112.6632   5.75       46.97047   91.34147   156.4491   5.75       0.3202533  0          4069.267   0.01572868 1.944657  
8575.25    133.6701   28.65017   103.2324   114.8465   133.4514   5.75       47.71175   92.02717   159.8123   5.75       0.3161987  0.001496494 4063.1     0.01287609 1.928815  
8575.5     191.0168   35.81082   123.9323   125.8337   111.6507   5.75       48.64375   92.82343   163.1756   5.75       0.3107021  0.00808306 4056.933   0.0100235  1.908229  
8575.75    278.8964   41.63196   172.0919   186.8269   116.9485   5.75       49.61626   93.66511   153.3777   5.75       0.3049734  0.01495593 4068.267   0.009849079 1.88779   
8576       410.5037   48.8727    166.033    193.4647   189.9021   5.75       50.52607   94.49211   143.5799   5.75       0.2998013  0.02138565 4079.6     0.00967466 1.870165  
8576.25    599.442    54.22606   166.1869   139.1882   197.7084   5.75       51.33418   95.25719   134.4334   5.75       0.2953636  0.0270967  4071.733   0.0105154  1.855629  
8576.5     872.4678   64.22041   123.8579   137.2108   148.8762   5.75       52.04034   95.93608   125.2868   5.75       0.2915339  0.03208721 4063.867   0.01135615 1.843495  
8576.75    1728.035   78.15676   146.3179   139.2505   132.0133   5.75       52.66286   96.53992   116.4901   5.75       0.2881812  0.03648665 4062.5     0.01212677 1.833169  
8577       1950       75.74724   187.8312   172.6349   135.7633   5.75       53.20309   97.10669   107.6934   5.75       0.2855351  0.0403045  4061.134   0.01289739 1.825208  
8577.25    1950       62.65134   222.9317   203.6919   174.1107   5.75       53.62357   97.68709   110.0097   5.75       0.2843583  0.04327613 4065.781   0.01442736 1.821719  
8577.5     1950       51.37487   260.4734   241.1826   146.986    5.75       53.86842   98.29475   112.326    5.75       0.285371   0.04500647 4070.428   0.01595733 1.82472   
8577.75    1950       42.3718    323.2755   301.1976   170.5352   5.75       53.9167    98.86185   112.0581   5.75       0.2883241  0.04534769 4061.114   0.01697697 1.833604  
8578       1950       34.71741   380.0522   379.116    212.4955   5.75       53.81588   99.25407   111.7903   5.75       0.2918003  0.04463519 4051.8     0.01799661 1.844327  
8578.25    1950       29.90964   429.882    472.1978   271.1775   5.75       53.65396   99.36895   104.9004   5.75       0.2942411  0.04349092 4056.233   0.01881415 1.852034  
8578.5     1950       28.36262   519.8086   562.0418   346.4843   5.75       53.49399   99.2016    98.01054   5.75       0.2949948  0.04236034 4060.667   0.0196317  1.854444  
8578.75    1950       26.67764   560.9836   609.5793   420.8831   5.75       53.35023   98.84883   91.40717   5.75       0.2944902  0.04134439 4065.867   0.02088471 1.852829  
8579       1950       25.98643   546.1252   597.3844   467.0842   5.75       53.21084   98.42676   84.8038    5.75       0.2935229  0.04035928 4071.067   0.02213772 1.84975   
8579.25    1950       26.12951   492.5963   537.2429   462.5971   5.75       53.07274   98.01596   77.72062   5.75       0.2925962  0.03938331 4066.933   0.02438171 1.846823  
8579.5     1950       27.11565   420.0769   455.1394   413.1746   5.75       52.93988   97.64911   70.63744   5.75       0.2918648  0.03844438 4062.8     0.0266257  1.844528  
8579.75    1950       29.00285   347.2301   383.4468   344.6142   5.75       52.81274   97.33109   72.21829   5.75       0.2913584  0.03754589 4059.2     0.02932727 1.842947  
8580       1950       31.47801   284.7256   321.4016   279.1965   5.75       52.67924   97.04333   73.79915   5.75       0.291104   0.03660239 4055.6     0.03202885 1.842155  
8580.25    1950       38.47901   236.1264   276.1248   226.3955   5.75       52.53809   96.76176   75.92241   5.75       0.2909721  0.03560485 4050.567   0.03265508 1.841745  
8580.5     1950       47.38228   217.2851   255.594    202.3699   5.75       52.40885   96.47877   78.04568   5.75       0.2906956  0.03469151 4045.533   0.0332813  1.840887  
8580.75    1950       47.20885   180.757    164.5447   178.7634   5.75       52.33069   96.22452   86.93726   5.75       0.2900134  0.03413914 4049.433   0.03197977 1.838778  
8581       1950       57.19452   143.1506   141.0291   119.8191   5.75       52.34597   96.04837   95.82884   5.75       0.2887416  0.03424717 4053.333   0.03067823 1.834876  
8581.25    1950       72.39201   161.855    230.8795   173.6108   5.75       52.48199   95.97472   108.7531   5.75       0.2867082  0.03520839 4050.6     0.02798286 1.828717  
8581.5     1950       94.22826   200.4357   478.0115   245.4197   5.75       52.73266   95.97379   121.6773   5.75       0.2837767  0.03697992 4047.867   0.02528749 1.820007  
8581.75    1950       121.9557   256.0624   316.4378   201.7296   5.75       53.04528   95.97956   132.7494   5.75       0.2801124  0.03918926 4054.7     0.02394353 1.809389  
8582       1950       153.7248   279.9438   297.1487   250.2664   5.75       53.3377    95.92117   143.8214   5.75       0.2762014  0.04125583 4061.533   0.02259957 1.798375  
8582.25    1950       181.654    247.9045   287.2756   236.7006   5.75       53.53838   95.7486    149.1781   5.75       0.2725632  0.04267403 4068.167   0.02149734 1.788411  
8582.5     1950       192.3207   207.5614   265.1897   201.2482   5.75       53.61738   95.43906   154.5349   5.75       0.2694161  0.04323238 4074.8     0.02039512 1.780002  
8582.75    1950       181.3346   179.1641   248.3302   163.9951   5.75       53.59875   94.99508   152.2706   5.75       0.266484   0.04310069 4059.733   0.01929029 1.772338  
8583       1950       167.5741   250.3748   385.4686   158.9391   5.75       53.52495   94.44231   150.0063   5.75       0.263403   0.04257914 4044.667   0.01818546 1.764454  
8583.25    1950       162.2773   477.5305   777.6558   274.0709   5.75       53.42707   93.83353   145.7645   5.75       0.2601414  0.04188742 4051.067   0.01647519 1.756292  
8583.5     1950       121.044    720.9796   1013.062   454.8816   5.75       53.30332   93.24759   141.5226   5.75       0.2573192  0.04101285 4057.467   0.01476491 1.749377  
8583.75    1950       90.09373   432.3352   583.4704   315.091    5.75       53.13999   92.7699    133.6581   5.75       0.2558227  0.0398586  4069.019   0.01405438 1.745764  
8584       1950       69.80549   447.7273   583.9662   318.9242   5.75       52.93012   92.46359   125.7935   5.75       0.2562946  0.0383754  4080.571   0.01334384 1.746899  
8584.25    1950       55.23981   504.3468   622.1499   350.596    5.75       52.69222   92.34629   121.5801   5.75       0.2586252  0.03669412 4070.752   0.01314538 1.75256   
8584.5     1950       47.82045   539.7766   615.1284   369.615    5.75       52.46178   92.39442   117.3667   5.75       0.2621019  0.03506559 4060.933   0.01294693 1.761176  
8584.75    1950       42.00704   555.7861   587.7917   372.5701   5.75       52.28168   92.56325   113.6021   5.75       0.2657608  0.03379283 4067.833   0.01348801 1.770472  
8585       1950       38.15528   531.3397   528.4748   348.2322   5.75       52.19753   92.79927   109.8375   5.75       0.2685982  0.03319808 4074.733   0.01402908 1.777848  
8585.25    1950       35.60413   484.0737   459.9539   310.4238   5.75       52.24022   93.04427   107.5872   5.75       0.2698253  0.03349981 4068.767   0.0147862  1.781085  
