~Version
 VERS              .         2.0                           : CWLS LOG ASCII STANDARD - VERSION 2.0
 WRAP              .         NO                            : ONE LINE PER DEPTH STEP
 DLM               .         SPACE                         : DELIMITING CHARACTER(SPACE TAB OR COMMA)
~Well Information
#_______________________________________________________________________________
#
#PARAMETER_NAME    .UNIT     VALUE                         : DESCRIPTION
#_______________________________________________________________________________
STRT               .ft       7493                          : First reference value
STOP               .ft       9543.25                       : Last reference value
STEP               .ft       0.25                          : Step increment
NULL               .         -9999                         : Missing value
COMP               .         University Of Utah            : Company
WELL               .         FORGE 78B-32                  : Well name
FLD                .         None                          : Field
LOC                .                                       : Location
CNTY               .         Beaver                        : County
STAT               .         Utah                          : State
CTRY               .         USA                           : Country
SRVC               .         Schlumberger                  : Service Company
DATE               .         19-Jul-2021                   : Date
API                .         NRC 42-00090-03               : API number
APD                .ft       29.5                          : Elevation of Depth Reference (LMF) Above Permanent Datum
BHS                .         OPEN                          : Borehole Status (Open or Cased Hole)
BHT                .degF     320.87                        : Bottom Hole Temperature
BLI                .ft       -999.25                       : Bottom Log Interval
BS                 .in       8.75                          : Bit Size
CBDR               .ft       2989                          : Casing Bottom of Driller
CBLO               .ft       2988                          : Logger Casing Shoe Depth
CSIZ               .in       11.75                         : Current Casing Size
CWEI               .lbm/ft   54                            : Casing Weight
DCS                .         19-Jul-2021                   : Date Circulation Stopped
DFD                .lbm/gal  8.3                           : Drilling Fluid Density
DFT                .         WATER                         : Drilling Fluid Type
DLAB               .         19-Jul-2021                   : Date Logger At Bottom
EDF                .ft       5536                          : Elevation of Drill Floor
EGL                .ft       5536                          : Elevation of Ground Level
EKB                .ft       5565.5                        : Elevation of Kelly Bushing
EPD                .ft       5536                          : Elevation of Permanent Datum (PDAT) above Mean Sea Level
LMF                .         KB                            : Logging Measured From (Name of Logging Elevation Reference)
LUL                .         F.Morgan                      : Logging Unit Location
LUN                .         9108                          : Logging Unit Number
LATI               .         38.500171 degrees             : Latitude
LONG               .         -112.88221 degrees            : Longitude
MCST               .degF     68                            : Mudcake Sample Temperature
MFST               .degF     68                            : Mud Filtrate Sample Temperature
MRT                .degF     321.43                        : Maximum Recorded Temperature
MST                .degF     68                            : Mud Sample Temperature
ORIGINALWELLNAME   .         FORGE 78B-32                  : 
PDAT               .         GL                            : Permanent Datum
PRODUCER-CODE      .         440                           : 
PRODUCER-NAME      .         Schlumberger                  : 
RMB                .ohm.m    0.04564156                    : Resistivity of Mud at Bottom Hole Temperature
RMCS               .ohm.m    -999.25                       : Resistivity of Mud Cake Sample
RMFS               .ohm.m    0.15                          : Resistivity of Mud Filtrate Sample
RMS                .ohm.m    0.2                           : Resistivity of Mud Sample
RUN                .         1A                            : Run Number
TCS                .         03_00_00                      : Time Circulation Stopped
TDD                .ft       8540                          : Driller Total Depth
TDL                .ft       8540                          : Logger Total Depth
TLAB               .         07_53_00                      : Time Logger At Bottom
TLI                .ft       -999.25                       : Top Log Interval
~Parameter Information Block
#_______________________________________________________________________________
#
#PARAMETER_NAME    .UNIT     VALUE                         : DESCRIPTION
#_______________________________________________________________________________
SET                .         QSLT                          : 
TLFamily_AT10      .         Resistivity - Induction Array 10: 
TLFamily_AT20      .         Resistivity - Induction Array 20: 
TLFamily_AT30      .         Resistivity - Induction Array 30: 
TLFamily_AT60      .         Resistivity - Induction Array 60: 
TLFamily_AT90      .         Resistivity - Induction Array 90: 
TLFamily_BS        .         Bit Size                      : 
TLFamily_DTCO_FINAL .         Compressional Slowness        : 
TLFamily_DTSH_FINAL .         Shear Slowness                : 
TLFamily_GR_STGC   .         Gamma Ray                     : 
TLFamily_HDAR      .         Borehole Diameter             : 
TLFamily_PR        .         Poisson Ratio (Dynamic)       : 
TLFamily_SPHI      .         Total Porosity                : 
TLFamily_TDEP      .         Measured Depth                : 
TLFamily_TENS      .         Tension                       : 
TLFamily_TNPH      .         Thermal Neutron Porosity      : 
TLFamily_VPVS      .         VpVs (Compressional To Shear) Ratio: 
~Curve Information
#_______________________________________________________________________________
#
#LOGNAME           .UNIT     LOG_ID                        : DESCRIPTION
#_______________________________________________________________________________
TDEP               .ft                                     : Measured Depth 
AT10               .ohm.m                                  : Array Induction Two Foot Resistivity A10 
AT20               .ohm.m                                  : Array Induction Two Foot Resistivity A20 
AT30               .ohm.m                                  : Array Induction Two Foot Resistivity A30 
AT60               .ohm.m                                  : Array Induction Two Foot Resistivity A60 
AT90               .ohm.m                                  : Array Induction Two Foot Resistivity A90 
BS                 .in                                     : Bit Size 
DTCO_FINAL         .us/ft                                  : Compressional Slowness 
DTSH_FINAL         .us/ft                                  : Shear Slowness 
GR_STGC            .gAPI                                   : Gamma Ray 
HDAR               .in                                     : Hole Diameter from Area 
PR                 .unitless                               : Possion's Ratio 
SPHI               .ft3/ft3                                : Total porosity from Sonic 
TENS               .lbf                                    : Cable Tension 
TNPH               .ft3/ft3                                : Thermal Neutron Porosity (Ratio Method) in Selected Lithology 
VPVS               .unitless                               : VpVs Ratio 
~Ascii
# ...
8712       1950       40.11533   209.8389   299.8024   241.4916   5.75       53.32364   90.47645   119.5331   5.75       0.2338915  0.04115646 4170.2     0.01353803 1.696742  
8712.25    1950       42.98684   248.5217   351.011    310.0773   5.75       53.23766   91.03403   114.7312   5.75       0.2401177  0.04054886 4147.4     0.01517271 1.709955  
8712.5     1950       46.43366   293.785    335.3044   335.7572   5.75       53.22279   91.62341   109.9294   5.75       0.2453638  0.04044377 4124.6     0.01680738 1.721507  
8712.75    1950       48.31629   284.3897   317.3498   320.5105   5.75       53.2699    92.15289   106.6268   5.75       0.2490763  0.04077669 4139.067   0.01833274 1.729924  
8713       1950       67.13218   279.2938   300.2585   311.5022   5.75       53.35156   92.56152   103.3241   5.75       0.2512439  0.04135377 4153.534   0.0198581  1.734936  
8713.25    1950       71.01274   282.9725   297.6611   314.9328   5.75       53.44684   92.83894   102.2318   5.75       0.2521421  0.04202713 4180.601   0.02012156 1.737033  
8713.5     1950       88.57426   306.2407   346.403    338.1127   5.75       53.55173   93.00995   101.1394   5.75       0.2520528  0.04276844 4207.667   0.02038501 1.736824  
8713.75    1950       100.8912   490.0844   829.317    496.6765   5.75       53.667     93.09843   102.7221   5.75       0.251161   0.04358304 4230.067   0.01926934 1.734743  
8714       1950       115.9999   383.0382   247.4016   335.1764   5.75       53.77445   93.10437   104.3047   5.75       0.2497122  0.04434239 4252.467   0.01815367 1.731387  
8714.25    1950       145.6435   323.9085   621.7293   499.1455   5.75       53.8373    93.01369   104.3132   5.75       0.2480958  0.04478659 4223.533   0.01807601 1.727681  
8714.5     1950       179.5729   476.4922   634.9989   633.2843   5.75       53.8211    92.82566   104.3218   5.75       0.2467863  0.04467207 4194.6     0.01799836 1.724708  
8714.75    1950       213.4795   493.4284   434.6455   514.2286   5.75       53.71545   92.57219   104.7249   5.75       0.2461984  0.04392542 4159.333   0.01775364 1.723381  
8715       1950       237.3895   391.219    305.2475   361.1469   5.75       53.54065   92.30618   105.128    5.75       0.2464904  0.04269008 4124.067   0.01750892 1.724039  
8715.25    1950       245.872    318.1739   385.7174   340.4326   5.75       53.33986   92.07391   105.6576   5.75       0.2474338  0.04127106 4123.067   0.016176   1.726175  
8715.5     1950       257.7471   339.1965   764.7027   592.1545   5.75       53.16505   91.89493   106.1872   5.75       0.2484474  0.04003572 4122.067   0.01484309 1.728484  
8715.75    1950       317.3463   623.5208   1362.545   1148.413   5.75       53.06073   91.76385   109.803    5.75       0.2488529  0.03929844 4159.4     0.01338895 1.729412  
8716       1950       240.3343   417.4567   397.9945   418.0024   5.75       53.04713   91.66296   113.4188   5.75       0.2482152  0.03920231 4196.733   0.0119348  1.727953  
8716.25    1950       185.4807   265.8856   240.1739   252.1288   5.75       53.11567   91.5743    116.5802   5.75       0.246497   0.03968668 4232.167   0.01100422 1.724054  
8716.5     1950       291.4155   249.3623   202.5245   219.069    5.75       53.22824   91.48939   119.7416   5.75       0.2441562  0.04048229 4267.6     0.01007364 1.718813  
8716.75    1950       146.1498   239.4822   170.9887   194.1644   5.75       53.3358    91.41889   120.6962   5.75       0.2419863  0.04124238 4242.867   0.01024722 1.714025  
8717       1950       109.2305   239.6802   144.2356   173.65     5.75       53.39543   91.39752   121.6508   5.75       0.2409264  0.0416638  4218.133   0.0104208  1.711711  
8717.25    1950       100.3528   204.1063   134.4074   186.44     5.75       53.39265   91.47057   119.0054   5.75       0.2415946  0.0416442  4186.1     0.01110158 1.713168  
8717.5     1950       109.4904   170.8688   103.1792   120.3127   5.75       53.34698   91.66207   116.36     5.75       0.2438911  0.04132139 4154.066   0.01178236 1.718224  
8717.75    1950       113.1897   129.9535   90.31883   94.24512   5.75       53.30155   91.94907   110.4409   5.75       0.2469478  0.04100037 4147.967   0.01399755 1.725073  
8718       1950       96.6259    154.7389   104.3219   113.0691   5.75       53.29337   92.26923   104.5218   5.75       0.2496943  0.04094254 4141.867   0.01621273 1.731345  
8718.25    1950       84.78991   227.5739   120.2613   101.5153   5.75       53.33605   92.56008   99.80095   5.75       0.2514489  0.04124418 4170.033   0.0203806  1.735413  
8718.5     1950       77.89551   329.1191   116.6325   85.65163   5.75       53.42494   92.7924    95.08006   5.75       0.2520742  0.04187238 4198.2     0.02454847 1.736874  
8718.75    1950       76.36234   358.2601   72.68846   153.3206   5.75       53.55319   92.97112   95.14185   5.75       0.2517226  0.04277872 4237.467   0.02785295 1.736052  
8719       1950       68.33817   208.2282   110.9109   184.2155   5.75       53.71639   93.10724   95.20362   5.75       0.2505449  0.04393208 4276.733   0.03115744 1.733312  
8719.25    1950       56.32702   169.5965   110.5261   97.94115   5.75       53.89953   93.18362   96.24699   5.75       0.2486029  0.04522638 4252.667   0.03108851 1.728839  
8719.5     1950       41.49412   153.5472   89.40848   91.52094   5.75       54.06036   93.15011   97.29037   5.75       0.2460628  0.046363   4228.6     0.03101959 1.723076  
8719.75    1950       36.44237   146.0644   101.0825   99.64846   5.75       54.14429   92.94994   101.1441   5.75       0.243206   0.04695615 4197.467   0.03022219 1.716708  
8720       1950       33.23365   137.582    87.03417   60.77932   5.75       54.11511   92.5659    104.9979   5.75       0.240386   0.04674991 4166.333   0.02942479 1.710537  
8720.25    1950       28.7778    110.8431   109.1708   68.00096   5.75       53.98735   92.04639   109.4181   5.75       0.2377938  0.045847   4141.667   0.02597679 1.704962  
8720.5     1950       25.89058   94.86294   116.3444   66.98629   5.75       53.81725   91.49429   113.8382   5.75       0.2354936  0.0446449  4117       0.02252879 1.700092  
8720.75    1950       26.15114   83.67204   162.4032   79.51246   5.75       53.66342   91.02343   118.5878   5.75       0.2336267  0.04355775 4132.067   0.01843226 1.696191  
8721       1950       29.5663    97.92975   187.1388   99.49259   5.75       53.55418   90.7051    123.3375   5.75       0.2324264  0.0427857  4147.134   0.01433573 1.693707  
8721.25    1950       33.35846   116.2597   223.3201   115.9417   5.75       53.48932   90.53714   126.5353   5.75       0.2318986  0.04232731 4194.267   0.01127964 1.692621  
8721.5     1950       37.85631   134.9358   274.134    123.5783   5.75       53.46228   90.4591    129.733    5.75       0.2316045  0.04213623 4241.4     0.008223563 1.692017  
8721.75    1950       47.88449   172.0786   358.8966   163.2888   5.75       53.46951   90.41092   128.0468   5.75       0.2310527  0.04218732 4251.967   0.007573789 1.690888  
8722       1950       55.92006   231.0189   477.2809   221.2173   5.75       53.50198   90.37746   126.3606   5.75       0.2302427  0.04241679 4262.533   0.006924015 1.689236  
8722.25    1950       65.79908   499.4989   725.9877   462.2542   5.75       53.53915   90.37965   126.3241   5.75       0.2296851  0.04267953 4247.3     0.006792095 1.688104  
8722.5     1950       69.85218   751.9942   1653.826   525.9435   5.75       53.55698   90.43081   126.2875   5.75       0.2298791  0.04280549 4232.066   0.006660174 1.688497  
8722.75    1950       76.21672   1220.908   1950       915.7594   5.75       53.54478   90.51236   121.9556   5.75       0.2308164  0.04271933 4182.8     0.00670589 1.690405  
8723       1950       75.65202   1659.448   1950       1514.93    5.75       53.51263   90.60029   117.6238   5.75       0.2321138  0.04249211 4133.534   0.006751606 1.693063  
8723.25    1950       67.74474   1537.502   1914.924   1520.137   5.75       53.47912   90.68991   115.121    5.75       0.2334384  0.04225525 4127.9     0.008053361 1.6958    
