~VERSION INFORMATION
VERS.           1.2   :CWLS Log ASCII Standard - VERSION 1.2
WRAP.           NO    :One Line per depth step
PROD.  Schlumberger   :LAS Producer
PROG.  DLIS to ASCII 2.3                               :LAS Program name and version
CREA.        2021/07/30 13:36                          :LAS Creation date {YYYY/MM/DD hh:mm}
DLIS_CREA.  2021-Jul-30 07:07                          :DLIS Creation date and time {YYYY-MMM-DD hh:mm}
SOURCE.     dc707e3c-4962-4d77-8314-dc20fe7b42b8       :DLIS File Name
#--------------------------------------------------
~WELL INFORMATION
#MNEM.UNIT      DATA             DESCRIPTION
#---- ------ --------------   -----------------------------
STRT .F        8616.5000     :START DEPTH     
STOP .F        9518.5000     :STOP DEPTH     
STEP .F           0.5000       :STEP     
NULL .          -999.25      :NULL VALUE
COMP .                 COMPANY:  University Of Utah                 
WELL .                    WELL:  FORGE 78B-32                       
FLD  .                   FIELD:  None                               
LOC  .                LOCATION:  Lat: 38.500171, Long: -112.88221   
CNTY .                  COUNTY:  Beaver                             
STAT .                   STATE:  Utah                               
CTRY .                 COUNTRY:                                     
SRVC .         SERVICE COMPANY:  Schlumberger                       
LATI .DEG             LATITUDE:  38 30' 0.616" N                   
LONG .DEG            LONGITUDE:  112 52' 55.956" W                 
API  .              API NUMBER:  NRC 42-00090-03                    
DATE .                LOG DATE:  30-Jul-2021
UWI  .          UNIQUE WELL ID:                                     
#-----------------------------------------------------------------------------
~PARAMETER INFORMATION
#MNEM.UNIT    VALUE                      DESCRIPTION
#---- -----   --------------------       ------------------------
CN   .        University Of Utah         :Company Name
WN   .        FORGE 78B-32               :Well Name
FN   .        None                       :Field Name
FL   .        Lat  38.500171  Long  -112.88221 :Field Location
FL1  .                                   :Field Location, Line 1
COUN .        Beaver                     :County or Parish
STAT .        Utah                       :State or Province
NATI .                                   :Nation
DATE .        30-Jul-2021                :Tools Above Rotary Table Date
APIN .        NRC 42-00090-03            :API Well Number
SECT .                                   :Section
TOWN .                                   :Township
RANG .                                   :Range
DMF  .        KB                         :Drilling Measured From (Name of Drilling Elevation Reference)
LMF  .        KB                         :Logging Measured From (Name of Logging Elevation Reference)
PDAT .        GL                         :Permanent Datum
ENGI .        CSTILES                    :Engineer s Name
WITN .        Virgil  Welch              :Witness s Name
LATI .        38� 30' 0.616  N           :Latitude
LONG .        112� 52' 55.956  W         :Longitude
LUL  .        F.Morgan                   :Logging Unit Location
LUN  .        9108                       :Logging Unit Number
RUN  .        1B                         :Run Number
SON  .                                   :Service Order Number
BHT  .DEGF     419.00000                 :Bottom Hole Temperature
BS   .IN         5.75000                 :Bit Size
MDEN .G/C3       2.71000                 :Matrix Density for Density Porosity
DFD  .LB/G       8.30000                 :Drilling Fluid Density
DFV  .S         24.00000                 :Drilling Fluid Viscosity
DFL  .C3      -999.25000                 :Drilling Fluid Loss
RMFS .OHMM       4.42000                 :Resistivity of Mud Filtrate Sample
EKB  .F       5565.50000                 :Elevation of Kelly Bushing
EGL  .F       5536.00000                 :Elevation of Ground Level
BLI  .F       9532.00000                 :Bottom Log Interval
BSAL .PPM      700.00000                 :Borehole Salinity
FLEV .F          8.00000                 :Depth of Drilling Fluid Level to LMF (Log Measured From)
MCST .DEGF      62.00000                 :Mudcake Sample Temperature
MFST .DEGF      62.00000                 :Mud Filtrate Sample Temperature
MRT  .DEGF     419.00000                 :Maximum Recorded Temperature
MST  .DEGF      62.00000                 :Mud Sample Temperature
RMCS .OHMM       6.21000                 :Resistivity of Mud Cake Sample
RMS  .OHMM       5.20000                 :Resistivity of Mud Sample
RW   .OHMM       1.00000                 :Connate Water Resistivity
TDD  .F       9500.00000                 :Driller Total Depth
TDL  .F       9532.00000                 :Logger Total Depth
TLI  .F       8530.00000                 :Top Log Interval
HIDE .                                   :Header Identifier
MATR .        LIME                       :Rock Matrix for Neutron Porosity Corrections
FNUM .           1.00000                 :F-Numerator for Formation Factor Formula
FEXP .           2.00000                 :Exponent "m" for Formation Factor Formula
DFT  .        WATER                      :Drilling Fluid Type
DFPH .          11.00000                 :Drilling Fluid pH
MCSS .        Calculated                 :Mudcake Sample Source
MFSS .        Calculated                 :Mud Filtrate Sample Source
FD   .G/C3       1.00000                 :Fluid Density
MSS  .        Flowline                   :Mud Sample Source
OS1  .                                   :Other Services Line 1
OS2  .                                   :Other Services Line 2
OS3  .                                   :Other Services Line 3
OS4  .                                   :Other Services Line 4
OS5  .                                   :Other Services Line 5
R1   .                                   :Remarks Line 1
R2   .                                   :Remarks Line 2
R3   .                                   :Remarks Line 3
R4   .                                   :Remarks Line 4
R5   .                                   :Remarks Line 5
R6   .        Tool was run as per tool sketch :Remarks Line 6
R7   .        All logging intervals as per client request :Remarks Line 7
R8   .                                   :Remarks Line 8
TCS  .        20 00 00                   :Time Circulation Stopped
TLAB .        02 17 00                   :Time Logger At Bottom
NMT  .        NOBARITE                   :HRDD Mud Type for Nuclear Devices
EPD  .C3         5536.000000             :Elevation of Permanent Datum above Mean Sea Level
APD  .F          29.500000               :Elevation of Depth Reference (LMF) above Permanent Datum
#-----------------------------------------------------------------------------
~CURVE INFORMATION
#MNEM.UNIT   API CODE                                  DESCRIPTION
#---- -----  --------                                  -----------------------
DEPT .F                                                :DEPTH (BOREHOLE) {F12.4}
AF10 .OHMM                                             :Array Induction Four Foot Resistivity A10 {F11.4}
AF20 .OHMM                                             :Array Induction Four Foot Resistivity A20 {F11.4}
AF30 .OHMM                                             :Array Induction Four Foot Resistivity A30 {F11.4}
AF60 .OHMM                                             :Array Induction Four Foot Resistivity A60 {F11.4}
AF90 .OHMM                                             :Array Induction Four Foot Resistivity A90 {F11.4}
AO10 .OHMM                                             :Array Induction One Foot Resistivity A10 {F11.4}
AO20 .OHMM                                             :Array Induction One Foot Resistivity A20 {F11.4}
AO30 .OHMM                                             :Array Induction One Foot Resistivity A30 {F11.4}
AO60 .OHMM                                             :Array Induction One Foot Resistivity A60 {F11.4}
AO90 .OHMM                                             :Array Induction One Foot Resistivity A90 {F11.4}
AT10 .OHMM                                             :Array Induction Two Foot Resistivity A10 {F11.4}
AT20 .OHMM                                             :Array Induction Two Foot Resistivity A20 {F11.4}
AT30 .OHMM                                             :Array Induction Two Foot Resistivity A30 {F11.4}
AT60 .OHMM                                             :Array Induction Two Foot Resistivity A60 {F11.4}
AT90 .OHMM                                             :Array Induction Two Foot Resistivity A90 {F11.4}
AORT .OHMM                                             :Array Induction One Foot Rt {F11.4}
AORX .OHMM                                             :Array Induction One Foot Rxo {F11.4}
CDF  .LBF                                              :Calibrated Downhole Force {F11.4}
CFTC .HZ                                               :Corrected Far Thermal Count Rate {F11.4}
CNTC .HZ                                               :Corrected Near Thermal Count Rate {F11.4}
CTEM .DEGF                                             :Cartridge Temperature {F11.4}
DCAL .IN                                               :Differential Caliper {F11.4}
DT   .US/F                                             :Delta-T (also called Slowness or Interval Transit Time) {F11.4}
DTCO .US/F                                             :Delta-T Compressional {F11.4}
DTSM .US/F                                             :Delta-T Shear {F11.4}
ED   .F                                                :East Departure {F11.4}
GR_STGC.GAPI                                           :Gamma Ray {F11.4}
GTEM .DEGF                                             :Generalized Borehole Temperature {F11.4}
HGR_STGC.GAPI                                          :High Resolution Gamma Ray {F11.4}
HNPO .CFCF                                             :High Resolution Enhanced Thermal Neutron Porosity in Selected Lithology {F11.4}
HTNP .CFCF                                             :High Resolution Thermal Neutron Porosity (Ratio Method) in Selected Lithology {F11.4}
ITT  .S                                                :Integrated Transit Time {F11.4}
ND   .F                                                :North Departure {F11.4}
NPHI .CFCF                                             :Thermal Neutron Porosity (original Ratio Method) in Selected Lithology {F11.4}
NPOR .CFCF                                             :Enhanced Thermal Neutron Porosity in Selected Lithology {F11.4}
PR   .                                                 :Poisson s Ratio {F11.4}
SP   .MV                                               :Spontaneous Potential {F11.4}
SPAR .MV                                               :SP, Armor Return Compensated {F11.4}
SPHI .CFCF                                             :Sonic Porosity {F11.4}
STIT .F                                                :Stuck Tool Indicator, Total {F11.4}
TENS .LBF                                              :Cable Tension {F11.4}
TNPH .CFCF                                             :Thermal Neutron Porosity (Ratio Method) in Selected Lithology {F11.4}
HTNP_SAN.CFCF                                          :HiRes Thermal Neutron Porosity (matrix Sandstone) {F11.4}
#-----------------------------------------------------------------------------
# 
#      DEPT        AF10       AF20       AF30       AF60       AF90       AO10       AO20       AO30       AO60       AO90       AT10       AT20       AT30       AT60       AT90       AORT       AORX       CDF        CFTC       CNTC       CTEM       DCAL        DT        DTCO       DTSM        ED      GR_STGC      GTEM     HGR_STGC     HNPO       HTNP       ITT         ND        NPHI       NPOR        PR         SP        SPAR       SPHI       STIT       TENS       TNPH     HTNP_SAN
#
~A  
# ...
   9033.0000    73.1108    31.6932  1950.0000  1950.0000  1950.0000   105.9022    35.2661   468.4077   127.3485   102.3054    91.0337    32.0889  1950.0000  1950.0000  1073.5947   128.7795    88.4971 -9685.3613 15897.1006 20274.2520   116.1412     0.0000    62.0313    62.0313   129.5471     0.0000    74.1938   402.9325    72.3449     0.0073     0.0059     0.0354     0.0000     0.0112     0.0157     0.3513    43.7500    43.9622     0.0608     0.0000  3164.0002     0.0088     0.0332
   9033.5000    81.3646    30.6953  1950.0000  1950.0000  1950.0000   105.2684    30.1452   872.3339   265.7440   186.3461   102.1685    30.3658  1950.0000  1950.0000   666.2519   265.7440    97.4101 -9674.2803 15401.4697 20466.2051   116.1412     0.0000  -999.2500  -999.2500   122.4879     0.0000    75.5517   402.9648    74.4488     0.0079     0.0069  -999.2500     0.0000     0.0118     0.0124  -999.2500    44.3750    44.4135  -999.2500     0.0000  3179.0000     0.0085     0.0344
   9034.0000    90.7216    30.1860  1950.0000  1950.0000  1946.9989    99.0595    27.4138   918.4073   359.0847   224.7788   111.7505    29.2243  1950.0000  1950.0000   407.3369   359.0847   101.6968 -9676.7100 15600.2666 21613.6426   116.1412     0.0000  -999.2500  -999.2500   115.4286     0.0000    77.7095   402.9785    77.1639     0.0057     0.0103  -999.2500     0.0000     0.0124    -0.0007  -999.2500    44.6875    44.7182  -999.2500     0.0000  3193.0000     0.0083     0.0385
   9034.5000   100.5348    30.3676  1950.0000  1950.0000  1825.3900   114.6328    25.9000   641.6721   392.3319   276.9185   119.2461    29.1616  1950.0000  1935.5070   270.2401   392.3319   114.6328 -9640.0342 15747.9102 20600.2207   116.1412     0.0000    43.4277    43.4277    88.1002     0.0000    79.1727   403.0062    78.5273     0.0129     0.0086     0.0355     0.0000     0.0120     0.0044     0.3813    45.0000    44.9602    -0.2212     0.0000  3197.5002     0.0065     0.0365
   9035.0000   109.6405    31.3510  1950.0000  1950.0000  1587.9688   143.9778    26.0003   387.3542   292.0287   220.1790   124.0865    30.5776  1950.0000  1910.0978   202.1154   292.0287   115.6064 -9629.2510 15731.7305 20599.2090   116.1412     0.0000    37.2266    37.2266    88.1002     0.0000    82.3998   403.0338    80.3636     0.0028     0.0059     0.0355     0.0000     0.0093     0.0015     0.3913    45.6250    45.2332    -0.3152     0.0000  3192.0000     0.0063     0.0333
   9035.5000   116.2173    33.1312  1950.0000  1950.0000  1261.9644   173.0109    28.6651   228.4794   189.4908   133.4848   124.5031    33.7945  1950.0000  1893.8303   125.2552   189.4908   124.1053 -9687.2734 15122.0352 18637.3008   116.1412     0.0000    67.2461    67.2461    88.1002     0.0000    84.0646   403.0592    87.1176     0.0023     0.0025     0.0355     0.0000     0.0086     0.0186  -999.2500    45.6250    45.3515     0.1045     0.0000  3179.0000     0.0060     0.0292
   9036.0000   118.2800    35.5317  1950.0000  1950.0000   951.9791   129.6002    40.2548   358.2475   260.0478   249.0273   119.3624    38.8912  1950.0000  1899.7297   141.1595   260.0478   102.4219 -9699.8174 15088.3125 19164.3320   116.1412     0.0000    82.4023    82.4023    89.3117     0.0000    86.5083   403.0569    84.0672     0.0069     0.0027     0.0355     0.0000     0.0085     0.0094  -999.2500    45.6250    45.3601     0.2003     0.0000  3168.0000     0.0058     0.0294
   9036.5000   114.8165    38.1551  1950.0000  1950.0000   706.5782   105.3855    59.2768   422.8392   371.9873   282.8505   110.0977    45.1515  1860.9872  1912.9458   161.9993   371.9873    94.3740 -9642.3457 15204.4893 19833.4395   116.1412     0.0000    79.9414    79.9414    89.3117     0.0000    86.2716   403.0707    88.4426     0.0031     0.0059     0.0356     0.0000     0.0093    -0.0040  -999.2500    45.6250    45.3841     0.1872     0.0000  3166.0002     0.0042     0.0333
   9037.0000   106.5823    40.4505  1950.0000  1950.0000   541.4847    77.7187    71.3221   775.8162   789.7420   580.0501    99.5083    50.5986  1679.3536  1938.2823   174.3939   789.7420    83.6771 -9625.8750 15071.6738 19221.7676   116.1412     0.0000    77.4805    77.4805    89.3117     0.0000    86.0162   403.0937    87.4909     0.0063     0.0054     0.0356     0.0000     0.0090     0.0071  -999.2500    45.6250    45.3803     0.1733     0.0000  3162.0002     0.0059     0.0326
   9037.5000    95.6629    41.9716  1950.0000  1950.0000   446.1387    73.9247    63.3574   946.8220  1352.0391   872.2572    89.2355    53.1828  1411.6986  1950.0000   165.1469  1352.0391    74.0504 -9649.6328 14665.8535 18397.4395   116.1412     0.0000    76.2500    76.2500    88.6972     0.0000    84.5908   403.1951    84.3364     0.0078     0.0044     0.0357     0.0000     0.0101     0.0211  -999.2500    45.6250    45.7251     0.1660     0.0000  3169.0000     0.0079     0.0315
   9038.0000    84.2813    42.6430  1950.0000  1950.0000   425.6598    73.2045    52.4088   887.4078  1866.0438  1177.9727    78.9019    52.4326  1126.2555  1950.0000   140.7328  1866.0438    67.2898 -9659.7656 14610.9648 20004.1230   116.1412     0.0000    76.2500    76.2500    88.6972     0.0000    84.0619   403.1674    83.8098     0.0172     0.0105     0.0357     0.0000     0.0116     0.0033  -999.2500    45.6250    45.7123     0.1660     0.0000  3173.0000     0.0080     0.0387
   9038.5000    73.9442    42.7297  1950.0000  1950.0000   401.1319    65.5788    45.2781   666.3961  1907.4528  1275.0631    69.3057    50.5189   906.2920  1950.0000   139.5178  1907.4528    58.5068 -9760.7266 15005.7148 20370.6797   116.1412     0.0000    72.6953    72.6953    88.6972     0.0000    84.2790   403.1628    84.5685     0.0098     0.0121     0.0357     0.0000     0.0125    -0.0010     0.0586    45.6250    45.7183     0.1435     0.0000  3178.5000     0.0071     0.0407
   9039.0000    65.2949    42.5485  1950.0000  1950.0000   469.4188    50.4803    43.3241   544.9111  1645.5656  1101.5729    57.5173    48.3931   760.6930  1950.0000   141.7053  1645.5656    51.2906 -9805.0459 15204.4893 19794.9570   116.1412     0.0000    63.3203    63.3203    90.0542     0.0000    86.5533   403.2227    83.9521     0.0103     0.0079     0.0358     0.0000     0.0114     0.0067     0.0111    45.6250    45.9658     0.0723     0.0000  3163.0002     0.0074     0.0356
   9039.5000    58.3656    42.2388  1950.0000  1950.0000   600.8649    44.1150    43.0469   404.0097  1244.7368   740.3812    51.5505    48.5826   675.4802  1950.0000   161.8468  1244.7368    45.9163 -9724.2285 14759.3828 19355.7852   116.1412     0.0000    57.5000    57.5000    90.0542     0.0000    93.6890   403.1905    89.9341     0.0090     0.0076     0.0358     0.0000     0.0105     0.0092     0.1559    45.6250    46.0473     0.0163     0.0000  3158.0000     0.0073     0.0353
   9040.0000    52.8511    41.7568  1896.9580  1950.0000   809.8929    36.6043    53.2926   493.7319   957.6650   533.8701    45.5181    47.6245   704.1512  1950.0000   185.3884   957.6650    41.6897 -9689.3311 14643.3564 19087.9395   116.1412     0.0000    60.5078    60.5078    90.0542     0.0000   102.8966   403.2872    97.9066     0.0068     0.0061     0.0358     0.0000     0.0127     0.0093     0.0885    46.2500    46.1790     0.0466     0.0000  3168.5000     0.0089     0.0335
   9040.5000    48.3442    41.0446  1693.9955  1950.0000  1099.9309    35.6505    51.2235   401.0926   437.5049   274.7163    43.2748    47.7017   726.0842  1950.0000   273.7763   477.8062    37.7221 -9743.5449 13340.2451 19039.3262   116.1412     0.0000    66.5234    66.5234    87.5847     0.0000   113.6116   403.2826   108.0101     0.0097     0.0105     0.0359     0.0000     0.0151     0.0063  -999.2500    46.2500    46.4211     0.0989     0.0000  3174.0000     0.0107     0.0388
   9041.0000    44.4571    40.1571  1350.7529  1950.0000  1437.2274    39.3819    49.0815   464.6387   966.3325   549.1917    41.1083    45.6541   664.9861  1950.0000   341.4980   966.3325    36.7072 -9790.4111 12698.0176 18340.0078   116.1412     0.0000    79.6289    79.6289    87.5847     0.0000   123.0336   403.2872   119.2131     0.0125     0.0153     0.0359     0.0000     0.0183     0.0100  -999.2500    46.5625    46.6571     0.1855     0.0000  3176.4998     0.0139     0.0446
