~VERSION INFORMATION
VERS.           1.2   :CWLS Log ASCII Standard - VERSION 1.2
WRAP.           NO    :One Line per depth step
PROD.  Schlumberger   :LAS Producer
PROG.  DLIS to ASCII 2.3                               :LAS Program name and version
CREA.        2021/07/30 13:36                          :LAS Creation date {YYYY/MM/DD hh:mm}
DLIS_CREA.  2021-Jul-30 07:08                          :DLIS Creation date and time {YYYY-MMM-DD hh:mm}
SOURCE.     9adb19af-6988-40d6-a86c-1e71535bb624       :DLIS File Name
#--------------------------------------------------
~WELL INFORMATION
#MNEM.UNIT      DATA             DESCRIPTION
#---- ------ --------------   -----------------------------
STRT .F        5785.0000     :START DEPTH     
STOP .F        9045.0000     :STOP DEPTH     
STEP .F           0.5000       :STEP     
NULL .          -999.25      :NULL VALUE
COMP .                 COMPANY:  University Of Utah                 
WELL .                    WELL:  FORGE 78B-32                       
FLD  .                   FIELD:  None                               
LOC  .                LOCATION:  Lat: 38.500171, Long: -112.88221   
CNTY .                  COUNTY:  Beaver                             
STAT .                   STATE:  Utah                               
CTRY .                 COUNTRY:                                     
SRVC .         SERVICE COMPANY:  Schlumberger                       
LATI .DEG             LATITUDE:  38 30' 0.616" N                   
LONG .DEG            LONGITUDE:  112 52' 55.956" W                 
API  .              API NUMBER:  NRC 42-00090-03                    
DATE .                LOG DATE:  30-Jul-2021
UWI  .          UNIQUE WELL ID:                                     
#-----------------------------------------------------------------------------
~PARAMETER INFORMATION
#MNEM.UNIT    VALUE                      DESCRIPTION
#---- -----   --------------------       ------------------------
CN   .        University Of Utah         :Company Name
WN   .        FORGE 78B-32               :Well Name
FN   .        None                       :Field Name
FL   .        Lat  38.500171  Long  -112.88221 :Field Location
FL1  .                                   :Field Location, Line 1
COUN .        Beaver                     :County or Parish
STAT .        Utah                       :State or Province
NATI .                                   :Nation
DATE .        30-Jul-2021                :Tools Above Rotary Table Date
APIN .        NRC 42-00090-03            :API Well Number
SECT .                                   :Section
TOWN .                                   :Township
RANG .                                   :Range
DMF  .        KB                         :Drilling Measured From (Name of Drilling Elevation Reference)
LMF  .        KB                         :Logging Measured From (Name of Logging Elevation Reference)
PDAT .        GL                         :Permanent Datum
ENGI .        CSTILES                    :Engineer s Name
WITN .        Virgil  Welch              :Witness s Name
LATI .        38� 30' 0.616  N           :Latitude
LONG .        112� 52' 55.956  W         :Longitude
LUL  .        F.Morgan                   :Logging Unit Location
LUN  .        9108                       :Logging Unit Number
RUN  .        1B                         :Run Number
SON  .                                   :Service Order Number
BHT  .DEGF     419.00000                 :Bottom Hole Temperature
BS   .IN         5.75000                 :Bit Size
MDEN .G/C3       2.71000                 :Matrix Density for Density Porosity
DFD  .LB/G       8.30000                 :Drilling Fluid Density
DFV  .S         24.00000                 :Drilling Fluid Viscosity
DFL  .C3      -999.25000                 :Drilling Fluid Loss
RMFS .OHMM       4.42000                 :Resistivity of Mud Filtrate Sample
EKB  .F       5565.50000                 :Elevation of Kelly Bushing
EGL  .F       5536.00000                 :Elevation of Ground Level
BLI  .F       9532.00000                 :Bottom Log Interval
BSAL .PPM      700.00000                 :Borehole Salinity
FLEV .F          8.00000                 :Depth of Drilling Fluid Level to LMF (Log Measured From)
MCST .DEGF      62.00000                 :Mudcake Sample Temperature
MFST .DEGF      62.00000                 :Mud Filtrate Sample Temperature
MRT  .DEGF     419.00000                 :Maximum Recorded Temperature
MST  .DEGF      62.00000                 :Mud Sample Temperature
RMCS .OHMM       6.21000                 :Resistivity of Mud Cake Sample
RMS  .OHMM       5.20000                 :Resistivity of Mud Sample
RW   .OHMM       1.00000                 :Connate Water Resistivity
TDD  .F       9500.00000                 :Driller Total Depth
TDL  .F       9532.00000                 :Logger Total Depth
TLI  .F       8530.00000                 :Top Log Interval
HIDE .                                   :Header Identifier
MATR .        LIME                       :Rock Matrix for Neutron Porosity Corrections
FNUM .           1.00000                 :F-Numerator for Formation Factor Formula
FEXP .           2.00000                 :Exponent "m" for Formation Factor Formula
DFT  .        WATER                      :Drilling Fluid Type
DFPH .          11.00000                 :Drilling Fluid pH
MCSS .        Calculated                 :Mudcake Sample Source
MFSS .        Calculated                 :Mud Filtrate Sample Source
FD   .G/C3       1.00000                 :Fluid Density
MSS  .        Flowline                   :Mud Sample Source
OS1  .                                   :Other Services Line 1
OS2  .                                   :Other Services Line 2
OS3  .                                   :Other Services Line 3
OS4  .                                   :Other Services Line 4
OS5  .                                   :Other Services Line 5
R1   .                                   :Remarks Line 1
R2   .                                   :Remarks Line 2
R3   .                                   :Remarks Line 3
R4   .                                   :Remarks Line 4
R5   .                                   :Remarks Line 5
R6   .        Tool was run as per tool sketch :Remarks Line 6
R7   .        All logging intervals as per client request :Remarks Line 7
R8   .                                   :Remarks Line 8
TCS  .        20 00 00                   :Time Circulation Stopped
TLAB .        02 17 00                   :Time Logger At Bottom
NMT  .        NOBARITE                   :HRDD Mud Type for Nuclear Devices
EPD  .C3         5536.000000             :Elevation of Permanent Datum above Mean Sea Level
APD  .F          29.500000               :Elevation of Depth Reference (LMF) above Permanent Datum
#-----------------------------------------------------------------------------
~CURVE INFORMATION
#MNEM.UNIT   API CODE                                  DESCRIPTION
#---- -----  --------                                  -----------------------
DEPT .F                                                :DEPTH (BOREHOLE) {F12.4}
AF10 .OHMM                                             :Array Induction Four Foot Resistivity A10 {F11.4}
AF20 .OHMM                                             :Array Induction Four Foot Resistivity A20 {F11.4}
AF30 .OHMM                                             :Array Induction Four Foot Resistivity A30 {F11.4}
AF60 .OHMM                                             :Array Induction Four Foot Resistivity A60 {F11.4}
AF90 .OHMM                                             :Array Induction Four Foot Resistivity A90 {F11.4}
AO10 .OHMM                                             :Array Induction One Foot Resistivity A10 {F11.4}
AO20 .OHMM                                             :Array Induction One Foot Resistivity A20 {F11.4}
AO30 .OHMM                                             :Array Induction One Foot Resistivity A30 {F11.4}
AO60 .OHMM                                             :Array Induction One Foot Resistivity A60 {F11.4}
AO90 .OHMM                                             :Array Induction One Foot Resistivity A90 {F11.4}
AT10 .OHMM                                             :Array Induction Two Foot Resistivity A10 {F11.4}
AT20 .OHMM                                             :Array Induction Two Foot Resistivity A20 {F11.4}
AT30 .OHMM                                             :Array Induction Two Foot Resistivity A30 {F11.4}
AT60 .OHMM                                             :Array Induction Two Foot Resistivity A60 {F11.4}
AT90 .OHMM                                             :Array Induction Two Foot Resistivity A90 {F11.4}
AORT .OHMM                                             :Array Induction One Foot Rt {F11.4}
AORX .OHMM                                             :Array Induction One Foot Rxo {F11.4}
CDF  .LBF                                              :Calibrated Downhole Force {F11.4}
CFTC .HZ                                               :Corrected Far Thermal Count Rate {F11.4}
CNTC .HZ                                               :Corrected Near Thermal Count Rate {F11.4}
CTEM .DEGF                                             :Cartridge Temperature {F11.4}
DCAL .IN                                               :Differential Caliper {F11.4}
DT   .US/F                                             :Delta-T (also called Slowness or Interval Transit Time) {F11.4}
DTCO .US/F                                             :Delta-T Compressional {F11.4}
DTSM .US/F                                             :Delta-T Shear {F11.4}
ED   .F                                                :East Departure {F11.4}
GR_STGC.GAPI                                           :Gamma Ray {F11.4}
GTEM .DEGF                                             :Generalized Borehole Temperature {F11.4}
HGR_STGC.GAPI                                          :High Resolution Gamma Ray {F11.4}
HNPO .CFCF                                             :High Resolution Enhanced Thermal Neutron Porosity in Selected Lithology {F11.4}
HTNP .CFCF                                             :High Resolution Thermal Neutron Porosity (Ratio Method) in Selected Lithology {F11.4}
ITT  .S                                                :Integrated Transit Time {F11.4}
ND   .F                                                :North Departure {F11.4}
NPHI .CFCF                                             :Thermal Neutron Porosity (original Ratio Method) in Selected Lithology {F11.4}
NPOR .CFCF                                             :Enhanced Thermal Neutron Porosity in Selected Lithology {F11.4}
PR   .                                                 :Poisson s Ratio {F11.4}
SP   .MV                                               :Spontaneous Potential {F11.4}
SPAR .MV                                               :SP, Armor Return Compensated {F11.4}
SPHI .CFCF                                             :Sonic Porosity {F11.4}
STIT .F                                                :Stuck Tool Indicator, Total {F11.4}
TENS .LBF                                              :Cable Tension {F11.4}
TNPH .CFCF                                             :Thermal Neutron Porosity (Ratio Method) in Selected Lithology {F11.4}
HTNP_SAN.CFCF                                          :HiRes Thermal Neutron Porosity (matrix Sandstone) {F11.4}
#-----------------------------------------------------------------------------
# 
#      DEPT        AF10       AF20       AF30       AF60       AF90       AO10       AO20       AO30       AO60       AO90       AT10       AT20       AT30       AT60       AT90       AORT       AORX       CDF        CFTC       CNTC       CTEM       DCAL        DT        DTCO       DTSM        ED      GR_STGC      GTEM     HGR_STGC     HNPO       HTNP       ITT         ND        NPHI       NPOR        PR         SP        SPAR       SPHI       STIT       TENS       TNPH     HTNP_SAN
#
~A  
# ...
   7085.5000     6.5473     0.3187  1950.0000    77.0284  1942.2177     5.0090     0.4584  1527.6169    18.7055   104.9805     4.3291     0.4092  1950.0000    79.7149  1556.3276    18.7055     3.7359 -9999.9999  2095.9951  5743.6128   100.3294     0.0000    65.6250    65.6250    91.0148     0.0000   115.5330   334.9689   115.7870     0.0732     0.0653     0.1044     0.0000     0.0317     0.0479  -999.2500    20.6250    20.7316     0.0917     0.0000  2716.0000     0.0579     0.1078
   7086.0000     4.5482     0.3221  1950.0000    80.4164  1881.2655     3.2375     0.4669  1841.3135     8.6789   119.3789     3.1450     0.4167  1950.0000    89.4704  1841.3694     9.0228     2.8448     0.0000  2440.4900  5269.1187   100.3294     0.0000    67.6563    67.6563    89.3046     0.0000   114.6335   335.0008   114.8890     0.0459     0.0528     0.1044     0.0000     0.0314     0.0582     0.0289    19.3750    19.9647     0.1077     0.0000  2718.0000     0.0559     0.0919
   7086.5000     3.3531     0.3268  1950.0000    77.9377  1795.8384     2.3516     0.4808  1774.3744    15.0035   139.2106     2.3643     0.4269  1950.0000    90.5409  1950.0000    15.0035     2.1799     0.0000  2011.8738  5207.1841   100.3294     0.0000    62.5391    62.5391    88.6336     0.0000   113.6620   335.0599   113.8687     0.0560     0.0550     0.1045     0.0000     0.0166     0.0511     0.0043    18.1250    19.1863     0.0653     0.0000  2715.0000     0.0468     0.0947
   7087.0000     2.5912     0.3326  1950.0000    69.3884  1703.5609     1.7836     0.5026  1066.1918    19.3016   123.9864     1.8482     0.4393  1950.0000    77.6775  1950.0000    18.8043     1.7474 -2050.7375  2506.6213  4920.3130   100.3294     0.0000    52.3047    52.3047    88.6336     0.0000   112.9482   335.0418   112.4822     0.0430     0.0383     0.1045     0.0000     0.0190     0.0532     0.2328    17.5000    17.4558    -0.0442     0.0000  2709.0000     0.0438     0.0734
   7087.5000     2.0771     0.3391  1950.0000    62.5866  1630.6395     1.3834     0.5266   457.8530     8.5000    71.6185     1.4988     0.4530  1950.0000    69.0713  1950.0000     8.4984     1.3834 -9999.9999  2374.6707  5437.2861   100.3294     0.0000    59.0625    59.0625    89.8944     0.0000   113.4578   335.0235   112.4936     0.0273     0.0389     0.1045     0.0000     0.0081     0.0259     0.1202    16.8750    16.6834     0.0324     0.0000  2708.0000     0.0359     0.0742
   7088.0000     1.7131     0.3460  1950.0000    52.7321  1598.9823     1.1530     0.5465   209.4187    10.2193    38.2191     1.2545     0.4670  1950.0000    67.9970  1950.0000    10.2117     1.1758 -9999.9999  2473.6152  4920.3130   100.3294     0.0000    76.8750    76.8750    86.0964     0.0000   115.4475   335.0872   115.3977     0.0410     0.0335     0.1046     0.0000     0.0133     0.0535  -999.2500    15.3125    15.9262     0.1697     0.0000  2704.0000     0.0402     0.0673
   7088.5000     1.4450     0.3530  1950.0000    44.7742  1617.9543     1.0143     0.5618   130.5527    11.5777    29.3904     1.0777     0.4805  1950.0000    45.9228  1950.0000    11.5485     1.0194 -2050.1682  2374.6128  5341.5073   100.3294     0.0000    88.7500    88.7500    86.0964     0.0000   116.2609   335.1100   118.4531     0.0413     0.0433     0.1046     0.0000     0.0183     0.0441  -999.2500    15.0000    15.1903     0.2306     0.0000  2706.0000     0.0452     0.0797
   7089.0000     1.2415     0.3601  1950.0000    39.6237  1682.0081     0.8934     0.5746   114.8898     5.1122    11.1706     0.9449     0.4937  1950.0000    36.6897  1950.0000     5.1527     0.8934 10255.8203  2193.2722  5618.9771   100.3294     0.0000    70.9570    70.9570    86.3012     0.0000   116.9208   335.1146   117.2751     0.0558     0.0531     0.1046     0.0000     0.0249     0.0369  -999.2500    14.3750    14.0746     0.1317     0.0000  2711.0000     0.0492     0.0923
   7089.5000     1.0834     0.3674  1950.0000    35.4021  1771.9431     0.7903     0.5879   158.9185     6.9661    17.7077     0.8414     0.5070  1950.0000    37.3130  1950.0000     6.9496     0.7932 10254.3975  2242.7666  5245.7808   100.3294     0.0000    63.8867    63.8867    86.3012     0.0000   115.7474   335.1237   115.7483     0.0528     0.0603     0.1047     0.0000     0.0247     0.0586     0.1437    13.7500    13.3931     0.0772     0.0000  2716.0000     0.0523     0.1014
   7090.0000     0.9588     0.3748  1950.0000    33.1025  1861.4015     0.7186     0.6073   299.1348     5.7263    14.0017     0.7589     0.5210  1950.0000    31.5763  1950.0000     5.7263     0.7206     1.2439  2374.6707  5322.4141   100.3294     0.0000    60.2441    60.2441    93.8535     0.0000   114.6585   335.1237   116.5619     0.0490     0.0478     0.1047     0.0000     0.0244     0.0547     0.1496    13.1250    12.7411     0.0440     0.0000  2723.0000     0.0524     0.0854
   7090.5000     0.8592     0.3825  1950.0000    33.9161  1929.4558     0.6580     0.6323   618.2076     7.5711    22.3985     0.6923     0.5359  1950.0000    31.2031  1950.0000     7.1850     0.6615 -9999.9999  2160.2905  5494.6689   100.3294     0.0000    60.0293    60.0293    92.7764     0.0000   113.5739   335.1146   112.7551     0.0571     0.0544     0.1047     0.0000     0.0232     0.0434     0.1399    12.5000    11.6749     0.0420     0.0000  2726.0000     0.0498     0.0939
   7091.0000     0.7786     0.3906  1950.0000    35.8869  1950.0000     0.6005     0.6538   699.8631     4.6740     9.6844     0.6381     0.5514  1950.0000    33.8081  1950.0000     4.9108     0.6046 -9999.9999  2292.2393  5226.6357   100.3294     0.0000    59.9219    59.9219    92.7764     0.0000   114.4914   335.1464   113.3047     0.0560     0.0517     0.1048     0.0000     0.0228     0.0465     0.1421    11.8750    11.0792     0.0409     0.0000  2728.0000     0.0465     0.0905
   7091.5000     0.7124     0.3990  1950.0000    39.8667  1950.0000     0.5622     0.6680   475.5186     5.3797    10.7723     0.5932     0.5674  1950.0000    37.1827  1950.0000     5.0620     0.5687 -2051.0217  2407.5105  5341.5591   100.3294     0.0000    63.9258    63.9258    89.8544     0.0000   114.4615   335.1692   116.4970     0.0417     0.0435     0.1048     0.0000     0.0152     0.0366  -999.2500    10.6250    10.5073     0.0775     0.0000  2728.0000     0.0434     0.0800
   7092.0000     0.6572     0.4078  1950.0000    46.4431  1950.0000     0.5389     0.6853   357.2390     4.3606     7.5074     0.5549     0.5842  1950.0000    39.8430  1950.0000     4.6035     0.5336     0.0000  2226.2539  4747.7266   100.3294     0.0000    65.9961    65.9961    92.8066     0.0000   113.6109   335.2056   113.6128     0.0571     0.0449     0.1048     0.0000     0.0112     0.0586     0.1106     9.3750     9.9541     0.0947     0.0000  2719.0000     0.0411     0.0818
   7092.5000     0.6105     0.4171  1950.0000    60.4788  1950.0000     0.5085     0.7120   377.3351     4.2341     7.9518     0.5212     0.6016  1950.0000    36.9845  1950.0000     4.4672     0.5008     0.0000  2424.1667  4996.8940   100.3294     0.0000    62.0898    62.0898    92.8066     0.0000   110.5207   335.2056   111.5735     0.0367     0.0345     0.1049     0.0000     0.0130     0.0527     0.0949     8.7500     9.0088     0.0613     0.0000  2717.0000     0.0433     0.0686
   7093.0000     0.5700     0.4273  1950.0000    83.5136  1950.0000     0.4727     0.7416   545.5583     5.1195    12.8543     0.4906     0.6197  1950.0000    69.7128  1950.0000     4.3290     0.4718     0.0000  2374.6704  5513.8677   100.3294     0.0000    58.6621    58.6621    92.8675     0.0000   108.7361   335.1874   109.4660     0.0429     0.0460     0.1049     0.0000     0.0134     0.0284     0.1680     8.1250     8.4752     0.0284     0.0000  2721.0000     0.0378     0.0832
   7093.5000     0.5342     0.4391  1950.0000   121.3665  1950.0000     0.4477     0.7645   957.6367     5.0746    10.2398     0.4618     0.6391  1950.0000    87.0306  1950.0000     4.1433     0.4445     0.0000  2572.4336  5542.5313   100.3294     0.0000    60.4102    60.4102    89.2454     0.0000   106.1898   335.2420   106.2235     0.0442     0.0468     0.1049     0.0000     0.0165     0.0282     0.0772     7.5000     7.9415     0.0456     0.0000  2722.0000     0.0378     0.0842
