~VERSION INFORMATION
VERS.           1.2   :CWLS Log ASCII Standard - VERSION 1.2
WRAP.           NO    :One Line per depth step
PROD.  Schlumberger   :LAS Producer
PROG.  DLIS to ASCII 2.3                               :LAS Program name and version
CREA.        2021/07/30 13:36                          :LAS Creation date {YYYY/MM/DD hh:mm}
DLIS_CREA.  2021-Jul-30 07:08                          :DLIS Creation date and time {YYYY-MMM-DD hh:mm}
SOURCE.     6d1d3df9-7549-4232-acfc-119b5b71a716       :DLIS File Name
#--------------------------------------------------
~WELL INFORMATION
#MNEM.UNIT      DATA             DESCRIPTION
#---- ------ --------------   -----------------------------
STRT .F      7447.0000       :START DEPTH     
STOP .F      9553.0000       :STOP DEPTH     
STEP .F       0.5000         :STEP       
NULL .          -999.25      :NULL VALUE
COMP .                 COMPANY:  University Of Utah                 
WELL .                    WELL:  FORGE 78B-32                       
FLD  .                   FIELD:  None                               
LOC  .                LOCATION:  Lat: 38.500171, Long: -112.88221   
CNTY .                  COUNTY:  Beaver                             
STAT .                   STATE:  Utah                               
CTRY .                 COUNTRY:                                     
SRVC .         SERVICE COMPANY:  Schlumberger                       
LATI .DEG             LATITUDE:  38 30' 0.616" N                   
LONG .DEG            LONGITUDE:  112 52' 55.956" W                 
API  .              API NUMBER:  NRC 42-00090-03                    
DATE .                LOG DATE:  30-Jul-2021
UWI  .          UNIQUE WELL ID:                                     
#-----------------------------------------------------------------------------
~PARAMETER INFORMATION
#MNEM.UNIT    VALUE                      DESCRIPTION
#---- -----   --------------------       ------------------------
CN   .        University Of Utah         :Company Name
WN   .        FORGE 78B-32               :Well Name
FN   .        None                       :Field Name
FL   .        Lat  38.500171  Long  -112.88221 :Field Location
FL1  .                                   :Field Location, Line 1
COUN .        Beaver                     :County or Parish
STAT .        Utah                       :State or Province
NATI .                                   :Nation
DATE .        30-Jul-2021                :Tools Above Rotary Table Date
APIN .        NRC 42-00090-03            :API Well Number
SECT .                                   :Section
TOWN .                                   :Township
RANG .                                   :Range
DMF  .        KB                         :Drilling Measured From (Name of Drilling Elevation Reference)
LMF  .        KB                         :Logging Measured From (Name of Logging Elevation Reference)
PDAT .        GL                         :Permanent Datum
ENGI .        CSTILES                    :Engineer s Name
WITN .        Virgil  Welch              :Witness s Name
LATI .        38� 30' 0.616  N           :Latitude
LONG .        112� 52' 55.956  W         :Longitude
LUL  .        F.Morgan                   :Logging Unit Location
LUN  .        9108                       :Logging Unit Number
RUN  .        1B                         :Run Number
SON  .                                   :Service Order Number
BHT  .DEGF     419.00000                 :Bottom Hole Temperature
BS   .IN         5.75000                 :Bit Size
MDEN .G/C3       2.71000                 :Matrix Density for Density Porosity
DFD  .LB/G       8.30000                 :Drilling Fluid Density
DFV  .S         24.00000                 :Drilling Fluid Viscosity
DFL  .C3      -999.25000                 :Drilling Fluid Loss
RMFS .OHMM       4.42000                 :Resistivity of Mud Filtrate Sample
EKB  .F       5565.50000                 :Elevation of Kelly Bushing
EGL  .F       5536.00000                 :Elevation of Ground Level
BLI  .F       9532.00000                 :Bottom Log Interval
BSAL .PPM      700.00000                 :Borehole Salinity
FLEV .F          8.00000                 :Depth of Drilling Fluid Level to LMF (Log Measured From)
MCST .DEGF      62.00000                 :Mudcake Sample Temperature
MFST .DEGF      62.00000                 :Mud Filtrate Sample Temperature
MRT  .DEGF     419.00000                 :Maximum Recorded Temperature
MST  .DEGF      62.00000                 :Mud Sample Temperature
RMCS .OHMM       6.21000                 :Resistivity of Mud Cake Sample
RMS  .OHMM       5.20000                 :Resistivity of Mud Sample
RW   .OHMM       1.00000                 :Connate Water Resistivity
TDD  .F       9500.00000                 :Driller Total Depth
TDL  .F       9532.00000                 :Logger Total Depth
TLI  .F       8530.00000                 :Top Log Interval
HIDE .                                   :Header Identifier
MATR .        LIME                       :Rock Matrix for Neutron Porosity Corrections
FNUM .           1.00000                 :F-Numerator for Formation Factor Formula
FEXP .           2.00000                 :Exponent "m" for Formation Factor Formula
DFT  .        WATER                      :Drilling Fluid Type
DFPH .          11.00000                 :Drilling Fluid pH
MCSS .        Calculated                 :Mudcake Sample Source
MFSS .        Calculated                 :Mud Filtrate Sample Source
FD   .G/C3       1.00000                 :Fluid Density
MSS  .        Flowline                   :Mud Sample Source
OS1  .                                   :Other Services Line 1
OS2  .                                   :Other Services Line 2
OS3  .                                   :Other Services Line 3
OS4  .                                   :Other Services Line 4
OS5  .                                   :Other Services Line 5
R1   .                                   :Remarks Line 1
R2   .                                   :Remarks Line 2
R3   .                                   :Remarks Line 3
R4   .                                   :Remarks Line 4
R5   .                                   :Remarks Line 5
R6   .        Tool was run as per tool sketch :Remarks Line 6
R7   .        All logging intervals as per client request :Remarks Line 7
R8   .                                   :Remarks Line 8
TCS  .        20 00 00                   :Time Circulation Stopped
TLAB .        02 17 00                   :Time Logger At Bottom
NMT  .        NOBARITE                   :HRDD Mud Type for Nuclear Devices
EPD  .C3         5536.000000             :Elevation of Permanent Datum above Mean Sea Level
APD  .F          29.500000               :Elevation of Depth Reference (LMF) above Permanent Datum
#-----------------------------------------------------------------------------
~CURVE INFORMATION
#MNEM.UNIT   API CODE                                  DESCRIPTION
#---- -----  --------                                  -----------------------
DEPT .F                                                :DEPTH (BOREHOLE) {F12.4}
AF10 .OHMM                                             :Array Induction Four Foot Resistivity A10 {F11.4}
AF20 .OHMM                                             :Array Induction Four Foot Resistivity A20 {F11.4}
AF30 .OHMM                                             :Array Induction Four Foot Resistivity A30 {F11.4}
AF60 .OHMM                                             :Array Induction Four Foot Resistivity A60 {F11.4}
AF90 .OHMM                                             :Array Induction Four Foot Resistivity A90 {F11.4}
AO10 .OHMM                                             :Array Induction One Foot Resistivity A10 {F11.4}
AO20 .OHMM                                             :Array Induction One Foot Resistivity A20 {F11.4}
AO30 .OHMM                                             :Array Induction One Foot Resistivity A30 {F11.4}
AO60 .OHMM                                             :Array Induction One Foot Resistivity A60 {F11.4}
AO90 .OHMM                                             :Array Induction One Foot Resistivity A90 {F11.4}
AT10 .OHMM                                             :Array Induction Two Foot Resistivity A10 {F11.4}
AT20 .OHMM                                             :Array Induction Two Foot Resistivity A20 {F11.4}
AT30 .OHMM                                             :Array Induction Two Foot Resistivity A30 {F11.4}
AT60 .OHMM                                             :Array Induction Two Foot Resistivity A60 {F11.4}
AT90 .OHMM                                             :Array Induction Two Foot Resistivity A90 {F11.4}
AORT .OHMM                                             :Array Induction One Foot Rt {F11.4}
AORX .OHMM                                             :Array Induction One Foot Rxo {F11.4}
CDF  .LBF                                              :Calibrated Downhole Force {F11.4}
CFTC .HZ                                               :Corrected Far Thermal Count Rate {F11.4}
CNTC .HZ                                               :Corrected Near Thermal Count Rate {F11.4}
CTEM .DEGF                                             :Cartridge Temperature {F11.4}
DCAL .IN                                               :Differential Caliper {F11.4}
DT   .US/F                                             :Delta-T (also called Slowness or Interval Transit Time) {F11.4}
DTCO .US/F                                             :Delta-T Compressional {F11.4}
DTSM .US/F                                             :Delta-T Shear {F11.4}
ED   .F                                                :East Departure {F11.4}
GR_STGC.GAPI                                           :Gamma Ray {F11.4}
GTEM .DEGF                                             :Generalized Borehole Temperature {F11.4}
HGR_STGC.GAPI                                          :High Resolution Gamma Ray {F11.4}
HNPO .CFCF                                             :High Resolution Enhanced Thermal Neutron Porosity in Selected Lithology {F11.4}
HTNP .CFCF                                             :High Resolution Thermal Neutron Porosity (Ratio Method) in Selected Lithology {F11.4}
ITT  .S                                                :Integrated Transit Time {F11.4}
ND   .F                                                :North Departure {F11.4}
NPHI .CFCF                                             :Thermal Neutron Porosity (original Ratio Method) in Selected Lithology {F11.4}
NPOR .CFCF                                             :Enhanced Thermal Neutron Porosity in Selected Lithology {F11.4}
PR   .                                                 :Poisson s Ratio {F11.4}
SP   .MV                                               :Spontaneous Potential {F11.4}
SPAR .MV                                               :SP, Armor Return Compensated {F11.4}
SPHI .CFCF                                             :Sonic Porosity {F11.4}
STIT .F                                                :Stuck Tool Indicator, Total {F11.4}
TENS .LBF                                              :Cable Tension {F11.4}
TNPH .CFCF                                             :Thermal Neutron Porosity (Ratio Method) in Selected Lithology {F11.4}
HTNP_SAN.CFCF                                          :HiRes Thermal Neutron Porosity (matrix Sandstone) {F11.4}
#-----------------------------------------------------------------------------
# 
#      DEPT        AF10       AF20       AF30       AF60       AF90       AO10       AO20       AO30       AO60       AO90       AT10       AT20       AT30       AT60       AT90       AORT       AORX       CDF        CFTC       CNTC       CTEM       DCAL        DT        DTCO       DTSM        ED      GR_STGC      GTEM     HGR_STGC     HNPO       HTNP       ITT         ND        NPHI       NPOR        PR         SP        SPAR       SPHI       STIT       TENS       TNPH     HTNP_SAN
#
~A  
# ...
   9410.5000  1950.0000    34.0553   454.3200  1025.7118   603.5214  1950.0000    41.0448    73.2566    73.2848    70.5703  1950.0000    31.7593   301.1638   543.1822   262.5418    73.2848  1950.0000 -6650.0723 10629.1846 16860.6445   118.1176     0.0000    52.9980    52.9980   138.5637     0.0000    95.0703   418.4146    98.9785     0.0277     0.0242     0.0052     0.0000     0.0262     0.0257     0.4143    11.5625    11.2143    -0.0354     0.0000  4550.3330     0.0241     0.0557
   9411.0000  1950.0000    36.9325   480.3824  1126.3903   794.4930  1950.0000    33.4945    55.0805    68.5284    65.2267  1950.0000    36.0564   375.4046   651.7041   405.6803    68.5284  1950.0000 -6573.7539 11003.1758 17086.6133   118.1176     0.0000    53.1055    53.1055   138.6324     0.0000    93.3665   418.4088    95.7068     0.0227     0.0213     0.0052     0.0000     0.0252     0.0211     0.4140    11.2500    10.7951    -0.0341     0.0000  4565.0005     0.0224     0.0520
   9411.5000  1950.0000    39.7424   513.0693  1064.6538  1090.1467  1950.0000    30.4606    78.9243   101.9125    97.3937  1950.0000    41.4557   446.9729   592.9960   555.9757   101.9125  1950.0000 -6594.1323 10882.4385 17095.7559   118.1176     0.0000    52.9980    52.9980   138.4278     0.0000    90.7484   418.4146    86.1434     0.0242     0.0226     0.0052     0.0000     0.0245     0.0199     0.4141    10.6696    10.3371    -0.0354     0.0000  4627.6670     0.0212     0.0536
   9412.0000  1950.0000    42.7104   528.8582   886.2556  1437.4360  1950.0000    42.8741   139.8430   127.3331   118.8842  1950.0000    46.6655   488.5650   473.2988   766.5209   127.3331  1950.0000 -6681.2109 11009.1680 17101.6602   118.1176     0.0000    52.1875    52.1875   138.3195     0.0000    89.7694   418.4021    90.9238     0.0206     0.0217     0.0052     0.0000     0.0243     0.0198     0.4170     9.8750     9.8048    -0.0457     0.0000  4689.0000     0.0215     0.0524
   9412.5000  1950.0000    44.4355   513.5364   705.5429  1714.3730  1950.0000    66.2868   162.9195    85.1817    80.2817  1950.0000    49.9731   482.2775   407.4119   880.5532    85.1817  1950.0000 -6681.6802 10883.5664 16790.8750   118.1176     0.0000    52.7734    52.7734   137.6742     0.0000    94.6008   418.3800    92.3898     0.0275     0.0206     0.0051     0.0000     0.0234     0.0222     0.4139     9.3750     9.2289    -0.0382     0.0000  4681.0000     0.0207     0.0511
   9413.0000  1950.0000    45.5315   468.4127   549.5425  1782.7617  1950.0000    56.2510   170.3423    81.8993    76.4609  1950.0000    50.7344   404.7683   378.3435   774.4088    81.8993  1950.0000 -6649.4375 11023.9590 16756.9766   118.1176     0.0000    52.5586    52.5586   135.3116     0.0000    98.9757   418.3926   100.5763     0.0234     0.0198     0.0051     0.0000     0.0236     0.0217     0.4112     9.3750     8.7904    -0.0409     0.0000  4645.6665     0.0209     0.0501
   9413.5000  1950.0000    46.8790   429.1807   462.4519  1571.2881  1950.0000    46.8807   171.7278    90.9443    83.5740  1950.0000    51.1970   341.0821   221.9460   535.0797    90.9443  1950.0000 -6685.7871 10732.7988 16801.4004   118.1176     0.0000    52.5977    52.5977   135.0491     0.0000   100.3226   418.3875   103.9243     0.0217     0.0222     0.0051     0.0000     0.0237     0.0189     0.4106     8.6161     8.3296    -0.0404     0.0000  4545.5000     0.0205     0.0531
   9414.0000  1950.0000    47.4384   402.9916   386.6767  1146.2041  1950.0000    50.0250   161.0119   146.4315   127.7714  1950.0000    52.0249   327.4653   292.6944   366.6244   146.4315  1950.0000 -6764.9346 10727.0078 16620.2500   118.1176     0.0000    52.6855    52.6855   134.8156     0.0000   101.7465   418.3757    96.4438     0.0242     0.0206     0.0051     0.0000     0.0238     0.0226     0.4099     7.8750     7.8438    -0.0393     0.0000  4541.5005     0.0216     0.0511
   9414.5000  1950.0000    48.2691   387.8291   327.1176   737.9548  1950.0000    70.7584   178.4645   251.2104   208.5505  1950.0000    54.2468   325.9965   294.1031   250.4156   250.7901  1950.0000 -6777.9199 10752.2930 16390.4063   118.1176     0.0000    52.5684    52.5684   135.1470     0.0000   100.1732   418.3715   104.7764     0.0237     0.0202     0.0050     0.0000     0.0241     0.0268     0.4109     6.8750     7.2774    -0.0408     0.0000  4611.0000     0.0219     0.0506
   9415.0000  1950.0000    50.5849   402.1194   266.7314   456.3223  1950.0000    72.0056   130.3421   269.0424   215.4383  1950.0000    56.5969   336.4146   265.4707   174.0542   269.0424  1933.1146 -6702.7432 10739.9150 16953.5352   118.1176     0.0000    52.4023    52.4023   138.8201     0.0000   102.9396   418.3648    99.0757     0.0223     0.0228     0.0050     0.0000     0.0244     0.0190     0.4169     6.2500     6.8384    -0.0429     0.0000  4667.0005     0.0214     0.0539
   9415.5000  1950.0000    53.5051   427.0671   220.8072   291.9732  1950.0000    44.6970    80.8261   164.9429   131.8264  1950.0000    60.5613   359.8690   204.4534   111.9178   164.9429  1815.9236 -6761.4707 10893.5947 17057.9082   118.1176     0.0000    52.4121    52.4121   134.5940     0.0000   102.3112   418.3588   104.7717     0.0228     0.0229     0.0050     0.0000     0.0249     0.0186     0.4106     5.8929     6.5072    -0.0428     0.0000  4655.6670     0.0215     0.0540
   9416.0000  1950.0000    56.0346   449.5384   185.5734   202.4118  1950.0000    45.9963    75.6726   180.5242   147.5341  1950.0000    70.7266   383.3730   145.2898    83.3216   180.5242  1613.0361 -6787.6553 10832.9678 16786.6094   118.1176     0.0000    52.4414    52.4414   132.9801     0.0000   100.5776   418.3566   102.7733     0.0271     0.0216     0.0050     0.0000     0.0245     0.0234     0.4079     5.9167     6.2896    -0.0424     0.0000  4640.5000     0.0217     0.0523
   9416.5000  1950.0000    59.6811   467.7545   168.4038   156.0918  1950.0000    80.3691   112.5068   128.6880   112.8639  1950.0000    79.8495   370.4346   126.6952    72.2139   128.6880  1338.6677 -6829.4487 10864.2256 16933.4727   118.1176     0.0000    52.1973    52.1973   133.2002     0.0000   100.5939   418.3530    93.9813     0.0170     0.0208     0.0049     0.0000     0.0240     0.0196     0.4093     5.9821     6.0601    -0.0455     0.0000  4532.3330     0.0210     0.0514
   9417.0000  1950.0000    62.4596   477.0158   168.7015   135.6305  1950.0000   172.7079   169.2048    98.0544    90.1403  1950.0000   105.9818   410.0069   222.4065    91.3937    98.0544  1012.0991 -6829.4409 10943.6875 16868.7969   118.1176     0.0000    52.6172    52.6172   134.1477     0.0000    97.5441   418.3467   104.7946     0.0164     0.0202     0.0049     0.0000     0.0228     0.0196     0.4091     6.0417     5.8814    -0.0402     0.0000  4558.5000     0.0202     0.0507
   9417.5000  1950.0000    62.7334   489.0378   160.0836   114.0482   923.6725   142.4656    87.6214    72.0064    65.5106  1950.0000    99.4113   269.6999   172.9017    77.6214    72.0064   771.9756 -6793.3872 11086.8379 16461.6914   118.1176     0.0000    52.8516    52.8516   134.0708     0.0000    96.9033   418.3608    93.4541     0.0258     0.0186     0.0049     0.0000     0.0215     0.0256     0.4080     5.6250     5.7164    -0.0372     0.0000  4596.5000     0.0193     0.0486
   9418.0000  1950.0000    60.2936   524.0133   182.1648   115.6813   637.4851   128.5196    83.5583    62.6829    57.2583  1950.0000    84.3409   703.2897   211.2770    88.8351    62.6829   606.2522 -6833.4341 11447.8184 17039.7637   118.1176     0.0000    57.7832    57.7832   135.3628     0.0000    95.5210   418.3608    92.1683     0.0190     0.0178     0.0049     0.0000     0.0202     0.0175     0.3886     5.6250     5.5965     0.0193     0.0000  4720.0000     0.0174     0.0477
   9418.5000  1950.0000    55.5507   603.3574   236.7442   120.8007   276.4226   127.6450   105.7649    76.5103    63.1796  1950.0000    73.8346   487.2313   184.3492    82.8864    76.5103   424.8490 -6774.0776 11833.6934 17458.5762   118.1176     0.0000    57.7441    57.7441   136.0427     0.0000    96.0098   418.3517   100.9645     0.0153     0.0163     0.0048     0.0000     0.0200     0.0132     0.3901     5.5804     5.5009     0.0189     0.0000  4738.0000     0.0163     0.0458
