~VERSION INFORMATION
VERS.           1.2   :CWLS Log ASCII Standard - VERSION 1.2
WRAP.           NO    :One Line per depth step
PROD.  Schlumberger   :LAS Producer
PROG.  DLIS to ASCII 2.3                               :LAS Program name and version
CREA.        2021/07/30 13:36                          :LAS Creation date {YYYY/MM/DD hh:mm}
DLIS_CREA.  2021-Jul-30 07:08                          :DLIS Creation date and time {YYYY-MMM-DD hh:mm}
SOURCE.     9adb19af-6988-40d6-a86c-1e71535bb624       :DLIS File Name
#--------------------------------------------------
~WELL INFORMATION
#MNEM.UNIT      DATA             DESCRIPTION
#---- ------ --------------   -----------------------------
STRT .F        5785.0000     :START DEPTH     
STOP .F        9045.0000     :STOP DEPTH     
STEP .F           0.5000       :STEP     
NULL .          -999.25      :NULL VALUE
COMP .                 COMPANY:  University Of Utah                 
WELL .                    WELL:  FORGE 78B-32                       
FLD  .                   FIELD:  None                               
LOC  .                LOCATION:  Lat: 38.500171, Long: -112.88221   
CNTY .                  COUNTY:  Beaver                             
STAT .                   STATE:  Utah                               
CTRY .                 COUNTRY:                                     
SRVC .         SERVICE COMPANY:  Schlumberger                       
LATI .DEG             LATITUDE:  38 30' 0.616" N                   
LONG .DEG            LONGITUDE:  112 52' 55.956" W                 
API  .              API NUMBER:  NRC 42-00090-03                    
DATE .                LOG DATE:  30-Jul-2021
UWI  .          UNIQUE WELL ID:                                     
#-----------------------------------------------------------------------------
~PARAMETER INFORMATION
#MNEM.UNIT    VALUE                      DESCRIPTION
#---- -----   --------------------       ------------------------
CN   .        University Of Utah         :Company Name
WN   .        FORGE 78B-32               :Well Name
FN   .        None                       :Field Name
FL   .        Lat  38.500171  Long  -112.88221 :Field Location
FL1  .                                   :Field Location, Line 1
COUN .        Beaver                     :County or Parish
STAT .        Utah                       :State or Province
NATI .                                   :Nation
DATE .        30-Jul-2021                :Tools Above Rotary Table Date
APIN .        NRC 42-00090-03            :API Well Number
SECT .                                   :Section
TOWN .                                   :Township
RANG .                                   :Range
DMF  .        KB                         :Drilling Measured From (Name of Drilling Elevation Reference)
LMF  .        KB                         :Logging Measured From (Name of Logging Elevation Reference)
PDAT .        GL                         :Permanent Datum
ENGI .        CSTILES                    :Engineer s Name
WITN .        Virgil  Welch              :Witness s Name
LATI .        38� 30' 0.616  N           :Latitude
LONG .        112� 52' 55.956  W         :Longitude
LUL  .        F.Morgan                   :Logging Unit Location
LUN  .        9108                       :Logging Unit Number
RUN  .        1B                         :Run Number
SON  .                                   :Service Order Number
BHT  .DEGF     419.00000                 :Bottom Hole Temperature
BS   .IN         5.75000                 :Bit Size
MDEN .G/C3       2.71000                 :Matrix Density for Density Porosity
DFD  .LB/G       8.30000                 :Drilling Fluid Density
DFV  .S         24.00000                 :Drilling Fluid Viscosity
DFL  .C3      -999.25000                 :Drilling Fluid Loss
RMFS .OHMM       4.42000                 :Resistivity of Mud Filtrate Sample
EKB  .F       5565.50000                 :Elevation of Kelly Bushing
EGL  .F       5536.00000                 :Elevation of Ground Level
BLI  .F       9532.00000                 :Bottom Log Interval
BSAL .PPM      700.00000                 :Borehole Salinity
FLEV .F          8.00000                 :Depth of Drilling Fluid Level to LMF (Log Measured From)
MCST .DEGF      62.00000                 :Mudcake Sample Temperature
MFST .DEGF      62.00000                 :Mud Filtrate Sample Temperature
MRT  .DEGF     419.00000                 :Maximum Recorded Temperature
MST  .DEGF      62.00000                 :Mud Sample Temperature
RMCS .OHMM       6.21000                 :Resistivity of Mud Cake Sample
RMS  .OHMM       5.20000                 :Resistivity of Mud Sample
RW   .OHMM       1.00000                 :Connate Water Resistivity
TDD  .F       9500.00000                 :Driller Total Depth
TDL  .F       9532.00000                 :Logger Total Depth
TLI  .F       8530.00000                 :Top Log Interval
HIDE .                                   :Header Identifier
MATR .        LIME                       :Rock Matrix for Neutron Porosity Corrections
FNUM .           1.00000                 :F-Numerator for Formation Factor Formula
FEXP .           2.00000                 :Exponent "m" for Formation Factor Formula
DFT  .        WATER                      :Drilling Fluid Type
DFPH .          11.00000                 :Drilling Fluid pH
MCSS .        Calculated                 :Mudcake Sample Source
MFSS .        Calculated                 :Mud Filtrate Sample Source
FD   .G/C3       1.00000                 :Fluid Density
MSS  .        Flowline                   :Mud Sample Source
OS1  .                                   :Other Services Line 1
OS2  .                                   :Other Services Line 2
OS3  .                                   :Other Services Line 3
OS4  .                                   :Other Services Line 4
OS5  .                                   :Other Services Line 5
R1   .                                   :Remarks Line 1
R2   .                                   :Remarks Line 2
R3   .                                   :Remarks Line 3
R4   .                                   :Remarks Line 4
R5   .                                   :Remarks Line 5
R6   .        Tool was run as per tool sketch :Remarks Line 6
R7   .        All logging intervals as per client request :Remarks Line 7
R8   .                                   :Remarks Line 8
TCS  .        20 00 00                   :Time Circulation Stopped
TLAB .        02 17 00                   :Time Logger At Bottom
NMT  .        NOBARITE                   :HRDD Mud Type for Nuclear Devices
EPD  .C3         5536.000000             :Elevation of Permanent Datum above Mean Sea Level
APD  .F          29.500000               :Elevation of Depth Reference (LMF) above Permanent Datum
#-----------------------------------------------------------------------------
~CURVE INFORMATION
#MNEM.UNIT   API CODE                                  DESCRIPTION
#---- -----  --------                                  -----------------------
DEPT .F                                                :DEPTH (BOREHOLE) {F12.4}
AF10 .OHMM                                             :Array Induction Four Foot Resistivity A10 {F11.4}
AF20 .OHMM                                             :Array Induction Four Foot Resistivity A20 {F11.4}
AF30 .OHMM                                             :Array Induction Four Foot Resistivity A30 {F11.4}
AF60 .OHMM                                             :Array Induction Four Foot Resistivity A60 {F11.4}
AF90 .OHMM                                             :Array Induction Four Foot Resistivity A90 {F11.4}
AO10 .OHMM                                             :Array Induction One Foot Resistivity A10 {F11.4}
AO20 .OHMM                                             :Array Induction One Foot Resistivity A20 {F11.4}
AO30 .OHMM                                             :Array Induction One Foot Resistivity A30 {F11.4}
AO60 .OHMM                                             :Array Induction One Foot Resistivity A60 {F11.4}
AO90 .OHMM                                             :Array Induction One Foot Resistivity A90 {F11.4}
AT10 .OHMM                                             :Array Induction Two Foot Resistivity A10 {F11.4}
AT20 .OHMM                                             :Array Induction Two Foot Resistivity A20 {F11.4}
AT30 .OHMM                                             :Array Induction Two Foot Resistivity A30 {F11.4}
AT60 .OHMM                                             :Array Induction Two Foot Resistivity A60 {F11.4}
AT90 .OHMM                                             :Array Induction Two Foot Resistivity A90 {F11.4}
AORT .OHMM                                             :Array Induction One Foot Rt {F11.4}
AORX .OHMM                                             :Array Induction One Foot Rxo {F11.4}
CDF  .LBF                                              :Calibrated Downhole Force {F11.4}
CFTC .HZ                                               :Corrected Far Thermal Count Rate {F11.4}
CNTC .HZ                                               :Corrected Near Thermal Count Rate {F11.4}
CTEM .DEGF                                             :Cartridge Temperature {F11.4}
DCAL .IN                                               :Differential Caliper {F11.4}
DT   .US/F                                             :Delta-T (also called Slowness or Interval Transit Time) {F11.4}
DTCO .US/F                                             :Delta-T Compressional {F11.4}
DTSM .US/F                                             :Delta-T Shear {F11.4}
ED   .F                                                :East Departure {F11.4}
GR_STGC.GAPI                                           :Gamma Ray {F11.4}
GTEM .DEGF                                             :Generalized Borehole Temperature {F11.4}
HGR_STGC.GAPI                                          :High Resolution Gamma Ray {F11.4}
HNPO .CFCF                                             :High Resolution Enhanced Thermal Neutron Porosity in Selected Lithology {F11.4}
HTNP .CFCF                                             :High Resolution Thermal Neutron Porosity (Ratio Method) in Selected Lithology {F11.4}
ITT  .S                                                :Integrated Transit Time {F11.4}
ND   .F                                                :North Departure {F11.4}
NPHI .CFCF                                             :Thermal Neutron Porosity (original Ratio Method) in Selected Lithology {F11.4}
NPOR .CFCF                                             :Enhanced Thermal Neutron Porosity in Selected Lithology {F11.4}
PR   .                                                 :Poisson s Ratio {F11.4}
SP   .MV                                               :Spontaneous Potential {F11.4}
SPAR .MV                                               :SP, Armor Return Compensated {F11.4}
SPHI .CFCF                                             :Sonic Porosity {F11.4}
STIT .F                                                :Stuck Tool Indicator, Total {F11.4}
TENS .LBF                                              :Cable Tension {F11.4}
TNPH .CFCF                                             :Thermal Neutron Porosity (Ratio Method) in Selected Lithology {F11.4}
HTNP_SAN.CFCF                                          :HiRes Thermal Neutron Porosity (matrix Sandstone) {F11.4}
#-----------------------------------------------------------------------------
# 
#      DEPT        AF10       AF20       AF30       AF60       AF90       AO10       AO20       AO30       AO60       AO90       AT10       AT20       AT30       AT60       AT90       AORT       AORX       CDF        CFTC       CNTC       CTEM       DCAL        DT        DTCO       DTSM        ED      GR_STGC      GTEM     HGR_STGC     HNPO       HTNP       ITT         ND        NPHI       NPOR        PR         SP        SPAR       SPHI       STIT       TENS       TNPH     HTNP_SAN
#
~A  
# ...
   7740.0000     0.3089  1950.0000  1950.0000     6.0939    37.3091     0.3340  1950.0000  1950.0000     2.4690     6.8855     0.3231  1950.0000  1950.0000     6.1101    23.0747     2.6791     0.3200     0.0000  4370.0537  7993.1514   100.3294     0.0000    54.2383    54.2383    84.3997     0.0000   150.0872   351.8078   151.1087     0.0387     0.0267     0.1601     0.0000    -0.0030     0.0032     0.1482   -23.1250   -22.8719    -0.0203     0.0000  2860.0000     0.0189     0.0588
   7740.5000     0.3095  1950.0000  1950.0000     6.1254    37.9271     0.3218  1950.0000  1950.0000     2.7836     8.9014     0.3237  1950.0000  1950.0000     6.1849    22.6061     2.9466     0.3194     0.0000  3891.5920  7715.5103   100.3294     0.0000    54.4531    54.4531    82.3759     0.0000   150.0834   351.8535   149.0131     0.0205     0.0286     0.1601     0.0000    -0.0081     0.0084     0.1120   -22.8125   -22.5062    -0.0178     0.0000  2862.0000     0.0151     0.0612
   7741.0000     0.3086  1950.0000  1950.0000     6.0944    38.4337     0.3134  1950.0000  1950.0000     3.3499    13.7977     0.3223  1950.0000  1950.0000     6.1282    20.7732     3.3808     0.3181  8205.5098  4765.8789  7083.3013   100.3294     0.0000    54.7266    54.7266    82.3759     0.0000   148.5669   351.8626   149.1595     0.0064     0.0127     0.1602     0.0000    -0.0074     0.0224     0.1050   -21.2500   -21.3720    -0.0145     0.0000  2867.0000     0.0170     0.0414
   7741.5000     0.3060  1950.0000  1950.0000     6.0112    38.9738     0.3147  1950.0000  1950.0000     4.4056    28.2732     0.3194  1950.0000  1950.0000     5.9675    18.5088     4.3016     0.3114 10257.5977  3809.3677  7122.0796   100.3294     0.0000    55.5859    55.5859    82.3759     0.0000   147.6876   351.8443   147.5281     0.0149     0.0153     0.1602     0.0000    -0.0117     0.0080     0.0820   -20.6250   -20.6212    -0.0047     0.0000  2870.0000     0.0132     0.0446
   7742.0000     0.3015  1950.0000  1950.0000     5.9096    39.7906     0.3205  1950.0000  1950.0000     6.6235    80.2743     0.3147  1950.0000  1950.0000     5.7777    16.5843     5.5718     0.3094 10257.5977  3776.4231  6490.2183   100.3294     0.0000    56.1719    56.1719    82.0400     0.0000   146.1122   351.8580   146.7651     0.0258     0.0184     0.1602     0.0000    -0.0109     0.0181     0.0587   -19.3750   -19.6819     0.0019     0.0000  2871.0000     0.0145     0.0484
   7742.5000     0.2954  1950.0000  1950.0000     5.8340    41.0602     0.3187  1950.0000  1950.0000    12.2564   303.1364     0.3074  1950.0000  1950.0000     5.6352    15.1523     8.8068     0.3044 10257.2422  4040.2383  6203.1011   100.3294     0.0000    55.8398    55.8398    82.0400     0.0000   144.5732   351.8992   144.9481     0.0103     0.0071     0.1603     0.0000    -0.0132     0.0282     0.0684   -17.5000   -18.5649    -0.0018     0.0000  2869.0000     0.0162     0.0347
   7743.0000     0.2881  1950.0000  1950.0000     5.8288    42.7564     0.3028  1950.0000   910.8679    28.1176  1306.8621     0.2976  1950.0000  1950.0000     5.5843    13.9516    14.2681     0.2980 10256.1758  3561.7959  6164.7505   100.3294     0.0000    54.7461    54.7461    82.0400     0.0000   141.3774   351.9357   143.9259     0.0237     0.0183     0.1603     0.0000    -0.0083     0.0323     0.0986   -15.6250   -16.0522    -0.0143     0.0000  2875.0002     0.0188     0.0483
   7743.5000     0.2803  1950.0000  1950.0000     5.9372    44.6128     0.2824  1950.0000   118.7613    34.6610   164.7293     0.2866  1950.0000  1950.0000     5.6403    12.8203    11.4576     0.2824  2051.5193  3471.3240  7006.7251   100.3294     0.0000    53.9844    53.9844  -999.2500     0.0000   137.7936   351.9128   140.8701     0.0232     0.0287     0.1603     0.0000    -0.0026     0.0272  -999.2500   -13.7500   -14.6394    -0.0233     0.0000  2888.0000     0.0272     0.0613
   7744.0000     0.2730  1950.0000  1950.0000     6.2104    46.2375     0.2686  1950.0000    29.0499    13.1325    31.1208     0.2762  1131.5084  1950.0000     5.8432    11.9604     5.9597     0.2728 -9999.9999  3809.3677  7150.7637   100.3294     0.0000    53.9258    53.9258  -999.2500     0.0000   134.7151   351.9425   134.7171     0.0366     0.0295     0.1603     0.0000     0.0008     0.0216  -999.2500   -11.8750   -13.1222    -0.0240     0.0000  2897.0000     0.0215     0.0622
   7744.5000     0.2663  1950.0000  1950.0000     6.7205    47.3606     0.2609  1950.0000    10.2162     4.9320     9.2364     0.2681   429.0924  1950.0000     6.2909    11.7752     3.9890     0.2657 -9999.9999  4403.0786  8481.3174   100.3294     0.0000    54.9805    54.9805    81.5931     0.0000   133.6795   351.9767   133.6776     0.0346     0.0235     0.1604     0.0000    -0.0043    -0.0002     0.0612   -10.6250   -10.3404    -0.0116     0.0000  2901.0000     0.0223     0.0547
   7745.0000     0.2601  1950.0000  1950.0000     7.5754    48.0082     0.2418   104.7917     5.4030     2.4995     4.0954     0.2624   156.8055  1950.0000     7.2266    12.9624     2.6178     0.2556  5128.2651  4023.7476  6930.6255   100.3294     0.0000    56.0938    56.0938    81.4442     0.0000   133.1365   351.9950   133.6794     0.0381     0.0208     0.1604     0.0000    -0.0026     0.0388     0.0488    -9.3750    -8.7326     0.0010     0.0000  2905.0000     0.0207     0.0514
   7745.5000     0.2540  1950.0000  1950.0000     8.9277    48.4005     0.2496    21.8532     4.4825     1.7981     2.7428     0.2582    67.7324  1950.0000     9.2855    17.4535     2.0574     0.2506 10255.6074  4089.7107  8079.2686   100.3294     0.0000    56.0938    56.0938    81.4442     0.0000   130.8640   352.0132   132.5955     0.0125     0.0238     0.1604     0.0000     0.0000     0.0179     0.0488    -8.7500    -7.1488     0.0010     0.0000  2912.0000     0.0292     0.0551
   7746.0000     0.2473  1950.0000  1950.0000    10.9465    48.6751     0.2523     7.4048     4.3061     1.8419     2.7612     0.2536    33.6564  1950.0000    10.6104    19.5637     1.6909     0.2458 10255.4648  3495.8369  7275.1709   100.3294     0.0000    56.0938    56.0938    81.4442     0.0000   127.8229   352.0269   126.8582     0.0509     0.0414     0.1604     0.0000     0.0024     0.0242     0.0488    -6.8750    -5.6401     0.0010     0.0000  2922.0000     0.0244     0.0773
   7746.5000     0.2396  1950.0000  1950.0000    13.6555    48.7092     0.2707     4.8745     7.3132     2.0246     2.9087     0.2467    19.5985  1950.0000    22.8616    61.3500     1.4107     0.2394 -6152.1406  3957.8232  7351.3184   100.3294     0.0000    56.0938    56.0938    84.5681     0.0000   123.8811   352.0269   124.5578     0.0167     0.0207     0.1605     0.0000    -0.0008     0.0261     0.1072    -5.0000    -3.4409     0.0010     0.0000  2918.0000     0.0281     0.0512
   7747.0000     0.2313  1950.0000  1950.0000    16.5118    48.1880     0.2429     1.9404     3.5480     1.4871     1.8836     0.2368    13.4495  1950.0000    16.7248    48.2357     1.1834     0.2311 -9999.9999  3726.9314  6681.7354   100.3294     0.0000    56.0938    56.0938    84.5681     0.0000   120.5716   352.0544   120.0883     0.0262     0.0207     0.1605     0.0000    -0.0064     0.0263     0.1072    -3.1250    -2.2383     0.0010     0.0000  2918.0000     0.0187     0.0513
   7747.5000     0.2233  1950.0000  1950.0000    18.1387    46.8774     0.2330     1.3778     1.7624     1.0716     1.1262     0.2254    10.8956  1950.0000    13.9439    91.6231     1.0021     0.2217 -5127.5547  3990.7661  6988.0278   100.3294     0.0000    54.6094    54.6094    84.5681     0.0000   118.5362   352.1228   119.4059     0.0215     0.0227     0.1605     0.0000    -0.0031     0.0251     0.1424    -1.2500    -1.2629    -0.0159     0.0000  2921.0000     0.0262     0.0537
   7748.0000     0.2162  1950.0000  1950.0000    17.4383    44.8655     0.2172     1.3730     1.8290     1.0047     1.1515     0.2150    10.4246  1950.0000    18.4386   170.6412     0.8625     0.2133 10255.8916  3135.3711  6432.7827   100.3294     0.0000    53.1250    53.1250    95.4417     0.0000   117.9472   352.0726   117.4371     0.0229     0.0295     0.1606     0.0000     0.0047     0.0421     0.2755     0.0000    -0.5578    -0.0338     0.0000  2928.0002     0.0294     0.0622
