~VERSION INFORMATION
VERS.           1.2   :CWLS Log ASCII Standard - VERSION 1.2
WRAP.           NO    :One Line per depth step
PROD.  Schlumberger   :LAS Producer
PROG.  DLIS to ASCII 2.3                               :LAS Program name and version
CREA.        2021/07/30 13:36                          :LAS Creation date {YYYY/MM/DD hh:mm}
DLIS_CREA.  2021-Jul-30 07:07                          :DLIS Creation date and time {YYYY-MMM-DD hh:mm}
SOURCE.     dc707e3c-4962-4d77-8314-dc20fe7b42b8       :DLIS File Name
#--------------------------------------------------
~WELL INFORMATION
#MNEM.UNIT      DATA             DESCRIPTION
#---- ------ --------------   -----------------------------
STRT .F        8616.5000     :START DEPTH     
STOP .F        9518.5000     :STOP DEPTH     
STEP .F           0.5000       :STEP     
NULL .          -999.25      :NULL VALUE
COMP .                 COMPANY:  University Of Utah                 
WELL .                    WELL:  FORGE 78B-32                       
FLD  .                   FIELD:  None                               
LOC  .                LOCATION:  Lat: 38.500171, Long: -112.88221   
CNTY .                  COUNTY:  Beaver                             
STAT .                   STATE:  Utah                               
CTRY .                 COUNTRY:                                     
SRVC .         SERVICE COMPANY:  Schlumberger                       
LATI .DEG             LATITUDE:  38 30' 0.616" N                   
LONG .DEG            LONGITUDE:  112 52' 55.956" W                 
API  .              API NUMBER:  NRC 42-00090-03                    
DATE .                LOG DATE:  30-Jul-2021
UWI  .          UNIQUE WELL ID:                                     
#-----------------------------------------------------------------------------
~PARAMETER INFORMATION
#MNEM.UNIT    VALUE                      DESCRIPTION
#---- -----   --------------------       ------------------------
CN   .        University Of Utah         :Company Name
WN   .        FORGE 78B-32               :Well Name
FN   .        None                       :Field Name
FL   .        Lat  38.500171  Long  -112.88221 :Field Location
FL1  .                                   :Field Location, Line 1
COUN .        Beaver                     :County or Parish
STAT .        Utah                       :State or Province
NATI .                                   :Nation
DATE .        30-Jul-2021                :Tools Above Rotary Table Date
APIN .        NRC 42-00090-03            :API Well Number
SECT .                                   :Section
TOWN .                                   :Township
RANG .                                   :Range
DMF  .        KB                         :Drilling Measured From (Name of Drilling Elevation Reference)
LMF  .        KB                         :Logging Measured From (Name of Logging Elevation Reference)
PDAT .        GL                         :Permanent Datum
ENGI .        CSTILES                    :Engineer s Name
WITN .        Virgil  Welch              :Witness s Name
LATI .        38� 30' 0.616  N           :Latitude
LONG .        112� 52' 55.956  W         :Longitude
LUL  .        F.Morgan                   :Logging Unit Location
LUN  .        9108                       :Logging Unit Number
RUN  .        1B                         :Run Number
SON  .                                   :Service Order Number
BHT  .DEGF     419.00000                 :Bottom Hole Temperature
BS   .IN         5.75000                 :Bit Size
MDEN .G/C3       2.71000                 :Matrix Density for Density Porosity
DFD  .LB/G       8.30000                 :Drilling Fluid Density
DFV  .S         24.00000                 :Drilling Fluid Viscosity
DFL  .C3      -999.25000                 :Drilling Fluid Loss
RMFS .OHMM       4.42000                 :Resistivity of Mud Filtrate Sample
EKB  .F       5565.50000                 :Elevation of Kelly Bushing
EGL  .F       5536.00000                 :Elevation of Ground Level
BLI  .F       9532.00000                 :Bottom Log Interval
BSAL .PPM      700.00000                 :Borehole Salinity
FLEV .F          8.00000                 :Depth of Drilling Fluid Level to LMF (Log Measured From)
MCST .DEGF      62.00000                 :Mudcake Sample Temperature
MFST .DEGF      62.00000                 :Mud Filtrate Sample Temperature
MRT  .DEGF     419.00000                 :Maximum Recorded Temperature
MST  .DEGF      62.00000                 :Mud Sample Temperature
RMCS .OHMM       6.21000                 :Resistivity of Mud Cake Sample
RMS  .OHMM       5.20000                 :Resistivity of Mud Sample
RW   .OHMM       1.00000                 :Connate Water Resistivity
TDD  .F       9500.00000                 :Driller Total Depth
TDL  .F       9532.00000                 :Logger Total Depth
TLI  .F       8530.00000                 :Top Log Interval
HIDE .                                   :Header Identifier
MATR .        LIME                       :Rock Matrix for Neutron Porosity Corrections
FNUM .           1.00000                 :F-Numerator for Formation Factor Formula
FEXP .           2.00000                 :Exponent "m" for Formation Factor Formula
DFT  .        WATER                      :Drilling Fluid Type
DFPH .          11.00000                 :Drilling Fluid pH
MCSS .        Calculated                 :Mudcake Sample Source
MFSS .        Calculated                 :Mud Filtrate Sample Source
FD   .G/C3       1.00000                 :Fluid Density
MSS  .        Flowline                   :Mud Sample Source
OS1  .                                   :Other Services Line 1
OS2  .                                   :Other Services Line 2
OS3  .                                   :Other Services Line 3
OS4  .                                   :Other Services Line 4
OS5  .                                   :Other Services Line 5
R1   .                                   :Remarks Line 1
R2   .                                   :Remarks Line 2
R3   .                                   :Remarks Line 3
R4   .                                   :Remarks Line 4
R5   .                                   :Remarks Line 5
R6   .        Tool was run as per tool sketch :Remarks Line 6
R7   .        All logging intervals as per client request :Remarks Line 7
R8   .                                   :Remarks Line 8
TCS  .        20 00 00                   :Time Circulation Stopped
TLAB .        02 17 00                   :Time Logger At Bottom
NMT  .        NOBARITE                   :HRDD Mud Type for Nuclear Devices
EPD  .C3         5536.000000             :Elevation of Permanent Datum above Mean Sea Level
APD  .F          29.500000               :Elevation of Depth Reference (LMF) above Permanent Datum
#-----------------------------------------------------------------------------
~CURVE INFORMATION
#MNEM.UNIT   API CODE                                  DESCRIPTION
#---- -----  --------                                  -----------------------
DEPT .F                                                :DEPTH (BOREHOLE) {F12.4}
AF10 .OHMM                                             :Array Induction Four Foot Resistivity A10 {F11.4}
AF20 .OHMM                                             :Array Induction Four Foot Resistivity A20 {F11.4}
AF30 .OHMM                                             :Array Induction Four Foot Resistivity A30 {F11.4}
AF60 .OHMM                                             :Array Induction Four Foot Resistivity A60 {F11.4}
AF90 .OHMM                                             :Array Induction Four Foot Resistivity A90 {F11.4}
AO10 .OHMM                                             :Array Induction One Foot Resistivity A10 {F11.4}
AO20 .OHMM                                             :Array Induction One Foot Resistivity A20 {F11.4}
AO30 .OHMM                                             :Array Induction One Foot Resistivity A30 {F11.4}
AO60 .OHMM                                             :Array Induction One Foot Resistivity A60 {F11.4}
AO90 .OHMM                                             :Array Induction One Foot Resistivity A90 {F11.4}
AT10 .OHMM                                             :Array Induction Two Foot Resistivity A10 {F11.4}
AT20 .OHMM                                             :Array Induction Two Foot Resistivity A20 {F11.4}
AT30 .OHMM                                             :Array Induction Two Foot Resistivity A30 {F11.4}
AT60 .OHMM                                             :Array Induction Two Foot Resistivity A60 {F11.4}
AT90 .OHMM                                             :Array Induction Two Foot Resistivity A90 {F11.4}
AORT .OHMM                                             :Array Induction One Foot Rt {F11.4}
AORX .OHMM                                             :Array Induction One Foot Rxo {F11.4}
CDF  .LBF                                              :Calibrated Downhole Force {F11.4}
CFTC .HZ                                               :Corrected Far Thermal Count Rate {F11.4}
CNTC .HZ                                               :Corrected Near Thermal Count Rate {F11.4}
CTEM .DEGF                                             :Cartridge Temperature {F11.4}
DCAL .IN                                               :Differential Caliper {F11.4}
DT   .US/F                                             :Delta-T (also called Slowness or Interval Transit Time) {F11.4}
DTCO .US/F                                             :Delta-T Compressional {F11.4}
DTSM .US/F                                             :Delta-T Shear {F11.4}
ED   .F                                                :East Departure {F11.4}
GR_STGC.GAPI                                           :Gamma Ray {F11.4}
GTEM .DEGF                                             :Generalized Borehole Temperature {F11.4}
HGR_STGC.GAPI                                          :High Resolution Gamma Ray {F11.4}
HNPO .CFCF                                             :High Resolution Enhanced Thermal Neutron Porosity in Selected Lithology {F11.4}
HTNP .CFCF                                             :High Resolution Thermal Neutron Porosity (Ratio Method) in Selected Lithology {F11.4}
ITT  .S                                                :Integrated Transit Time {F11.4}
ND   .F                                                :North Departure {F11.4}
NPHI .CFCF                                             :Thermal Neutron Porosity (original Ratio Method) in Selected Lithology {F11.4}
NPOR .CFCF                                             :Enhanced Thermal Neutron Porosity in Selected Lithology {F11.4}
PR   .                                                 :Poisson s Ratio {F11.4}
SP   .MV                                               :Spontaneous Potential {F11.4}
SPAR .MV                                               :SP, Armor Return Compensated {F11.4}
SPHI .CFCF                                             :Sonic Porosity {F11.4}
STIT .F                                                :Stuck Tool Indicator, Total {F11.4}
TENS .LBF                                              :Cable Tension {F11.4}
TNPH .CFCF                                             :Thermal Neutron Porosity (Ratio Method) in Selected Lithology {F11.4}
HTNP_SAN.CFCF                                          :HiRes Thermal Neutron Porosity (matrix Sandstone) {F11.4}
#-----------------------------------------------------------------------------
# 
#      DEPT        AF10       AF20       AF30       AF60       AF90       AO10       AO20       AO30       AO60       AO90       AT10       AT20       AT30       AT60       AT90       AORT       AORX       CDF        CFTC       CNTC       CTEM       DCAL        DT        DTCO       DTSM        ED      GR_STGC      GTEM     HGR_STGC     HNPO       HTNP       ITT         ND        NPHI       NPOR        PR         SP        SPAR       SPHI       STIT       TENS       TNPH     HTNP_SAN
#
~A  
# ...
   9330.5000    47.5272    64.6552   375.3074   314.0195   321.3227    47.2834   171.4683   704.1089   830.0269  1950.0000    42.9244    48.7812   296.5630   146.8615   135.3357    73.0060    22.0771 -9612.3652 14973.7646 18838.8633   116.1412     0.0000    78.4180    78.4180   155.5140     0.0000   152.5654   413.6749   155.1478     0.0114     0.0060     0.0653     0.0000     0.0096     0.0220     0.3295    70.0000    69.5180     0.1787     0.0000  3159.0000     0.0079     0.0333
   9331.0000    48.3438   121.1273   574.3330   637.6844   894.8215    46.6592   732.8306   336.5037  1231.7306  1887.5013    44.3204    98.6584   474.9147   138.1350   322.2042   241.5674    16.1539 -9600.1006 15962.1230 20887.6035   116.1412     0.0000    81.2500    81.2500   156.0061     0.0000   146.6568   413.6610   147.4899     0.0044     0.0071     0.0654     0.0000     0.0072     0.0057     0.3139    69.6875    69.4268     0.1942     0.0000  3138.0000     0.0044     0.0347
   9331.5000    48.3335   268.3151   641.9246  1411.9821  1950.0000    48.9055  1693.9336   215.5488   542.3958   759.6140    43.2822   223.3207   526.3044   186.8694   610.7824   449.9585    13.2323 -9558.4004 18948.0801 22120.9590   116.1412     0.0000    81.2500    81.2500   156.0061     0.0000   137.1447   413.6910   139.8446     0.0071     0.0043     0.0654     0.0000     0.0065    -0.0032     0.3139    69.3750    69.3732     0.1942     0.0000  3149.0000     0.0006     0.0314
   9332.0000    48.9382   572.9250   559.3079  1760.8865  1950.0000    36.1414  1950.0000   158.1469   254.2021   331.6147    42.7598   562.6912   532.6102   233.8595   865.1519   306.3887    11.9174 -9555.1289 19721.7988 23989.1543   116.1412     0.0000    81.2500    81.2500   161.5371     0.0000   126.8211   413.7256   128.5173     0.0057     0.0006     0.0654     0.0000     0.0025    -0.0153     0.3307    69.3750    69.2796     0.1942     0.0000  3166.0002    -0.0023     0.0270
   9332.5000    49.6421  1125.9063   513.8560  1943.4053  1950.0000    49.9434  1950.0000   136.3062   139.8182   177.5556    43.0495  1236.4670   614.4982   345.3176  1144.4570   169.4645    11.6464 -9566.6475 20860.8223 22628.2773   116.1412     0.0000    81.2500    81.2500   161.1001     0.0000   118.6713   413.7303   118.1976     0.0026    -0.0026     0.0655     0.0000     0.0036    -0.0038     0.3294    69.3750    69.3160     0.1942     0.0000  3172.0000    -0.0023     0.0233
   9333.0000    50.6256  1701.6384   556.1817  1950.0000  1950.0000    44.7690  1950.0000   137.0627    91.4436   111.6225    45.2148  1901.0590   606.4725   483.3537  1473.6482   111.4927    12.3238 -9577.0273 18748.8984 23031.6582   116.1412     0.0000    80.9375    80.9375   161.1001     0.0000   110.7919   413.7695   113.8653    -0.0054     0.0007     0.0655     0.0000     0.0038    -0.0104     0.3312    69.3750    69.4035     0.1926     0.0000  3166.0002    -0.0006     0.0271
   9333.5000    55.4533  1950.0000   551.7112  1950.0000  1950.0000    43.8371  1950.0000   140.9682    65.9225    76.3727    49.9216  1950.0000   600.9913   750.7224  1809.0862    76.1770    14.1480 -9579.3037 16680.4961 20522.4316   116.1412     0.0000    75.0781    75.0781   151.2154     0.0000   105.4569   413.7764   105.9482     0.0083     0.0036     0.0656     0.0000     0.0095     0.0071     0.3364    69.3750    69.7028     0.1588     0.0000  3154.0000     0.0043     0.0305
   9334.0000    60.5346  1950.0000   563.3760  1950.0000  1950.0000    50.3012  1950.0000   124.3018    51.9103    57.7778    56.3375  1950.0000   536.0615  1153.7246  1950.0000    66.1355    17.7575 -9534.5107 13900.8984 19566.4805   116.1412     0.0000    90.6250    90.6250   152.7219     0.0000    97.9184   413.7787    99.3785     0.0001     0.0052     0.0656     0.0000     0.0124     0.0165     0.2282    69.3750    69.8974     0.2388     0.0000  3156.0000     0.0112     0.0324
   9334.5000    70.1515  1950.0000   556.4778  1950.0000  1950.0000    74.1963  1950.0000   102.0614    47.2950    51.4607    68.3168  1950.0000   434.7356  1574.3092  1950.0000    47.9868    24.8265 -9533.1592 12978.2354 17995.4141   116.1412     0.0000   111.4063   111.4063   157.9467     0.0000    92.8341   413.8203    93.9450     0.0079     0.0119     0.0657     0.0000     0.0172     0.0292     0.0050    69.3750    70.1444     0.3108     0.0000  3159.0000     0.0155     0.0404
   9335.0000    76.5594  1950.0000   522.1710  1950.0000  1950.0000    64.4991  1950.0000    93.7620    50.7081    54.1861    77.1446  1935.2126   347.0636  1935.3180  1950.0000    46.5830    37.5221 -9522.6367 12746.7383 19011.1719   116.1412     0.0000   111.4063   111.4063   157.9467     0.0000    89.1336   413.8088    88.3953     0.0108     0.0154     0.0657     0.0000     0.0181     0.0154     0.0050    70.0000    70.4402     0.3108     0.0000  3146.0000     0.0167     0.0447
   9335.5000    82.6342  1950.0000   470.1483  1950.0000  1950.0000   114.2195  1950.0000   100.2650    59.3556    61.7845    80.7065  1704.3491   292.2509  1950.0000  1950.0000    49.4573    58.5812 -9510.3359 12813.3271 18684.7852   116.1412     0.0000   111.4063   111.4063   157.3216     0.0000    91.7123   413.8826    88.3940     0.0197     0.0170     0.0658     0.0000     0.0189     0.0154     0.0142    70.3125    71.1277     0.3108     0.0000  3140.0000     0.0148     0.0467
   9336.0000    89.7287  1950.0000   417.0522  1932.6094  1950.0000   119.2848  1663.0247   119.5081    69.5490    69.8917    90.7764  1393.2273   268.8391  1950.0000  1950.0000    56.2036    86.2883 -9511.4736 13431.4141 19202.6230   116.1412     0.0000   111.4063   111.4063   159.4804     0.0000    98.4288   413.8687    96.9985     0.0126     0.0143     0.0658     0.0000     0.0172     0.0106     0.0235    71.2500    71.5027     0.3108     0.0000  3145.0000     0.0141     0.0433
   9336.5000    93.7988  1950.0000   372.5635  1795.6628  1950.0000    92.8542   921.1875   149.5952    85.7920    82.8988    91.0429  1026.1060   270.1528  1950.0000  1950.0000    67.2080   110.5490 -9542.8994 13422.6943 18780.9609   116.1412     0.0000   111.4063   111.4063   161.6391     0.0000   105.9425   413.8780   106.2402     0.0099     0.0111     0.0659     0.0000     0.0173     0.0102     0.0476    72.5000    71.9052     0.3108     0.0000  3149.0000     0.0125     0.0394
   9337.0000    96.9172  1901.6304   337.5895  1562.2092  1950.0000    91.7851   867.7907   162.5362   110.6411   102.4083   111.4382   873.2015   280.0783  1950.0000  1950.0000    88.5343   121.6228 -9550.5078 12829.8184 18780.3203   116.1412     0.0000   111.4063   111.4063   167.4604     0.0000   110.1522   413.8826   110.5553     0.0151     0.0143     0.0659     0.0000     0.0175     0.0126     0.1030    73.1250    72.7258     0.3108     0.0000  3137.5000     0.0153     0.0433
   9337.5000    98.4152  1676.6876   311.9900  1276.5157  1950.0000   145.2122   249.2767   113.4840   176.2320   144.5421   148.1273   748.6763   272.0995  1003.1636  1110.3167   134.8739   125.6420 -9550.6494 12087.0205 17422.1191   116.1412     0.0000   111.4063   111.4063   169.6192     0.0000   114.4985   413.9610   111.5977     0.0222     0.0156     0.0660     0.0000     0.0200     0.0260     0.1207    73.7500    73.1574     0.3108     0.0000  3133.0000     0.0168     0.0450
   9338.0000    94.1308  1269.2897   303.7389  1015.2231  1950.0000   103.7525   105.4251    67.4586   138.0779   114.2079   122.4902   669.5229   222.6465   471.7111   524.6025   130.2400    80.7818 -9557.5293 12071.3613 18512.3047   116.1412     0.0000   111.4063   111.4063   171.7780     0.0000   120.7406   413.9749   120.0965     0.0094     0.0170     0.0661     0.0000     0.0200     0.0137     0.1370    74.3750    73.5913     0.3108     0.0000  3138.0000     0.0187     0.0467
   9338.5000    91.9541   853.2101   299.0258   711.6284  1950.0000    74.1218    66.9510    71.5025   165.5361   121.3747    99.8607   245.4217   146.8214   348.4196   478.7388   148.2797    54.5934 -9560.3906 11901.9199 17403.1445   116.1412     0.0000    97.1875    97.1875   171.4227     0.0000   128.8939   413.9726   128.4553     0.0211     0.0186     0.0661     0.0000     0.0192     0.0333     0.2632    74.3750    74.0214     0.2649     0.0000  3134.0000     0.0188     0.0486
