~VERSION INFORMATION
VERS.           1.2   :CWLS Log ASCII Standard - VERSION 1.2
WRAP.           NO    :One Line per depth step
PROD.  Schlumberger   :LAS Producer
PROG.  DLIS to ASCII 2.3                               :LAS Program name and version
CREA.        2021/07/30 13:36                          :LAS Creation date {YYYY/MM/DD hh:mm}
DLIS_CREA.  2021-Jul-30 07:08                          :DLIS Creation date and time {YYYY-MMM-DD hh:mm}
SOURCE.     9adb19af-6988-40d6-a86c-1e71535bb624       :DLIS File Name
#--------------------------------------------------
~WELL INFORMATION
#MNEM.UNIT      DATA             DESCRIPTION
#---- ------ --------------   -----------------------------
STRT .F        5785.0000     :START DEPTH     
STOP .F        9045.0000     :STOP DEPTH     
STEP .F           0.5000       :STEP     
NULL .          -999.25      :NULL VALUE
COMP .                 COMPANY:  University Of Utah                 
WELL .                    WELL:  FORGE 78B-32                       
FLD  .                   FIELD:  None                               
LOC  .                LOCATION:  Lat: 38.500171, Long: -112.88221   
CNTY .                  COUNTY:  Beaver                             
STAT .                   STATE:  Utah                               
CTRY .                 COUNTRY:                                     
SRVC .         SERVICE COMPANY:  Schlumberger                       
LATI .DEG             LATITUDE:  38 30' 0.616" N                   
LONG .DEG            LONGITUDE:  112 52' 55.956" W                 
API  .              API NUMBER:  NRC 42-00090-03                    
DATE .                LOG DATE:  30-Jul-2021
UWI  .          UNIQUE WELL ID:                                     
#-----------------------------------------------------------------------------
~PARAMETER INFORMATION
#MNEM.UNIT    VALUE                      DESCRIPTION
#---- -----   --------------------       ------------------------
CN   .        University Of Utah         :Company Name
WN   .        FORGE 78B-32               :Well Name
FN   .        None                       :Field Name
FL   .        Lat  38.500171  Long  -112.88221 :Field Location
FL1  .                                   :Field Location, Line 1
COUN .        Beaver                     :County or Parish
STAT .        Utah                       :State or Province
NATI .                                   :Nation
DATE .        30-Jul-2021                :Tools Above Rotary Table Date
APIN .        NRC 42-00090-03            :API Well Number
SECT .                                   :Section
TOWN .                                   :Township
RANG .                                   :Range
DMF  .        KB                         :Drilling Measured From (Name of Drilling Elevation Reference)
LMF  .        KB                         :Logging Measured From (Name of Logging Elevation Reference)
PDAT .        GL                         :Permanent Datum
ENGI .        CSTILES                    :Engineer s Name
WITN .        Virgil  Welch              :Witness s Name
LATI .        38� 30' 0.616  N           :Latitude
LONG .        112� 52' 55.956  W         :Longitude
LUL  .        F.Morgan                   :Logging Unit Location
LUN  .        9108                       :Logging Unit Number
RUN  .        1B                         :Run Number
SON  .                                   :Service Order Number
BHT  .DEGF     419.00000                 :Bottom Hole Temperature
BS   .IN         5.75000                 :Bit Size
MDEN .G/C3       2.71000                 :Matrix Density for Density Porosity
DFD  .LB/G       8.30000                 :Drilling Fluid Density
DFV  .S         24.00000                 :Drilling Fluid Viscosity
DFL  .C3      -999.25000                 :Drilling Fluid Loss
RMFS .OHMM       4.42000                 :Resistivity of Mud Filtrate Sample
EKB  .F       5565.50000                 :Elevation of Kelly Bushing
EGL  .F       5536.00000                 :Elevation of Ground Level
BLI  .F       9532.00000                 :Bottom Log Interval
BSAL .PPM      700.00000                 :Borehole Salinity
FLEV .F          8.00000                 :Depth of Drilling Fluid Level to LMF (Log Measured From)
MCST .DEGF      62.00000                 :Mudcake Sample Temperature
MFST .DEGF      62.00000                 :Mud Filtrate Sample Temperature
MRT  .DEGF     419.00000                 :Maximum Recorded Temperature
MST  .DEGF      62.00000                 :Mud Sample Temperature
RMCS .OHMM       6.21000                 :Resistivity of Mud Cake Sample
RMS  .OHMM       5.20000                 :Resistivity of Mud Sample
RW   .OHMM       1.00000                 :Connate Water Resistivity
TDD  .F       9500.00000                 :Driller Total Depth
TDL  .F       9532.00000                 :Logger Total Depth
TLI  .F       8530.00000                 :Top Log Interval
HIDE .                                   :Header Identifier
MATR .        LIME                       :Rock Matrix for Neutron Porosity Corrections
FNUM .           1.00000                 :F-Numerator for Formation Factor Formula
FEXP .           2.00000                 :Exponent "m" for Formation Factor Formula
DFT  .        WATER                      :Drilling Fluid Type
DFPH .          11.00000                 :Drilling Fluid pH
MCSS .        Calculated                 :Mudcake Sample Source
MFSS .        Calculated                 :Mud Filtrate Sample Source
FD   .G/C3       1.00000                 :Fluid Density
MSS  .        Flowline                   :Mud Sample Source
OS1  .                                   :Other Services Line 1
OS2  .                                   :Other Services Line 2
OS3  .                                   :Other Services Line 3
OS4  .                                   :Other Services Line 4
OS5  .                                   :Other Services Line 5
R1   .                                   :Remarks Line 1
R2   .                                   :Remarks Line 2
R3   .                                   :Remarks Line 3
R4   .                                   :Remarks Line 4
R5   .                                   :Remarks Line 5
R6   .        Tool was run as per tool sketch :Remarks Line 6
R7   .        All logging intervals as per client request :Remarks Line 7
R8   .                                   :Remarks Line 8
TCS  .        20 00 00                   :Time Circulation Stopped
TLAB .        02 17 00                   :Time Logger At Bottom
NMT  .        NOBARITE                   :HRDD Mud Type for Nuclear Devices
EPD  .C3         5536.000000             :Elevation of Permanent Datum above Mean Sea Level
APD  .F          29.500000               :Elevation of Depth Reference (LMF) above Permanent Datum
#-----------------------------------------------------------------------------
~CURVE INFORMATION
#MNEM.UNIT   API CODE                                  DESCRIPTION
#---- -----  --------                                  -----------------------
DEPT .F                                                :DEPTH (BOREHOLE) {F12.4}
AF10 .OHMM                                             :Array Induction Four Foot Resistivity A10 {F11.4}
AF20 .OHMM                                             :Array Induction Four Foot Resistivity A20 {F11.4}
AF30 .OHMM                                             :Array Induction Four Foot Resistivity A30 {F11.4}
AF60 .OHMM                                             :Array Induction Four Foot Resistivity A60 {F11.4}
AF90 .OHMM                                             :Array Induction Four Foot Resistivity A90 {F11.4}
AO10 .OHMM                                             :Array Induction One Foot Resistivity A10 {F11.4}
AO20 .OHMM                                             :Array Induction One Foot Resistivity A20 {F11.4}
AO30 .OHMM                                             :Array Induction One Foot Resistivity A30 {F11.4}
AO60 .OHMM                                             :Array Induction One Foot Resistivity A60 {F11.4}
AO90 .OHMM                                             :Array Induction One Foot Resistivity A90 {F11.4}
AT10 .OHMM                                             :Array Induction Two Foot Resistivity A10 {F11.4}
AT20 .OHMM                                             :Array Induction Two Foot Resistivity A20 {F11.4}
AT30 .OHMM                                             :Array Induction Two Foot Resistivity A30 {F11.4}
AT60 .OHMM                                             :Array Induction Two Foot Resistivity A60 {F11.4}
AT90 .OHMM                                             :Array Induction Two Foot Resistivity A90 {F11.4}
AORT .OHMM                                             :Array Induction One Foot Rt {F11.4}
AORX .OHMM                                             :Array Induction One Foot Rxo {F11.4}
CDF  .LBF                                              :Calibrated Downhole Force {F11.4}
CFTC .HZ                                               :Corrected Far Thermal Count Rate {F11.4}
CNTC .HZ                                               :Corrected Near Thermal Count Rate {F11.4}
CTEM .DEGF                                             :Cartridge Temperature {F11.4}
DCAL .IN                                               :Differential Caliper {F11.4}
DT   .US/F                                             :Delta-T (also called Slowness or Interval Transit Time) {F11.4}
DTCO .US/F                                             :Delta-T Compressional {F11.4}
DTSM .US/F                                             :Delta-T Shear {F11.4}
ED   .F                                                :East Departure {F11.4}
GR_STGC.GAPI                                           :Gamma Ray {F11.4}
GTEM .DEGF                                             :Generalized Borehole Temperature {F11.4}
HGR_STGC.GAPI                                          :High Resolution Gamma Ray {F11.4}
HNPO .CFCF                                             :High Resolution Enhanced Thermal Neutron Porosity in Selected Lithology {F11.4}
HTNP .CFCF                                             :High Resolution Thermal Neutron Porosity (Ratio Method) in Selected Lithology {F11.4}
ITT  .S                                                :Integrated Transit Time {F11.4}
ND   .F                                                :North Departure {F11.4}
NPHI .CFCF                                             :Thermal Neutron Porosity (original Ratio Method) in Selected Lithology {F11.4}
NPOR .CFCF                                             :Enhanced Thermal Neutron Porosity in Selected Lithology {F11.4}
PR   .                                                 :Poisson s Ratio {F11.4}
SP   .MV                                               :Spontaneous Potential {F11.4}
SPAR .MV                                               :SP, Armor Return Compensated {F11.4}
SPHI .CFCF                                             :Sonic Porosity {F11.4}
STIT .F                                                :Stuck Tool Indicator, Total {F11.4}
TENS .LBF                                              :Cable Tension {F11.4}
TNPH .CFCF                                             :Thermal Neutron Porosity (Ratio Method) in Selected Lithology {F11.4}
HTNP_SAN.CFCF                                          :HiRes Thermal Neutron Porosity (matrix Sandstone) {F11.4}
#-----------------------------------------------------------------------------
# 
#      DEPT        AF10       AF20       AF30       AF60       AF90       AO10       AO20       AO30       AO60       AO90       AT10       AT20       AT30       AT60       AT90       AORT       AORX       CDF        CFTC       CNTC       CTEM       DCAL        DT        DTCO       DTSM        ED      GR_STGC      GTEM     HGR_STGC     HNPO       HTNP       ITT         ND        NPHI       NPOR        PR         SP        SPAR       SPHI       STIT       TENS       TNPH     HTNP_SAN
#
~A  
# ...
   8607.0000  1950.0000    41.5876   457.6834   671.5455  1220.6769  1950.0000    27.5619   165.9731  1465.9144  1476.4769  1950.0000    37.7643   347.1130   516.5469  1295.0168  1465.9144  1950.0000 -9538.4805  6118.0752 12845.6641   108.2353     0.0000    85.0000    85.0000    93.0614     0.0000   141.6426   376.0865   144.1757     0.0551     0.0581     0.2349     0.0000     0.0565     0.0707  -999.2500     0.0000     0.4563     0.2132     0.0000  2951.0000     0.0626     0.0986
   8607.5000  1950.0000    38.6647   556.3177   573.4068   797.6065  1950.0000    22.5261   137.2939  1513.8256  1602.5948  1950.0000    34.6005   425.8848   439.1184  1152.9314  1496.6471  1950.0000 -9492.2773  5854.2227 12061.4678   108.2353     0.0000    85.0000    85.0000    93.0614     0.0000   137.0264   376.1003   137.8330     0.0616     0.0557     0.2350     0.0000     0.0573     0.0775  -999.2500     0.0000     0.3898     0.2132     0.0000  2884.0000     0.0607     0.0956
   8608.0000  1950.0000    37.5545   663.6167   509.3264   492.0631  1950.0000    25.5394   246.2927   954.1262  1089.8896  1950.0000    34.0959   504.7077   401.0861   869.5015   954.1262  1950.0000 -9492.2773  6150.7549 13171.8887   108.2353     0.0000    85.0000    85.0000    93.1341     0.0000   133.7193   376.1966   133.6868     0.0498     0.0575     0.2350     0.0000     0.0588     0.0538  -999.2500     0.0000     0.2521     0.2132     0.0000  2817.9998     0.0595     0.0978
   8608.5000  1950.0000    37.9666   728.7739   472.2562   310.5147  1950.0000    32.5687   377.9689   525.0984   629.2991  1950.0000    36.0240   525.5538   375.0963   595.2430   525.0984  1950.0000 -9544.7490  6085.0933 13209.5303   108.2353     0.0000    85.0000    85.0000    93.1341     0.0000   131.2794   376.2241   132.9777     0.0606     0.0618     0.2350     0.0000     0.0595     0.0558  -999.2500     0.0000     0.0628     0.2132     0.0000  2742.0000     0.0590     0.1034
   8609.0000  1950.0000    40.3877   716.2483   457.2412   205.8141  1950.0000    38.7050   530.4055   326.6364   384.1472  1950.0000    39.5978   484.0866   357.4466   423.4857   326.6364  1896.5457 -9558.5430  6183.8501 12942.1465   108.2353     0.0000    85.0000    85.0000    96.0532     0.0000   130.2885   376.2516   127.9804     0.0663     0.0616     0.2351     0.0000     0.0577     0.0649  -999.2500     0.0000    -0.2186     0.2132     0.0000  2696.0000     0.0582     0.1031
   8609.5000  1950.0000    42.0169   655.6690   480.6897   155.9775  1950.0000    44.8103   544.5034   208.5975   240.1223  1950.0000    44.7396   414.1545   341.8964   324.5218   208.5975  1715.8422 -9552.2861  6678.8267 13736.2734   108.2353     0.0000    85.0000    85.0000    96.0532     0.0000   126.9888   376.3708   129.9088     0.0511     0.0577     0.2351     0.0000     0.0509     0.0454  -999.2500     0.0000    -0.4408     0.2132     0.0000  2657.0000     0.0503     0.0981
   8610.0000  1950.0000    45.0593   600.0091   526.9664   125.7729  1950.0000    49.1434   492.3513   137.6192   158.9662  1950.0000    47.7532   338.8754   341.2241   270.2814   137.6192  1328.3730 -9529.7109  7321.9014 13535.7793   108.2353     0.0000    78.7500    78.7500    96.0532     0.0000   126.4404   376.4442   127.6288     0.0438     0.0435     0.2352     0.0000     0.0466     0.0468  -999.2500     0.0000    -0.6423     0.1806     0.0000  2606.0000     0.0450     0.0800
   8610.5000  1950.0000    48.3231   600.8386   646.1705   118.7869  1747.9419    46.1302   292.4110    59.7283    70.6209  1950.0000    46.9085   311.5483   325.7531   231.7766    61.4507   930.7885 -9530.2441  7304.9800 13784.5342   108.2353     0.0000    72.5000    72.5000    93.9890     0.0000   124.9833   376.5358   124.1640     0.0400     0.0416     0.2352     0.0000     0.0456     0.0479  -999.2500     0.0000    -0.7682     0.1422     0.0000  2587.0000     0.0454     0.0775
   8611.0000  1950.0000    50.4943   644.1230   826.8256   118.3403  1356.8469    49.6989   485.8740   104.9553   118.8973  1950.0000    52.1805   382.5898   412.9938   284.4527   104.9553   591.4736 -9541.5488  7091.1001 14224.0352   108.2353     0.0000    72.5000    72.5000    93.9890     0.0000   125.7336   376.5542   125.8027     0.0476     0.0499     0.2352     0.0000     0.0466     0.0438  -999.2500    -0.6250    -0.8630     0.1422     0.0000  2586.0000     0.0455     0.0881
   8611.5000  1950.0000    51.6413   765.8191  1074.8472   127.8061  1158.6656    54.9616   970.5366   114.8265   136.8075  1950.0000    56.3238   427.9631   547.5588   291.2476   114.8265   391.5421 -9549.0859  7593.7695 14397.3223   108.2353     0.0000    72.5000    72.5000    93.9890     0.0000   124.8886   376.6092   125.3983     0.0416     0.0435     0.2353     0.0000     0.0423     0.0404  -999.2500    -1.2500    -0.8803     0.1422     0.0000  2586.0000     0.0402     0.0800
   8612.0000  1950.0000    52.5596   959.7778  1304.8661   153.6307   719.7818    46.9701   474.5547    86.7269   114.3939  1950.0000    54.7018   562.9962   706.6083   395.9678    86.7185   288.0890 -9548.6602  8707.2109 14607.3281   108.2353     0.0000    84.0234    84.0234    93.9748     0.0000   122.0163   376.6871   123.8000     0.0465     0.0370     0.2353     0.0000     0.0371     0.0402  -999.2500    -1.2500    -0.8120     0.2084     0.0000  2574.0000     0.0365     0.0718
   8612.5000  1950.0000    51.0133  1223.0413  1339.1500   210.1763   248.6272    41.5596   268.4691   135.6852   156.7153  1950.0000    52.6162   771.3760   774.3996   487.7508   135.5874   233.7039 -9535.0078  8591.6904 15029.1191   108.2353     0.0000    99.4531    99.4531    93.9748     0.0000   117.3356   376.7788   116.9196     0.0331     0.0344     0.2354     0.0000     0.0337     0.0324  -999.2500    -1.2500    -0.7200     0.2731     0.0000  2539.0000     0.0310     0.0684
   8613.0000  1950.0000    49.2434  1509.1353  1088.6665   296.2554   107.4430    30.7549   232.8499   111.8544   121.6843  1950.0000    46.7971  1000.4984   619.2344   506.9435   111.3929   215.3732 -9532.7324  9283.7559 16005.3770   108.2353     0.0000   103.3594   103.3594    93.9748     0.0000   112.2073   376.7835   111.9598     0.0270     0.0324     0.2354     0.0000     0.0325     0.0174  -999.2500    -1.2500    -0.4836     0.2864     0.0000  2502.0000     0.0279     0.0658
   8613.5000  1950.0000    48.4117  1750.2953   750.1351   459.6575    52.5863    21.8544    72.3482    49.7357    52.9106  1950.0000    43.0300  1167.6671   417.3647   442.2547    49.4664   129.8151 -9541.2646  9647.1943 15583.2627   108.2353     0.0000   102.4707   102.4707    93.7851     0.0000   109.4068   376.8889   108.9844     0.0300     0.0276     0.2355     0.0000     0.0283     0.0238  -999.2500    -1.2500    -0.1786     0.2834     0.0000  2503.0000     0.0253     0.0599
   8614.0000  1950.0000    48.5945  1900.2704   504.3096   743.2618   124.7273    24.5776   130.0919    64.5131    66.7871  1950.0000    40.1384  1211.0967   280.0918   354.0564    64.3382   147.9883 -9554.0625  9729.5537 14933.3916   108.2353     0.0000    98.9160    98.9160    93.7851     0.0000   108.2289   376.9302   108.4495     0.0288     0.0227     0.2355     0.0000     0.0269     0.0311  -999.2500    -0.6250     0.2783     0.2712     0.0000  2510.0000     0.0240     0.0537
   8614.5000  1950.0000    50.9764  1936.1095   351.3986  1145.5581   196.0429    23.9902   120.2918    27.1802    27.6504  1950.0000    39.3742  1096.0364   183.3149   251.3108    27.1802   197.1398 -9554.0625  9580.8467 15794.7783   108.2353     0.0000    96.2500    96.2500    93.9498     0.0000   107.1408   377.0173   108.0083     0.0174     0.0233     0.2356     0.0000     0.0267     0.0181  -999.2500     0.0000     0.6624     0.2614     0.0000  2526.0000     0.0246     0.0545
   8615.0000  1950.0000    56.8412  1854.7050   249.4663  1538.5854   478.3769    21.8424   102.9493    33.4333    33.2392  1950.0000    42.0424  1060.6266   142.8939   219.4230    33.7588   272.9499 -9532.5195  9234.9219 14856.2373   108.2353     0.0000    96.2500    96.2500    93.8662     0.0000   106.2863   377.1136   106.0184     0.0335     0.0252     0.2356     0.0000     0.0276     0.0297  -999.2500     0.9375     1.0507     0.2614     0.0000  2513.5000     0.0241     0.0569
