~VERSION INFORMATION
VERS.           1.2   :CWLS Log ASCII Standard - VERSION 1.2
WRAP.           NO    :One Line per depth step
PROD.  Schlumberger   :LAS Producer
PROG.  DLIS to ASCII 2.3                               :LAS Program name and version
CREA.        2021/07/30 13:36                          :LAS Creation date {YYYY/MM/DD hh:mm}
DLIS_CREA.  2021-Jul-30 07:07                          :DLIS Creation date and time {YYYY-MMM-DD hh:mm}
SOURCE.     e39621fc-7919-4a62-8a2a-6ee9c8654461       :DLIS File Name
#--------------------------------------------------
~WELL INFORMATION
#MNEM.UNIT      DATA             DESCRIPTION
#---- ------ --------------   -----------------------------
STRT .F      8527.5000       :START DEPTH     
STOP .F      9107.0000       :STOP DEPTH     
STEP .F       0.5000         :STEP       
NULL .          -999.25      :NULL VALUE
COMP .                 COMPANY:  University Of Utah                 
WELL .                    WELL:  FORGE 78B-32                       
FLD  .                   FIELD:  None                               
LOC  .                LOCATION:  Lat: 38.500171, Long: -112.88221   
CNTY .                  COUNTY:  Beaver                             
STAT .                   STATE:  Utah                               
CTRY .                 COUNTRY:                                     
SRVC .         SERVICE COMPANY:  Schlumberger                       
LATI .DEG             LATITUDE:  38 30' 0.616" N                   
LONG .DEG            LONGITUDE:  112 52' 55.956" W                 
API  .              API NUMBER:  NRC 42-00090-03                    
DATE .                LOG DATE:  30-Jul-2021
UWI  .          UNIQUE WELL ID:                                     
#-----------------------------------------------------------------------------
~PARAMETER INFORMATION
#MNEM.UNIT    VALUE                      DESCRIPTION
#---- -----   --------------------       ------------------------
CN   .        University Of Utah         :Company Name
WN   .        FORGE 78B-32               :Well Name
FN   .        None                       :Field Name
FL   .        Lat  38.500171  Long  -112.88221 :Field Location
FL1  .                                   :Field Location, Line 1
COUN .        Beaver                     :County or Parish
STAT .        Utah                       :State or Province
NATI .                                   :Nation
DATE .        30-Jul-2021                :Tools Above Rotary Table Date
APIN .        NRC 42-00090-03            :API Well Number
SECT .                                   :Section
TOWN .                                   :Township
RANG .                                   :Range
DMF  .        KB                         :Drilling Measured From (Name of Drilling Elevation Reference)
LMF  .        KB                         :Logging Measured From (Name of Logging Elevation Reference)
PDAT .        GL                         :Permanent Datum
ENGI .        CSTILES                    :Engineer s Name
WITN .        Virgil  Welch              :Witness s Name
LATI .        38� 30' 0.616  N           :Latitude
LONG .        112� 52' 55.956  W         :Longitude
LUL  .        F.Morgan                   :Logging Unit Location
LUN  .        9108                       :Logging Unit Number
RUN  .        1B                         :Run Number
SON  .                                   :Service Order Number
BHT  .DEGF     419.00000                 :Bottom Hole Temperature
BS   .IN         5.75000                 :Bit Size
MDEN .G/C3       2.71000                 :Matrix Density for Density Porosity
DFD  .LB/G       8.30000                 :Drilling Fluid Density
DFV  .S         24.00000                 :Drilling Fluid Viscosity
DFL  .C3      -999.25000                 :Drilling Fluid Loss
RMFS .OHMM       4.42000                 :Resistivity of Mud Filtrate Sample
EKB  .F       5565.50000                 :Elevation of Kelly Bushing
EGL  .F       5536.00000                 :Elevation of Ground Level
BLI  .F       9532.00000                 :Bottom Log Interval
BSAL .PPM      700.00000                 :Borehole Salinity
FLEV .F          8.00000                 :Depth of Drilling Fluid Level to LMF (Log Measured From)
MCST .DEGF      62.00000                 :Mudcake Sample Temperature
MFST .DEGF      62.00000                 :Mud Filtrate Sample Temperature
MRT  .DEGF     419.00000                 :Maximum Recorded Temperature
MST  .DEGF      62.00000                 :Mud Sample Temperature
RMCS .OHMM       6.21000                 :Resistivity of Mud Cake Sample
RMS  .OHMM       5.20000                 :Resistivity of Mud Sample
RW   .OHMM       1.00000                 :Connate Water Resistivity
TDD  .F       9500.00000                 :Driller Total Depth
TDL  .F       9532.00000                 :Logger Total Depth
TLI  .F       8530.00000                 :Top Log Interval
HIDE .                                   :Header Identifier
MATR .        LIME                       :Rock Matrix for Neutron Porosity Corrections
FNUM .           1.00000                 :F-Numerator for Formation Factor Formula
FEXP .           2.00000                 :Exponent "m" for Formation Factor Formula
DFT  .        WATER                      :Drilling Fluid Type
DFPH .          11.00000                 :Drilling Fluid pH
MCSS .        Calculated                 :Mudcake Sample Source
MFSS .        Calculated                 :Mud Filtrate Sample Source
FD   .G/C3       1.00000                 :Fluid Density
MSS  .        Flowline                   :Mud Sample Source
OS1  .                                   :Other Services Line 1
OS2  .                                   :Other Services Line 2
OS3  .                                   :Other Services Line 3
OS4  .                                   :Other Services Line 4
OS5  .                                   :Other Services Line 5
R1   .                                   :Remarks Line 1
R2   .                                   :Remarks Line 2
R3   .                                   :Remarks Line 3
R4   .                                   :Remarks Line 4
R5   .                                   :Remarks Line 5
R6   .        Tool was run as per tool sketch :Remarks Line 6
R7   .        All logging intervals as per client request :Remarks Line 7
R8   .                                   :Remarks Line 8
TCS  .        20 00 00                   :Time Circulation Stopped
TLAB .        02 17 00                   :Time Logger At Bottom
NMT  .        NOBARITE                   :HRDD Mud Type for Nuclear Devices
EPD  .C3         5536.000000             :Elevation of Permanent Datum above Mean Sea Level
APD  .F          29.500000               :Elevation of Depth Reference (LMF) above Permanent Datum
#-----------------------------------------------------------------------------
~CURVE INFORMATION
#MNEM.UNIT   API CODE                                  DESCRIPTION
#---- -----  --------                                  -----------------------
DEPT .F                                                :DEPTH (BOREHOLE) {F12.4}
AF10 .OHMM                                             :Array Induction Four Foot Resistivity A10 {F11.4}
AF20 .OHMM                                             :Array Induction Four Foot Resistivity A20 {F11.4}
AF30 .OHMM                                             :Array Induction Four Foot Resistivity A30 {F11.4}
AF60 .OHMM                                             :Array Induction Four Foot Resistivity A60 {F11.4}
AF90 .OHMM                                             :Array Induction Four Foot Resistivity A90 {F11.4}
AO10 .OHMM                                             :Array Induction One Foot Resistivity A10 {F11.4}
AO20 .OHMM                                             :Array Induction One Foot Resistivity A20 {F11.4}
AO30 .OHMM                                             :Array Induction One Foot Resistivity A30 {F11.4}
AO60 .OHMM                                             :Array Induction One Foot Resistivity A60 {F11.4}
AO90 .OHMM                                             :Array Induction One Foot Resistivity A90 {F11.4}
AT10 .OHMM                                             :Array Induction Two Foot Resistivity A10 {F11.4}
AT20 .OHMM                                             :Array Induction Two Foot Resistivity A20 {F11.4}
AT30 .OHMM                                             :Array Induction Two Foot Resistivity A30 {F11.4}
AT60 .OHMM                                             :Array Induction Two Foot Resistivity A60 {F11.4}
AT90 .OHMM                                             :Array Induction Two Foot Resistivity A90 {F11.4}
AORT .OHMM                                             :Array Induction One Foot Rt {F11.4}
AORX .OHMM                                             :Array Induction One Foot Rxo {F11.4}
CDF  .LBF                                              :Calibrated Downhole Force {F11.4}
CFTC .HZ                                               :Corrected Far Thermal Count Rate {F11.4}
CNTC .HZ                                               :Corrected Near Thermal Count Rate {F11.4}
CTEM .DEGF                                             :Cartridge Temperature {F11.4}
DCAL .IN                                               :Differential Caliper {F11.4}
DT   .US/F                                             :Delta-T (also called Slowness or Interval Transit Time) {F11.4}
DTCO .US/F                                             :Delta-T Compressional {F11.4}
DTSM .US/F                                             :Delta-T Shear {F11.4}
ED   .F                                                :East Departure {F11.4}
GR_STGC.GAPI                                           :Gamma Ray {F11.4}
GTEM .DEGF                                             :Generalized Borehole Temperature {F11.4}
HGR_STGC.GAPI                                          :High Resolution Gamma Ray {F11.4}
HNPO .CFCF                                             :High Resolution Enhanced Thermal Neutron Porosity in Selected Lithology {F11.4}
HTNP .CFCF                                             :High Resolution Thermal Neutron Porosity (Ratio Method) in Selected Lithology {F11.4}
ITT  .S                                                :Integrated Transit Time {F11.4}
ND   .F                                                :North Departure {F11.4}
NPHI .CFCF                                             :Thermal Neutron Porosity (original Ratio Method) in Selected Lithology {F11.4}
NPOR .CFCF                                             :Enhanced Thermal Neutron Porosity in Selected Lithology {F11.4}
PR   .                                                 :Poisson s Ratio {F11.4}
SP   .MV                                               :Spontaneous Potential {F11.4}
SPAR .MV                                               :SP, Armor Return Compensated {F11.4}
SPHI .CFCF                                             :Sonic Porosity {F11.4}
STIT .F                                                :Stuck Tool Indicator, Total {F11.4}
TENS .LBF                                              :Cable Tension {F11.4}
TNPH .CFCF                                             :Thermal Neutron Porosity (Ratio Method) in Selected Lithology {F11.4}
HTNP_SAN.CFCF                                          :HiRes Thermal Neutron Porosity (matrix Sandstone) {F11.4}
#-----------------------------------------------------------------------------
# 
#      DEPT        AF10       AF20       AF30       AF60       AF90       AO10       AO20       AO30       AO60       AO90       AT10       AT20       AT30       AT60       AT90       AORT       AORX       CDF        CFTC       CNTC       CTEM       DCAL        DT        DTCO       DTSM        ED      GR_STGC      GTEM     HGR_STGC     HNPO       HTNP       ITT         ND        NPHI       NPOR        PR         SP        SPAR       SPHI       STIT       TENS       TNPH     HTNP_SAN
#
~A  
# ...
   8986.5000  1950.0000    41.8573   277.6428   115.4098   176.8218   350.3077    18.5977    12.1889     8.3394     8.3191  1950.0000    34.4854   178.4153    72.9582   100.1976     8.1254  1950.0000 -7667.8828  9927.1719 16270.8271   108.2353     0.0000    54.4434    54.4434  -999.2500     0.0000   182.1440   404.4317   185.7512     0.0231     0.0255     0.0042     0.0000     0.0307     0.0223  -999.2500    29.6875    29.3453    -0.0179     0.0000  4338.8750     0.0275     0.0572
   8987.0000  1950.0000    42.7781   248.4152   135.9434   171.7244   771.2223    31.2141    20.3447    13.4483    13.3780  1950.0000    42.2175   182.1848    73.0502    81.6285    12.6671  1940.3239 -7675.7388  9222.3486 15540.6826   108.2353     0.0000    53.8867    53.8867  -999.2500     0.0000   145.7580   404.4487   139.6698     0.0286     0.0300     0.0042     0.0000     0.0334     0.0316  -999.2500    29.6875    29.5578    -0.0245     0.0000  4299.4287     0.0307     0.0628
   8987.5000  1950.0000    40.9734   248.5166   165.8461   160.8582   854.4157    17.8657    14.1840    11.5169    11.4507  1950.0000    47.3342   141.7920    56.6353    72.1695    11.0216  1870.7140 -7601.7397  8367.7813 15162.7998   108.2353     0.0000    54.9023    54.9023   137.5820     0.0000   119.6690   404.4356   113.0714     0.0423     0.0380     0.0041     0.0000     0.0346     0.0385     0.4053    29.4531    29.7598    -0.0125     0.0000  4271.7144     0.0347     0.0730
   8988.0000  1950.0000    36.9314   258.2252   227.9371   195.6917   962.5146    20.1640    17.7428    13.9462    13.8514  1950.0000    41.3352   157.6204    91.7549    83.9661    13.5969  1750.4535 -7580.1318  8676.8809 14752.5518   108.2353     0.0000    54.2676    54.2676   143.0985     0.0000   105.6096   404.4406   108.4222     0.0391     0.0318     0.0041     0.0000     0.0358     0.0443     0.4129    29.7656    30.0046    -0.0200     0.0000  4220.1250     0.0359     0.0651
   8988.5000  1950.0000    31.6345   283.7709   325.6086   246.8680  1950.0000    18.4426    30.7592    22.8971    22.6867  1603.6024    32.5576   164.3670   119.6026   102.8370    20.9408  1100.0015 -7724.7515  8803.8350 15369.9883   108.2353     0.0000    57.5195    57.5195  -999.2500     0.0000   102.0395   404.4389    95.6913     0.0415     0.0346     0.0041     0.0000     0.0326     0.0328  -999.2500    30.0000    30.2340     0.0165     0.0000  4201.8569     0.0316     0.0687
   8989.0000  1950.0000    26.4144   333.7164   452.5683   315.0342   550.7553    54.2689   138.7805    53.1218    52.6221   769.2869    26.7609   137.3972   175.3928    95.8990    35.8056   495.8176 -7602.1787  9564.4307 15772.9326   108.2353     0.0000    57.3926    57.3926  -999.2500     0.0000   104.8585   404.4441   102.0285     0.0335     0.0295     0.0040     0.0000     0.0308     0.0263  -999.2500    30.1563    30.5275     0.0152     0.0000  4257.7144     0.0276     0.0622
   8989.5000  1950.0000    22.2706   367.8848   483.6939   380.6342   124.5545    31.7975    53.7277    47.4998    46.8348   388.4010    23.0318    77.5294    71.7878    56.5297    33.2597   219.4482 -7700.8647 10079.8623 16201.9326   108.2353     0.0000    53.8672    53.8672   159.6481     0.0000   108.3228   404.4166   116.3679     0.0214     0.0231     0.0040     0.0000     0.0276     0.0230     0.4358    30.7031    30.8025    -0.0247     0.0000  4272.2505     0.0248     0.0542
   8990.0000  1950.0000    19.2144   340.7147   363.6241   377.7212    60.9310    12.9927    48.9486    40.0638    39.4367   218.6410    18.5128   118.6419    85.5575    86.0588    25.9871   101.6562 -7688.9487 10297.2666 16282.7861   108.2353     0.0000    49.7266    49.7266   185.3495     0.0000   109.5368   404.4350   106.5298     0.0237     0.0231     0.0040     0.0000     0.0258     0.0225     0.4612    31.2500    31.0612    -0.0788     0.0000  4341.8574     0.0224     0.0542
   8990.5000  1950.0000    16.7124   275.6200   242.7530   318.9610    54.2696     9.6858    20.9842    32.3515    31.8218   241.6618    14.3595    94.5308    56.0891    63.5464    17.6162    69.9521 -7684.5684 10720.8457 16667.1660   108.2353     0.0000    53.4766    53.4766   185.0612     0.0000   107.1593   404.4258   105.8821     0.0225     0.0216     0.0040     0.0000     0.0244     0.0204     0.4544    31.3393    31.3272    -0.0295     0.0000  4377.6250     0.0220     0.0523
   8991.0000  1950.0000    16.1145   210.9879   170.9600   254.6270    83.7751     6.8091    23.4240    14.2468    13.9016    69.1861    13.3946    86.3006    53.9210    68.0641     9.8464    37.0825 -7697.9282 10751.8350 16500.4297   108.2353     0.0000    53.5352    53.5352   183.3541     0.0000   113.9832   404.4228   109.4099     0.0272     0.0215     0.0039     0.0000     0.0221     0.0240     0.4534    31.6406    31.6124    -0.0288     0.0000  4385.8574     0.0195     0.0522
   8991.5000  1950.0000    16.5917   162.4716   123.5434   195.2510    17.4485     6.6982    11.3731     8.7480     8.7113    53.7012    10.6396    61.2450    30.8387    39.4575     6.5344    20.8369 -7713.0586 11698.8574 17082.7324   108.2353     0.0000    53.4375    53.4375   181.8845     0.0000   131.0077   404.4303   127.9758     0.0197     0.0165     0.0039     0.0000     0.0201     0.0187     0.4528    32.2656    31.8674    -0.0300     0.0000  4393.2856     0.0173     0.0461
   8992.0000  1950.0000    18.7305   132.7622    95.1077   184.5980     6.6835     4.8799     5.0800     3.6832     3.6761    25.8727    11.0994    50.5104    30.0680    32.6216     4.5660     9.1792 -7671.0352 12250.3506 17700.8496   108.2353     0.0000    53.5352    53.5352   181.1260     0.0000   150.2068   404.4166   157.2597     0.0244     0.0142     0.0039     0.0000     0.0163     0.0115     0.4521    32.5000    32.1065    -0.0288     0.0000  4369.7500     0.0126     0.0432
   8992.5000  1950.0000    25.0687   123.1071   107.1734   187.6882     8.6038     8.7318     5.2322     4.0453     4.0353    37.2766    15.9374    74.8086    53.5110    56.6301     4.4519    10.9006 -7694.9580 13519.0605 18027.2480   108.2353     0.0000    54.8633    54.8633   181.6749     0.0000   165.2623   404.4290   166.7071     0.0059     0.0091     0.0039     0.0000     0.0128     0.0128     0.4498    32.5000    32.3595    -0.0129     0.0000  4329.8569     0.0095     0.0370
   8993.0000  1950.0000    33.4691   141.6402   155.4298   210.8115    20.8753    21.1002    12.7263     9.1748     9.1410    54.0686    21.8962   168.7805   100.1684    94.1245     6.1428    20.8661 -7726.7695 14746.6025 18695.7461   108.2353     0.0000    48.3106    48.3106   181.6810     0.0000   165.7755   404.4395   172.0490     0.0021     0.0049     0.0038     0.0000     0.0092     0.0086     0.4620    32.3438    32.5646    -0.0995     0.0000  4261.5005     0.0055     0.0321
   8993.5000  1950.0000    49.9692   163.6577   223.5440   186.8782    38.3693    47.8887    18.2890    10.7942    10.6856    81.9796    31.9234   100.7015    66.1332   140.3792     7.7696    23.4968 -7757.8755 16035.0127 20008.7539   108.2353     0.0000    76.3867    76.3867   180.2894     0.0000   155.6301   404.4343   158.1009     0.0035     0.0028     0.0038     0.0000     0.0082    -0.0012     0.3906    32.3438    32.7802     0.1668     0.0000  4259.4287     0.0039     0.0296
   8994.0000  1950.0000    67.3991   174.3818   396.4848   127.0821   102.0690   278.1968    30.4675    14.3009    14.1815   331.7820    42.9980   142.1026   113.8976    98.8711     9.9939    32.3998 -7757.1475 15962.7119 20375.0156   108.2353     0.0000    76.3477    76.3477   179.5325     0.0000   141.3801   404.4474   136.6268     0.0055     0.0058     0.0038     0.0000     0.0078    -0.0005     0.3896    32.5000    32.9955     0.1666     0.0000  4268.1250     0.0031     0.0332
   8994.5000  1950.0000    71.9786   175.1528   561.5823   146.3287    44.7919   104.3493    37.9873    21.6389    21.2222   239.6032    36.3569   106.6511    68.0718    66.8589    13.0600    37.1386 -7761.4136 16476.1523 20473.9453   108.2353     0.0000    72.0313    72.0313   179.3066     0.0000   129.0371   404.4540   129.3932     0.0021     0.0031     0.0037     0.0000     0.0089     0.0034     0.4038    33.0469    33.2037     0.1391     0.0000  4232.8574     0.0047     0.0299
