~VERSION INFORMATION
VERS.           1.2   :CWLS Log ASCII Standard - VERSION 1.2
WRAP.           NO    :One Line per depth step
PROD.  Schlumberger   :LAS Producer
PROG.  DLIS to ASCII 2.3                               :LAS Program name and version
CREA.        2021/07/30 13:36                          :LAS Creation date {YYYY/MM/DD hh:mm}
DLIS_CREA.  2021-Jul-30 07:07                          :DLIS Creation date and time {YYYY-MMM-DD hh:mm}
SOURCE.     e39621fc-7919-4a62-8a2a-6ee9c8654461       :DLIS File Name
#--------------------------------------------------
~WELL INFORMATION
#MNEM.UNIT      DATA             DESCRIPTION
#---- ------ --------------   -----------------------------
STRT .F      8527.5000       :START DEPTH     
STOP .F      9107.0000       :STOP DEPTH     
STEP .F       0.5000         :STEP       
NULL .          -999.25      :NULL VALUE
COMP .                 COMPANY:  University Of Utah                 
WELL .                    WELL:  FORGE 78B-32                       
FLD  .                   FIELD:  None                               
LOC  .                LOCATION:  Lat: 38.500171, Long: -112.88221   
CNTY .                  COUNTY:  Beaver                             
STAT .                   STATE:  Utah                               
CTRY .                 COUNTRY:                                     
SRVC .         SERVICE COMPANY:  Schlumberger                       
LATI .DEG             LATITUDE:  38 30' 0.616" N                   
LONG .DEG            LONGITUDE:  112 52' 55.956" W                 
API  .              API NUMBER:  NRC 42-00090-03                    
DATE .                LOG DATE:  30-Jul-2021
UWI  .          UNIQUE WELL ID:                                     
#-----------------------------------------------------------------------------
~PARAMETER INFORMATION
#MNEM.UNIT    VALUE                      DESCRIPTION
#---- -----   --------------------       ------------------------
CN   .        University Of Utah         :Company Name
WN   .        FORGE 78B-32               :Well Name
FN   .        None                       :Field Name
FL   .        Lat  38.500171  Long  -112.88221 :Field Location
FL1  .                                   :Field Location, Line 1
COUN .        Beaver                     :County or Parish
STAT .        Utah                       :State or Province
NATI .                                   :Nation
DATE .        30-Jul-2021                :Tools Above Rotary Table Date
APIN .        NRC 42-00090-03            :API Well Number
SECT .                                   :Section
TOWN .                                   :Township
RANG .                                   :Range
DMF  .        KB                         :Drilling Measured From (Name of Drilling Elevation Reference)
LMF  .        KB                         :Logging Measured From (Name of Logging Elevation Reference)
PDAT .        GL                         :Permanent Datum
ENGI .        CSTILES                    :Engineer s Name
WITN .        Virgil  Welch              :Witness s Name
LATI .        38� 30' 0.616  N           :Latitude
LONG .        112� 52' 55.956  W         :Longitude
LUL  .        F.Morgan                   :Logging Unit Location
LUN  .        9108                       :Logging Unit Number
RUN  .        1B                         :Run Number
SON  .                                   :Service Order Number
BHT  .DEGF     419.00000                 :Bottom Hole Temperature
BS   .IN         5.75000                 :Bit Size
MDEN .G/C3       2.71000                 :Matrix Density for Density Porosity
DFD  .LB/G       8.30000                 :Drilling Fluid Density
DFV  .S         24.00000                 :Drilling Fluid Viscosity
DFL  .C3      -999.25000                 :Drilling Fluid Loss
RMFS .OHMM       4.42000                 :Resistivity of Mud Filtrate Sample
EKB  .F       5565.50000                 :Elevation of Kelly Bushing
EGL  .F       5536.00000                 :Elevation of Ground Level
BLI  .F       9532.00000                 :Bottom Log Interval
BSAL .PPM      700.00000                 :Borehole Salinity
FLEV .F          8.00000                 :Depth of Drilling Fluid Level to LMF (Log Measured From)
MCST .DEGF      62.00000                 :Mudcake Sample Temperature
MFST .DEGF      62.00000                 :Mud Filtrate Sample Temperature
MRT  .DEGF     419.00000                 :Maximum Recorded Temperature
MST  .DEGF      62.00000                 :Mud Sample Temperature
RMCS .OHMM       6.21000                 :Resistivity of Mud Cake Sample
RMS  .OHMM       5.20000                 :Resistivity of Mud Sample
RW   .OHMM       1.00000                 :Connate Water Resistivity
TDD  .F       9500.00000                 :Driller Total Depth
TDL  .F       9532.00000                 :Logger Total Depth
TLI  .F       8530.00000                 :Top Log Interval
HIDE .                                   :Header Identifier
MATR .        LIME                       :Rock Matrix for Neutron Porosity Corrections
FNUM .           1.00000                 :F-Numerator for Formation Factor Formula
FEXP .           2.00000                 :Exponent "m" for Formation Factor Formula
DFT  .        WATER                      :Drilling Fluid Type
DFPH .          11.00000                 :Drilling Fluid pH
MCSS .        Calculated                 :Mudcake Sample Source
MFSS .        Calculated                 :Mud Filtrate Sample Source
FD   .G/C3       1.00000                 :Fluid Density
MSS  .        Flowline                   :Mud Sample Source
OS1  .                                   :Other Services Line 1
OS2  .                                   :Other Services Line 2
OS3  .                                   :Other Services Line 3
OS4  .                                   :Other Services Line 4
OS5  .                                   :Other Services Line 5
R1   .                                   :Remarks Line 1
R2   .                                   :Remarks Line 2
R3   .                                   :Remarks Line 3
R4   .                                   :Remarks Line 4
R5   .                                   :Remarks Line 5
R6   .        Tool was run as per tool sketch :Remarks Line 6
R7   .        All logging intervals as per client request :Remarks Line 7
R8   .                                   :Remarks Line 8
TCS  .        20 00 00                   :Time Circulation Stopped
TLAB .        02 17 00                   :Time Logger At Bottom
NMT  .        NOBARITE                   :HRDD Mud Type for Nuclear Devices
EPD  .C3         5536.000000             :Elevation of Permanent Datum above Mean Sea Level
APD  .F          29.500000               :Elevation of Depth Reference (LMF) above Permanent Datum
#-----------------------------------------------------------------------------
~CURVE INFORMATION
#MNEM.UNIT   API CODE                                  DESCRIPTION
#---- -----  --------                                  -----------------------
DEPT .F                                                :DEPTH (BOREHOLE) {F12.4}
AF10 .OHMM                                             :Array Induction Four Foot Resistivity A10 {F11.4}
AF20 .OHMM                                             :Array Induction Four Foot Resistivity A20 {F11.4}
AF30 .OHMM                                             :Array Induction Four Foot Resistivity A30 {F11.4}
AF60 .OHMM                                             :Array Induction Four Foot Resistivity A60 {F11.4}
AF90 .OHMM                                             :Array Induction Four Foot Resistivity A90 {F11.4}
AO10 .OHMM                                             :Array Induction One Foot Resistivity A10 {F11.4}
AO20 .OHMM                                             :Array Induction One Foot Resistivity A20 {F11.4}
AO30 .OHMM                                             :Array Induction One Foot Resistivity A30 {F11.4}
AO60 .OHMM                                             :Array Induction One Foot Resistivity A60 {F11.4}
AO90 .OHMM                                             :Array Induction One Foot Resistivity A90 {F11.4}
AT10 .OHMM                                             :Array Induction Two Foot Resistivity A10 {F11.4}
AT20 .OHMM                                             :Array Induction Two Foot Resistivity A20 {F11.4}
AT30 .OHMM                                             :Array Induction Two Foot Resistivity A30 {F11.4}
AT60 .OHMM                                             :Array Induction Two Foot Resistivity A60 {F11.4}
AT90 .OHMM                                             :Array Induction Two Foot Resistivity A90 {F11.4}
AORT .OHMM                                             :Array Induction One Foot Rt {F11.4}
AORX .OHMM                                             :Array Induction One Foot Rxo {F11.4}
CDF  .LBF                                              :Calibrated Downhole Force {F11.4}
CFTC .HZ                                               :Corrected Far Thermal Count Rate {F11.4}
CNTC .HZ                                               :Corrected Near Thermal Count Rate {F11.4}
CTEM .DEGF                                             :Cartridge Temperature {F11.4}
DCAL .IN                                               :Differential Caliper {F11.4}
DT   .US/F                                             :Delta-T (also called Slowness or Interval Transit Time) {F11.4}
DTCO .US/F                                             :Delta-T Compressional {F11.4}
DTSM .US/F                                             :Delta-T Shear {F11.4}
ED   .F                                                :East Departure {F11.4}
GR_STGC.GAPI                                           :Gamma Ray {F11.4}
GTEM .DEGF                                             :Generalized Borehole Temperature {F11.4}
HGR_STGC.GAPI                                          :High Resolution Gamma Ray {F11.4}
HNPO .CFCF                                             :High Resolution Enhanced Thermal Neutron Porosity in Selected Lithology {F11.4}
HTNP .CFCF                                             :High Resolution Thermal Neutron Porosity (Ratio Method) in Selected Lithology {F11.4}
ITT  .S                                                :Integrated Transit Time {F11.4}
ND   .F                                                :North Departure {F11.4}
NPHI .CFCF                                             :Thermal Neutron Porosity (original Ratio Method) in Selected Lithology {F11.4}
NPOR .CFCF                                             :Enhanced Thermal Neutron Porosity in Selected Lithology {F11.4}
PR   .                                                 :Poisson s Ratio {F11.4}
SP   .MV                                               :Spontaneous Potential {F11.4}
SPAR .MV                                               :SP, Armor Return Compensated {F11.4}
SPHI .CFCF                                             :Sonic Porosity {F11.4}
STIT .F                                                :Stuck Tool Indicator, Total {F11.4}
TENS .LBF                                              :Cable Tension {F11.4}
TNPH .CFCF                                             :Thermal Neutron Porosity (Ratio Method) in Selected Lithology {F11.4}
HTNP_SAN.CFCF                                          :HiRes Thermal Neutron Porosity (matrix Sandstone) {F11.4}
#-----------------------------------------------------------------------------
# 
#      DEPT        AF10       AF20       AF30       AF60       AF90       AO10       AO20       AO30       AO60       AO90       AT10       AT20       AT30       AT60       AT90       AORT       AORX       CDF        CFTC       CNTC       CTEM       DCAL        DT        DTCO       DTSM        ED      GR_STGC      GTEM     HGR_STGC     HNPO       HTNP       ITT         ND        NPHI       NPOR        PR         SP        SPAR       SPHI       STIT       TENS       TNPH     HTNP_SAN
#
~A  
# ...
   8604.0000  1950.0000    75.3068    98.4809   219.6875  1305.0514    46.8566    49.5810    45.1593    53.6063    50.5583   696.0824    62.4546    63.1935    83.2659   125.3004    47.8739    65.7306 -9391.9492 13075.8545 18089.2773   114.1647     0.0000    51.7773    51.7773    90.0553     0.0000   143.7894   390.4684   145.5351     0.0123     0.0118     0.0241     0.0000     0.0145     0.0138     0.2531    33.2031    33.5901    -0.0510     0.0000  4018.7334     0.0108     0.0403
   8604.5000  1950.0000    75.3068    98.4809   219.6875  1305.0514    46.8566    49.5810    45.1593    53.6063    50.5583   696.0824    62.4546    63.1935    83.2659   125.3004    47.8739    65.7306 -9391.9492 12776.4922 17489.9277   114.1647     0.0000    51.6699    51.6699    90.4461     0.0000   138.3365   390.4988   141.4890     0.0062     0.0099     0.0241     0.0000     0.0145     0.0183     0.2578    33.2031    33.5901    -0.0524     0.0000  4018.7334     0.0125     0.0380
   8605.0000  1950.0000    75.3068    98.4809   219.6875  1305.0514    46.8566    49.5810    45.1593    53.6063    50.5583   696.0824    62.4546    63.1935    83.2659   125.3004    47.8739    65.7306 -9391.9492 12518.1602 17381.8379   114.1647     0.0000    51.7090    51.7090    90.8997     0.0000   130.3114   390.5330   128.2477     0.0082     0.0109     0.0241     0.0000     0.0168     0.0143     0.2608    33.2031    33.5901    -0.0519     0.0000  4018.7334     0.0135     0.0393
   8605.5000  1950.0000    75.3068    98.4809   219.6875  1305.0514    46.8566    49.5810    45.1593    53.6063    50.5583   696.0824    62.4546    63.1935    83.2659   125.3004    47.8739    65.7306 -9391.9492 11445.9326 17251.6855   114.1647     0.0000    51.8555    51.8555    93.4641     0.0000   118.2974   390.5841   121.4596     0.0131     0.0185     0.0241     0.0000     0.0193     0.0148     0.2776    33.2031    33.5901    -0.0500     0.0000  4018.7334     0.0157     0.0485
   8606.0000  1950.0000    75.3068    98.4809   219.6875  1305.0514    46.8566    49.5810    45.1593    53.6063    50.5583   696.0824    62.4546    63.1935    83.2659   125.3004    47.8739    65.7306 -9391.9492 11321.2197 17002.5527   114.1647     0.0000    51.7676    51.7676    92.8894     0.0000   119.0059   390.6118   105.4797     0.0181     0.0180     0.0240     0.0000     0.0212     0.0195     0.2747    33.2031    33.5901    -0.0511     0.0000  4018.7334     0.0185     0.0479
   8606.5000  1950.0000    75.3068    98.4809   219.6875  1305.0514    46.8566    49.5810    45.1593    53.6063    50.5583   696.0824    62.4546    63.1935    83.2659   125.3004    47.8739    65.7306 -9391.9492 11242.3193 16771.7148   114.1647     0.0000    51.6895    51.6895    91.7636     0.0000   126.5788   390.6413   129.6249     0.0209     0.0184     0.0240     0.0000     0.0217     0.0211     0.2676    33.2031    33.5901    -0.0521     0.0000  4018.7334     0.0188     0.0483
   8607.0000  1950.0000    75.3068    98.4809   219.6875  1305.0514    46.8566    49.5810    45.1593    53.6063    50.5583   696.0824    62.4546    63.1935    83.2659   125.3004    47.8739    65.7306 -9391.9492 11099.5107 17000.5293   114.1647     0.0000    51.7090    51.7090    91.5456     0.0000   135.4387   390.6871   144.1783     0.0189     0.0194     0.0240     0.0000     0.0213     0.0171     0.2657    33.2031    33.5901    -0.0519     0.0000  4018.7334     0.0185     0.0497
   8607.5000  1950.0000    75.3068    98.4809   219.6875  1305.0514    46.8566    49.5810    45.1593    53.6063    50.5583   696.0824    62.4546    63.1935    83.2659   125.3004    47.8739    65.7306 -9391.9492 11291.7871 16750.2188   114.1647     0.0000    51.2891    51.2891    91.5306     0.0000   136.5234   390.7220   132.5905     0.0173     0.0174     0.0240     0.0000     0.0226     0.0197     0.2711    33.2031    33.5901    -0.0574     0.0000  4018.7334     0.0191     0.0472
   8608.0000  1950.0000    75.3068    98.4809   219.6875  1305.0514    46.8566    49.5810    45.1593    53.6063    50.5583   696.0824    62.4546    63.1935    83.2659   125.3004    47.8739    65.7306 -9391.9492 10840.8936 16910.7910   114.1647     0.0000    51.5625    51.5625    91.3106     0.0000   134.4347   390.7573   133.3652     0.0184     0.0216     0.0239     0.0000     0.0254     0.0157     0.2659    33.2031    33.5901    -0.0538     0.0000  4018.7334     0.0209     0.0524
   8608.5000  1950.0000    75.3068    98.4809   219.6875  1305.0514    46.8566    49.5810    45.1593    53.6063    50.5583   696.0824    62.4546    63.1935    83.2659   125.3004    47.8739    65.7306 -9391.9492  9865.3721 16553.8477   114.1647     0.0000    51.6895    51.6895    91.5923     0.0000   130.6941   390.7901   137.9120     0.0255     0.0289     0.0239     0.0000     0.0308     0.0188     0.2663    33.2031    33.5901    -0.0521     0.0000  4018.7334     0.0263     0.0615
   8609.0000  1950.0000    75.3068    98.4809   219.6875  1305.0514    46.8566    49.5810    45.1593    53.6063    50.5583   696.0824    62.4546    63.1935    83.2659   125.3004    47.8739    65.7306 -9391.9492  8646.2031 15253.5850   114.1647     0.0000    51.2012    51.2012    90.9729     0.0000   122.6354   390.8369   120.0129     0.0384     0.0357     0.0239     0.0000     0.0348     0.0345     0.2682    33.2031    33.5901    -0.0586     0.0000  4018.7334     0.0326     0.0701
   8609.5000  1950.0000    75.3068    98.4809   219.6875  1305.0514    46.8566    49.5810    45.1593    53.6063    50.5583   696.0824    62.4546    63.1935    83.2659   125.3004    47.8739    65.7306 -9391.9492  8153.4639 14390.7305   114.1647     0.0000    51.3184    51.3184    90.9837     0.0000   115.8294   390.8909   109.1894     0.0296     0.0340     0.0239     0.0000     0.0377     0.0409     0.2667    33.2031    33.5901    -0.0570     0.0000  4018.7334     0.0373     0.0679
   8610.0000  1950.0000   124.0272   120.8007   224.6429  1232.1775    74.3774    96.3987    69.0473    88.4903    84.7037   808.9483    93.6674   139.9676   228.4143   484.8116    56.0486    76.2435 -9391.9492  7533.3911 13751.9043   114.1647     0.0000    51.6406    51.6406    91.3702     0.0000   114.8262   390.9108   117.5898     0.0355     0.0377     0.0238     0.0000     0.0433     0.0464     0.2653    33.2031    33.5901    -0.0528     0.0000  4018.7334     0.0431     0.0726
   8610.5000  1950.0000   213.8227   185.4044   243.3861  1218.6294    95.7904   256.1919    79.1792    65.3507    62.1934  1280.2806   199.0628   225.7130   209.1733   252.1224    41.9878   115.7270 -9391.9492  6438.4658 13132.7734   114.1647     0.0000    52.7637    52.7637    92.9633     0.0000   116.7080   390.9734   117.7955     0.0596     0.0544     0.0238     0.0000     0.0518     0.0604     0.2624    33.2031    33.5901    -0.0383     0.0000  4018.7334     0.0527     0.0939
   8611.0000  1950.0000   357.1546   302.2981   282.9631   966.7866   119.9335  1950.0000   109.6597    44.1257    43.0149  1950.0000   995.1429   645.9576   196.1829   125.1683    32.0696   132.4778 -9391.9492  6076.1709 13234.9971   114.1647     0.0000    54.0820    54.0820    93.6588     0.0000   114.9399   390.9960   114.5840     0.0673     0.0639     0.0238     0.0000     0.0586     0.0620     0.2499    33.2031    33.5901    -0.0222     0.0000  4018.7334     0.0601     0.1060
   8611.5000  1950.0000   443.7823   604.1218   465.9852   853.3250    89.7778  1289.2106   128.8161    34.7781    34.2772  1834.3497   365.4240  1344.5957   263.0029   164.8446    28.4424   195.3945 -9391.9492  6238.2271 13368.1650   114.1647     0.0000    54.0918    54.0918    93.6930     0.0000   116.2870   391.0423   111.7082     0.0656     0.0609     0.0238     0.0000     0.0593     0.0574     0.2500    33.2031    33.5901    -0.0220     0.0000  4018.7334     0.0594     0.1022
   8612.0000  1950.0000   221.0531  1335.8041   713.8424  1273.9319   258.0287   393.6334   178.3960    36.0522    35.6860  1950.0000   192.8311  1950.0000   338.3941   252.8221    29.5219   315.3114 -9391.9492  6381.0366 13223.4102   114.1647     0.0000    53.2227    53.2227    93.1324     0.0000   117.0798   391.0957   121.8368     0.0568     0.0561     0.0237     0.0000     0.0559     0.0575     0.2575    33.2031    33.5901    -0.0326     0.0000  4018.7334     0.0561     0.0961
