~VERSION INFORMATION
VERS.           1.2   :CWLS Log ASCII Standard - VERSION 1.2
WRAP.           NO    :One Line per depth step
PROD.  Schlumberger   :LAS Producer
PROG.  DLIS to ASCII 2.3                               :LAS Program name and version
CREA.        2021/07/30 13:36                          :LAS Creation date {YYYY/MM/DD hh:mm}
DLIS_CREA.  2021-Jul-30 07:08                          :DLIS Creation date and time {YYYY-MMM-DD hh:mm}
SOURCE.     6d1d3df9-7549-4232-acfc-119b5b71a716       :DLIS File Name
#--------------------------------------------------
~WELL INFORMATION
#MNEM.UNIT      DATA             DESCRIPTION
#---- ------ --------------   -----------------------------
STRT .F      7447.0000       :START DEPTH     
STOP .F      9553.0000       :STOP DEPTH     
STEP .F       0.5000         :STEP       
NULL .          -999.25      :NULL VALUE
COMP .                 COMPANY:  University Of Utah                 
WELL .                    WELL:  FORGE 78B-32                       
FLD  .                   FIELD:  None                               
LOC  .                LOCATION:  Lat: 38.500171, Long: -112.88221   
CNTY .                  COUNTY:  Beaver                             
STAT .                   STATE:  Utah                               
CTRY .                 COUNTRY:                                     
SRVC .         SERVICE COMPANY:  Schlumberger                       
LATI .DEG             LATITUDE:  38 30' 0.616" N                   
LONG .DEG            LONGITUDE:  112 52' 55.956" W                 
API  .              API NUMBER:  NRC 42-00090-03                    
DATE .                LOG DATE:  30-Jul-2021
UWI  .          UNIQUE WELL ID:                                     
#-----------------------------------------------------------------------------
~PARAMETER INFORMATION
#MNEM.UNIT    VALUE                      DESCRIPTION
#---- -----   --------------------       ------------------------
CN   .        University Of Utah         :Company Name
WN   .        FORGE 78B-32               :Well Name
FN   .        None                       :Field Name
FL   .        Lat  38.500171  Long  -112.88221 :Field Location
FL1  .                                   :Field Location, Line 1
COUN .        Beaver                     :County or Parish
STAT .        Utah                       :State or Province
NATI .                                   :Nation
DATE .        30-Jul-2021                :Tools Above Rotary Table Date
APIN .        NRC 42-00090-03            :API Well Number
SECT .                                   :Section
TOWN .                                   :Township
RANG .                                   :Range
DMF  .        KB                         :Drilling Measured From (Name of Drilling Elevation Reference)
LMF  .        KB                         :Logging Measured From (Name of Logging Elevation Reference)
PDAT .        GL                         :Permanent Datum
ENGI .        CSTILES                    :Engineer s Name
WITN .        Virgil  Welch              :Witness s Name
LATI .        38� 30' 0.616  N           :Latitude
LONG .        112� 52' 55.956  W         :Longitude
LUL  .        F.Morgan                   :Logging Unit Location
LUN  .        9108                       :Logging Unit Number
RUN  .        1B                         :Run Number
SON  .                                   :Service Order Number
BHT  .DEGF     419.00000                 :Bottom Hole Temperature
BS   .IN         5.75000                 :Bit Size
MDEN .G/C3       2.71000                 :Matrix Density for Density Porosity
DFD  .LB/G       8.30000                 :Drilling Fluid Density
DFV  .S         24.00000                 :Drilling Fluid Viscosity
DFL  .C3      -999.25000                 :Drilling Fluid Loss
RMFS .OHMM       4.42000                 :Resistivity of Mud Filtrate Sample
EKB  .F       5565.50000                 :Elevation of Kelly Bushing
EGL  .F       5536.00000                 :Elevation of Ground Level
BLI  .F       9532.00000                 :Bottom Log Interval
BSAL .PPM      700.00000                 :Borehole Salinity
FLEV .F          8.00000                 :Depth of Drilling Fluid Level to LMF (Log Measured From)
MCST .DEGF      62.00000                 :Mudcake Sample Temperature
MFST .DEGF      62.00000                 :Mud Filtrate Sample Temperature
MRT  .DEGF     419.00000                 :Maximum Recorded Temperature
MST  .DEGF      62.00000                 :Mud Sample Temperature
RMCS .OHMM       6.21000                 :Resistivity of Mud Cake Sample
RMS  .OHMM       5.20000                 :Resistivity of Mud Sample
RW   .OHMM       1.00000                 :Connate Water Resistivity
TDD  .F       9500.00000                 :Driller Total Depth
TDL  .F       9532.00000                 :Logger Total Depth
TLI  .F       8530.00000                 :Top Log Interval
HIDE .                                   :Header Identifier
MATR .        LIME                       :Rock Matrix for Neutron Porosity Corrections
FNUM .           1.00000                 :F-Numerator for Formation Factor Formula
FEXP .           2.00000                 :Exponent "m" for Formation Factor Formula
DFT  .        WATER                      :Drilling Fluid Type
DFPH .          11.00000                 :Drilling Fluid pH
MCSS .        Calculated                 :Mudcake Sample Source
MFSS .        Calculated                 :Mud Filtrate Sample Source
FD   .G/C3       1.00000                 :Fluid Density
MSS  .        Flowline                   :Mud Sample Source
OS1  .                                   :Other Services Line 1
OS2  .                                   :Other Services Line 2
OS3  .                                   :Other Services Line 3
OS4  .                                   :Other Services Line 4
OS5  .                                   :Other Services Line 5
R1   .                                   :Remarks Line 1
R2   .                                   :Remarks Line 2
R3   .                                   :Remarks Line 3
R4   .                                   :Remarks Line 4
R5   .                                   :Remarks Line 5
R6   .        Tool was run as per tool sketch :Remarks Line 6
R7   .        All logging intervals as per client request :Remarks Line 7
R8   .                                   :Remarks Line 8
TCS  .        20 00 00                   :Time Circulation Stopped
TLAB .        02 17 00                   :Time Logger At Bottom
NMT  .        NOBARITE                   :HRDD Mud Type for Nuclear Devices
EPD  .C3         5536.000000             :Elevation of Permanent Datum above Mean Sea Level
APD  .F          29.500000               :Elevation of Depth Reference (LMF) above Permanent Datum
#-----------------------------------------------------------------------------
~CURVE INFORMATION
#MNEM.UNIT   API CODE                                  DESCRIPTION
#---- -----  --------                                  -----------------------
DEPT .F                                                :DEPTH (BOREHOLE) {F12.4}
AF10 .OHMM                                             :Array Induction Four Foot Resistivity A10 {F11.4}
AF20 .OHMM                                             :Array Induction Four Foot Resistivity A20 {F11.4}
AF30 .OHMM                                             :Array Induction Four Foot Resistivity A30 {F11.4}
AF60 .OHMM                                             :Array Induction Four Foot Resistivity A60 {F11.4}
AF90 .OHMM                                             :Array Induction Four Foot Resistivity A90 {F11.4}
AO10 .OHMM                                             :Array Induction One Foot Resistivity A10 {F11.4}
AO20 .OHMM                                             :Array Induction One Foot Resistivity A20 {F11.4}
AO30 .OHMM                                             :Array Induction One Foot Resistivity A30 {F11.4}
AO60 .OHMM                                             :Array Induction One Foot Resistivity A60 {F11.4}
AO90 .OHMM                                             :Array Induction One Foot Resistivity A90 {F11.4}
AT10 .OHMM                                             :Array Induction Two Foot Resistivity A10 {F11.4}
AT20 .OHMM                                             :Array Induction Two Foot Resistivity A20 {F11.4}
AT30 .OHMM                                             :Array Induction Two Foot Resistivity A30 {F11.4}
AT60 .OHMM                                             :Array Induction Two Foot Resistivity A60 {F11.4}
AT90 .OHMM                                             :Array Induction Two Foot Resistivity A90 {F11.4}
AORT .OHMM                                             :Array Induction One Foot Rt {F11.4}
AORX .OHMM                                             :Array Induction One Foot Rxo {F11.4}
CDF  .LBF                                              :Calibrated Downhole Force {F11.4}
CFTC .HZ                                               :Corrected Far Thermal Count Rate {F11.4}
CNTC .HZ                                               :Corrected Near Thermal Count Rate {F11.4}
CTEM .DEGF                                             :Cartridge Temperature {F11.4}
DCAL .IN                                               :Differential Caliper {F11.4}
DT   .US/F                                             :Delta-T (also called Slowness or Interval Transit Time) {F11.4}
DTCO .US/F                                             :Delta-T Compressional {F11.4}
DTSM .US/F                                             :Delta-T Shear {F11.4}
ED   .F                                                :East Departure {F11.4}
GR_STGC.GAPI                                           :Gamma Ray {F11.4}
GTEM .DEGF                                             :Generalized Borehole Temperature {F11.4}
HGR_STGC.GAPI                                          :High Resolution Gamma Ray {F11.4}
HNPO .CFCF                                             :High Resolution Enhanced Thermal Neutron Porosity in Selected Lithology {F11.4}
HTNP .CFCF                                             :High Resolution Thermal Neutron Porosity (Ratio Method) in Selected Lithology {F11.4}
ITT  .S                                                :Integrated Transit Time {F11.4}
ND   .F                                                :North Departure {F11.4}
NPHI .CFCF                                             :Thermal Neutron Porosity (original Ratio Method) in Selected Lithology {F11.4}
NPOR .CFCF                                             :Enhanced Thermal Neutron Porosity in Selected Lithology {F11.4}
PR   .                                                 :Poisson s Ratio {F11.4}
SP   .MV                                               :Spontaneous Potential {F11.4}
SPAR .MV                                               :SP, Armor Return Compensated {F11.4}
SPHI .CFCF                                             :Sonic Porosity {F11.4}
STIT .F                                                :Stuck Tool Indicator, Total {F11.4}
TENS .LBF                                              :Cable Tension {F11.4}
TNPH .CFCF                                             :Thermal Neutron Porosity (Ratio Method) in Selected Lithology {F11.4}
HTNP_SAN.CFCF                                          :HiRes Thermal Neutron Porosity (matrix Sandstone) {F11.4}
#-----------------------------------------------------------------------------
# 
#      DEPT        AF10       AF20       AF30       AF60       AF90       AO10       AO20       AO30       AO60       AO90       AT10       AT20       AT30       AT60       AT90       AORT       AORX       CDF        CFTC       CNTC       CTEM       DCAL        DT        DTCO       DTSM        ED      GR_STGC      GTEM     HGR_STGC     HNPO       HTNP       ITT         ND        NPHI       NPOR        PR         SP        SPAR       SPHI       STIT       TENS       TNPH     HTNP_SAN
#
~A  
# ...
   7863.5000     0.2822  1950.0000  1950.0000     7.2249    38.5937     0.2894  1950.0000    32.8776     2.9300     5.9980     0.2747  1950.0000  1950.0000     7.3717    42.6125     2.5473     0.2709 -9999.9999  1978.8091  5322.0483   139.8588     0.0000    54.8438    54.8438   118.2656     0.0000    67.6245   362.7411    64.0218     0.0543     0.0701     0.0959     0.0000     0.0285     0.0468     0.3630   -39.3750   -39.3173    -0.0132     0.0000  3889.0002     0.0570     0.1139
   7864.0000     0.2780  1950.0000  1950.0000     6.8542    36.3732     0.2539  1950.0000    14.0438     2.8763     5.6797     0.2638  1950.0000  1950.0000     6.8496    48.4065     2.5530     0.2637 -7911.2974  2177.2405  5125.9209   139.8588     0.0000    55.0781    55.0781   121.0276     0.0000    66.3389   362.7336    67.5209     0.0656     0.0528     0.0958     0.0000     0.0321     0.0494     0.3694   -39.2188   -39.2619    -0.0105     0.0000  3920.0002     0.0535     0.0918
   7864.5000     0.2751  1950.0000  1950.0000     6.4172    34.2770     0.2313  1950.0000     8.8698     2.5321     4.9483     0.2561  1950.0000  1950.0000     6.2284    47.8606     2.5228     0.2595 -9495.4600  2116.2417  5247.0039   139.8588     0.0000    55.2344    55.2344   120.2337     0.0000    68.1021   362.7598    68.1956     0.0342     0.0525     0.0958     0.0000     0.0185     0.0402     0.3663   -39.3750   -39.1705    -0.0087     0.0000  3934.0002     0.0459     0.0915
   7865.0000     0.2746  1950.0000  1950.0000     6.0239    32.8924     0.2283  1950.0000     8.3192     2.3949     4.8083     0.2546  1950.0000  1950.0000     5.7497    41.9989     2.4653     0.2602  1469.4845  2429.5046  4805.2705   139.8588     0.0000    54.0625    54.0625   120.8987     0.0000    69.4147   362.7808    68.5897     0.0281     0.0294     0.0958     0.0000     0.0182     0.0604     0.3750   -38.9583   -39.0737    -0.0224     0.0000  3950.0002     0.0470     0.0622
   7865.5000     0.2767  1950.0000  1950.0000     5.7441    32.4378     0.2516  1950.0000    11.5046     2.4283     4.9898     0.2602  1950.0000  1950.0000     5.4819    34.2426     2.3969     0.2666 -9999.9999  2143.7104  5015.7598   139.8588     0.0000    54.6094    54.6094   100.1409     0.0000    71.5833   362.7549    71.4589     0.0466     0.0473     0.0957     0.0000     0.0149     0.0485     0.2884   -38.7500   -39.0079    -0.0159     0.0000  3912.0000     0.0431     0.0849
   7866.0000     0.2814  1950.0000  1950.0000     5.6067    32.8843     0.2754  1950.0000    20.0527     2.3373     4.6346     0.2724  1950.0000  1950.0000     5.3873    27.2390     2.3302     0.2782 -5538.2256  2352.5515  5413.0664   139.8588     0.0000    54.4141    54.4141   100.1947     0.0000    73.1012   362.7915    74.7012     0.0503     0.0445     0.0957     0.0000     0.0188     0.0313     0.2908   -38.7500   -39.0021    -0.0182     0.0000  3920.0002     0.0426     0.0812
   7866.5000     0.2877  1950.0000  1950.0000     5.6180    34.0961     0.3023  1950.0000    20.9482     2.1905     4.1295     0.2892  1950.0000  1950.0000     5.4285    22.3420     2.2694     0.2931 -5142.3076  2408.2280  5264.6338   139.8588     0.0000    53.8477    53.8477   102.2499     0.0000    74.8122   362.7777    73.0726     0.0513     0.0427     0.0957     0.0000     0.0175     0.0384     0.3081   -38.7500   -39.0587    -0.0250     0.0000  3881.0002     0.0422     0.0789
   7867.0000     0.2945  1950.0000  1950.0000     5.7753    35.9159     0.3356  1950.0000    10.2446     2.1667     3.9672     0.3074  1950.0000  1950.0000     5.6114    19.9865     2.2118     0.3084 -3955.8401  2234.4111  5074.5728   139.8588     0.0000    54.1992    54.1992   101.7919     0.0000    78.4360   362.7998    76.5918     0.0454     0.0494     0.0957     0.0000     0.0160     0.0445     0.3022   -39.3750   -39.1023    -0.0208     0.0000  3857.9998     0.0425     0.0875
   7867.5000     0.3005  1950.0000  1950.0000     6.0682    38.1841     0.3535  1950.0000     5.6736     2.2044     3.9044     0.3233  1950.0000  1950.0000     5.9621    20.1035     2.1493     0.3210  6330.7441  2281.0886  5058.9028   139.8588     0.0000    55.1563    55.1563   101.9395     0.0000    82.2398   362.8128    85.5724     0.0284     0.0382     0.0956     0.0000     0.0179     0.0460     0.2930   -39.3750   -39.2523    -0.0096     0.0000  3852.0002     0.0465     0.0732
   7868.0000     0.3047  1950.0000  1950.0000     6.4718    40.6816     0.3362  1950.0000     4.4625     2.2303     3.7211     0.3338  1950.0000  1950.0000     6.4717    22.9801     2.0749     0.3285 10286.2900  2099.7512  4811.5400   139.8588     0.0000    55.6152    55.6152   102.1553     0.0000    83.6077   362.8021    84.5554     0.0392     0.0482     0.0956     0.0000     0.0203     0.0532     0.2894   -39.3750   -39.3157    -0.0043     0.0000  3807.0002     0.0470     0.0860
   7868.5000     0.3066  1950.0000  1950.0000     6.9351    43.0133     0.3389  1950.0000     4.8449     2.2191     3.4132     0.3374  1950.0000  1950.0000     7.0549    29.5534     1.9920     0.3300 -5537.6235  2094.5688  5022.2422   139.8588     0.0000    55.8105    55.8105   103.6229     0.0000    81.9657   362.8311    80.6953     0.0449     0.0491     0.0956     0.0000     0.0213     0.0481     0.2957   -39.3750   -39.4908    -0.0021     0.0000  3784.0000     0.0505     0.0871
   7869.0000     0.3063  1950.0000  1950.0000     7.3768    44.5584     0.3605  1950.0000     5.8981     1.9491     2.7295     0.3346  1950.0000  1950.0000     7.5963    41.3934     1.9176     0.3260 -9999.9999  2121.6873  4825.3223   139.8588     0.0000    56.3281    56.3281   103.9282     0.0000    79.1073   362.8342    80.0430     0.0309     0.0463     0.0955     0.0000     0.0199     0.0512     0.2920   -39.3750   -39.6756     0.0036     0.0000  3733.0000     0.0459     0.0835
   7869.5000     0.3043  1950.0000  1950.0000     7.6992    44.6745     0.3432  1950.0000     6.2307     1.5855     2.0909     0.3268  1950.0000  1950.0000     7.9989    59.3744     1.8751     0.3184 -9999.9999  2297.6299  5092.3198   139.8588     0.0000    56.6309    56.6309   104.0218     0.0000    75.8594   362.8570    75.9803     0.0340     0.0387     0.0955     0.0000     0.0169     0.0426     0.2894   -39.3750   -39.8270     0.0070     0.0000  3694.0000     0.0452     0.0739
   7870.0000     0.3012  1950.0000  1950.0000     7.8243    43.1507     0.2638  1950.0000     6.4813     1.5022     1.9475     0.3165  1950.0000  1950.0000     8.1974    80.3150     1.8830     0.3098 -3955.9497  2238.5295  5003.0962   139.8588     0.0000    56.2500    56.2500   119.3718     0.0000    75.1114   362.8559    70.9514     0.0453     0.0452     0.0955     0.0000     0.0209     0.0495     0.3573   -39.5833   -39.9623     0.0028     0.0000  3716.0000     0.0469     0.0821
   7870.5000     0.2976  1950.0000  1950.0000     7.7353    40.4651     0.2908  1950.0000     8.7808     1.7916     2.3674     0.3063  1950.0000  1950.0000     8.1273    95.4123     1.9484     0.3021  2374.1108  2088.7075  5202.4854   139.8588     0.0000    55.6738    55.6738   120.0096     0.0000    76.3683   362.8631    78.4024     0.0576     0.0597     0.0955     0.0000     0.0201     0.0363     0.3629   -40.6250   -40.2964    -0.0037     0.0000  3728.0000     0.0436     0.1007
   7871.0000     0.2942  1950.0000  1950.0000     7.4871    37.4843     0.2917  1950.0000    17.1410     2.2646     3.2046     0.2981  1950.0000  1950.0000     7.7834    99.4370     2.0649     0.2963 -9999.9999  2397.2273  5213.5654   139.8588     0.0000    55.2051    55.2051   122.5907     0.0000    79.9399   362.8754    79.7511     0.0285     0.0334     0.0954     0.0000     0.0185     0.0363     0.3728   -41.2500   -40.5125    -0.0090     0.0000  3741.0000     0.0449     0.0671
   7871.5000     0.2916  1950.0000  1950.0000     7.1727    34.9492     0.2926  1950.0000    49.5904     2.4423     3.8190     0.2924  1950.0000  1950.0000     7.3118    95.5469     2.2110     0.2927 -8079.8047  2135.4592  4583.2314   139.8588     0.0000    55.0391    55.0391   120.6511     0.0000    83.0591   362.8951    81.7589     0.0398     0.0429     0.0954     0.0000     0.0120     0.0584     0.3686   -41.2500   -40.6374    -0.0109     0.0000  3748.0002     0.0405     0.0792
